{
    "title":"FFF Github Global Map WFF",
    "generated":"2020-02-12 01:24",
    "encoding":"utf-8",
    "keys":["Country","Town","Address","Time","Date","Frequency","Lat","Lon"],
    "data":[{"Country":"Austria","Town":"9584 Finkenstein am Faaker See","Time":"17:00","Date":"2019-09-20","Frequency":"Once only","Lat":46.5610477,"Lon":13.8712489},{"Country":"Austria","Town":"Dietach","Time":"7:00","Date":"2019-09-20","Frequency":"Once only","Lat":48.09029,"Lon":14.4179105},{"Country":"Austria","Town":"4753 Taiskirchen im Innkreis","Time":"16:45","Date":"2019-09-20","Frequency":"Once only","Lat":48.2651374,"Lon":13.5730287},{"Country":"Austria","Town":"3443 Sieghartskirchen","Date":"2019-09-20","Frequency":"Once only","Lat":48.2543134,"Lon":16.013779},{"Country":"Sweden","Town":"Alingsås","Address":"På rådhustrapporna vid Stora torget","Time":"17-18","Date":"2019-09-20","Frequency":"Weekly","Lat":57.9300205,"Lon":12.5362113},{"Country":"Sweden","Town":"Gothenburg","Address":"In front of townhall|In front of townhall|Göteborg, Gustav Adolfs Torg. kl 15-17 kontakt Kerstin Hamberger","Time":"At 12.00-13.00 (noon to 1pm)|Kl. 12.00-13.00|15-17","Date":"2019-09-20","Frequency":"Weekly","Lat":57.70887,"Lon":11.97456},{"Country":"Sweden","Town":"Halmstad","Address":"Halmstad, Rädhuset. kl12-14, kontakt Suzanne Näckdal och Anne-Marie Bruno","Time":"12-14","Date":"2019-09-20","Frequency":"Weekly","Lat":56.6743748,"Lon":12.8577885},{"Country":"Sweden","Town":"Karlstad","Address":"Stora Torget Karlstad|Stora Torget |Stora Torget","Time":"12.00 - 15.00|12.00-15.00|12-15","Date":"2019-09-20","Frequency":"Weekly","Lat":59.4021806,"Lon":13.5114978},{"Country":"Sweden","Town":"Luleå","Address":"Luleå, stadshuset, kl12-13 kontakt Elsa Rensfeldt o Emma Westerberg","Time":"12-13","Date":"2019-09-20","Frequency":"Weekly","Lat":65.584819,"Lon":22.1567026},{"Country":"Sweden","Town":"Örebro","Address":"Örebro. kl 15.-17. Kontakt: @Klimatfredag Instagram","Time":"15-17","Date":"2019-09-20","Frequency":"Weekly","Lat":59.2752626,"Lon":15.2134105},{"Country":"Sweden","Town":"Östersund","Address":"In front of Rådhuset|ÖSTERSUND, Östersunds Rådhus, kl14-17 kontakt Joakim Karlsson o Lina Strömgren https://www.facebook.com/events/277411122918641/","Time":"14.00-17.00|14-17","Date":"2019-09-20","Frequency":"Weekly","Lat":63.1766832,"Lon":14.6360681},{"Country":"Sweden","Town":"Simrishamn","Address":"Simrishamn på fredag framför stadshuset 10.30-13.30","Time":"10.30-13.30","Date":"2019-09-20","Frequency":"Weekly","Lat":55.5573959,"Lon":14.3489651},{"Country":"Sweden","Town":"Skövde","Address":"Skövde, stadshuset, kl15-17, kontakt Maj-Lis Lindholm","Time":"15-17","Date":"2019-09-20","Frequency":"Weekly","Lat":58.3902782,"Lon":13.8461208},{"Country":"Sweden","Town":"Uppsala","Address":"Uppsala, Forumtorget. kl 15-17. Kontakt: Karin Holmstrand Jordensvänner, Klimatstudenterna - SLU","Time":"15-17","Date":"2019-09-20","Frequency":"Weekly","Lat":59.8585638,"Lon":17.6389267},{"Country":"Canada","Town":"Abitibi-Témiscamingue","Address":"Rouyn-Noranda, Québec","Time":"12:00 PM","Date":"2019-09-27","Frequency":"Once only","Lat":47.7344268,"Lon":-77.672777},{"Country":"Sweden","Town":"Västerås","Address":"Torggatan i centrum","Date":"2019-09-20","Frequency":"Weekly","Lat":59.6099005,"Lon":16.5448092},{"Country":"Sweden","Town":"Stockholm","Time":"kl8-13|kl8-13","Date":"2019-09-20","Frequency":"weekly","Lat":59.3293235,"Lon":18.0685808},{"Country":"Sweden","Town":"Växjö","Time":"kl15-16","Date":"2019-09-20","Frequency":"weekly","Lat":56.8790044,"Lon":14.8058523},{"Country":"Sweden","Town":"Vimmerby","Address":"VIMMERBY Contact: Ingvar Edlund o Laurent Mertz https://www.facebook.com/events/187531722140345/ https://www.facebook.com/groups/288419755103990/permalink/291860014759964/","Date":"2019-09-20","Frequency":"Weekly","Lat":57.6690339,"Lon":15.858857},{"Country":"Sweden","Town":"Visby","Address":"Östercentrum|March from downhill to city centre|Östercentrum|Visby Östercentrum|VISBY Ostercentrum kl11:30-14 kontakt Alfred Westh https://www.facebook.com/events/346676762763537/?ti=cl","Time":"16-17|11:00-12:15 |17-18|17.00-18.00|11.30-14","Date":"2019-09-20","Frequency":"Weekly","Lat":57.6348,"Lon":18.29484},{"Country":"Canada","Town":"Acton","Address":"Acton Arena Parking Lot , 415 Queen Street, East, Acton, ON|415 Queen Street|Outside Acton Arena, Acton, Ontario","Time":"15:30-17:00|4:00 PM|3:45 PM","Date":"2019-09-26","Frequency":"Once only","Lat":43.6339088,"Lon":-80.041322},{"Country":"Canada","Town":"Barrie","Address":"11 Bear Creek Dr, Barrie, ON L4N 9M9|Meridian Place, Ontario","Time":"1:15|12:00 PM","Date":"2019-09-27","Frequency":"Once only","Lat":44.3893556,"Lon":-79.6903316},{"Country":"UK","Town":"Faversham ME13","Address":"51 Park Rd|Whitstable Road, Faversham, Kent","Time":"9:30 AM|9:30","Date":"2019-09-20","Frequency":"Once only","Lat":51.315994,"Lon":0.889358},{"Country":"Canada","Town":"Belleville","Address":"In front of townhall","Time":"At 12.00-13.00 (noon to 1pm)","Date":"2019-09-20","Frequency":"Once only","Lat":44.1627589,"Lon":-77.3832315},{"Country":"UK","Town":"Loughton","Address":"Alderton Hill|Loughton","Time":"10:00 AM|11:00","Date":"2019-09-20","Frequency":"Once only","Lat":51.655942,"Lon":0.068161},{"Country":"Canada","Town":"Calgary","Address":"Municipal plaza|In front of townhall|Municipal Plaza and Stephen Avenue Mall|Calgary City Hall ","Time":"5:00|Any time|3 pm to 6 pm|12:00 PM","Date":"2019-09-20","Frequency":"Once only","Lat":51.0447331,"Lon":-114.0718831},{"Country":"Canada","Town":"Calgary","Address":"In front of townhall|Sunalta Elementary School|AUArts Main Mall|In front of townhall|Univeristy of Calgary, in front of Mac Hall and TFDL|Calgary City Hall ","Time":"At 12.00-13.00 (noon to 1pm)|10:30-11am|11 AM|At 12.00-13.00 (noon to 1pm)|10:30-11:30 AM|12:00 PM","Date":"2019-09-27","Frequency":"Once only","Lat":51.0447331,"Lon":-114.0718831},{"Country":"Faroe Islands","Town":"Tórshavn","Date":"2019-09-20","Frequency":"Weekly","Lat":62.0107248,"Lon":-6.7740852},{"Country":"UK","Town":"Alnwick NE66","Address":"Willowburn Avenue|Alnwick Climate Strike","Time":"9:00 AM|9:00","Date":"2019-09-20","Frequency":"Once only","Lat":55.412744,"Lon":-1.706299},{"Country":"Canada","Town":"Chatham-Kent","Address":"In front of townhall|315 King St., Chatham-Kent, Ontario","Time":"At 12.00-13.00 (noon to 1pm)|12:00 PM","Date":"2019-09-21","Frequency":"Once only","Lat":42.4048028,"Lon":-82.1910378},{"Country":"Canada","Town":"Courtenay","Address":"Simms Park","Time":"1PM - 4PM","Date":"2019-09-27","Frequency":"Once only","Lat":49.6841391,"Lon":-124.9904494},{"Country":"Sweden","Town":"Mynttorget, Stockholm","Time":"strike","Date":"2019-09-20","Frequency":"every friday","Lat":59.3267464,"Lon":18.0692843},{"Country":"Germany","Town":"Aachen","Address":"Elisenbrunnen|Elisenbrunnen","Time":"10.00-13.00|10:00 Uhr","Date":"2019-09-20","Frequency":"Every Friday","Lat":50.7753455,"Lon":6.0838868},{"Country":"Canada","Town":"Duncan","Address":"In front of townhall|Duncan City Square, British Columbia","Time":"12:00-3:00|11:30 AM","Date":"2019-09-20","Frequency":"Once only","Lat":48.7786908,"Lon":-123.7079417},{"Country":"UK","Town":"Liverpool","Address":"Liverpool TBC","Time":"9:00","Date":"2019-09-20","Frequency":"Once only","Lat":53.4083714,"Lon":-2.9915726},{"Country":"Germany","Town":"Krefeld","Address":"HBF|HBF|Neumarkt|Krefeld HBF|HBF","Time":"11.00-14.00|15|16.3|11|11:00 Uhr","Date":"2019-09-20","Frequency":"Weekly","Lat":51.3387609,"Lon":6.5853417},{"Country":"Germany","Town":"Osnabrück","Address":"Theatervorplatz|Theatervorplatz","Time":"10|10:00 Uhr","Date":"2019-09-20","Frequency":"Every Friday","Lat":52.2799112,"Lon":8.0471788},{"Country":"UK","Town":"Victoria Rd, Swindon SN1","Address":"Regent Circus, Victoria Rd, SN1 3DQ Swindon","Time":"12:30","Date":"2019-09-20","Frequency":"Once only","Lat":51.5556373,"Lon":-1.7780986},{"Country":"Canada","Town":"Edmonton","Address":"Provincial Legislature|8900 114 Street NW|TBD|Alberta Legislature Grounds, Alberta","Time":"At 12.00-13.00 (noon to 1pm)|10:30 AM|12:00 PM|1:00 PM","Date":"2019-09-27","Frequency":"Once only","Lat":53.5461245,"Lon":-113.4938229},{"Country":"Canada","Town":"Gatineau","Address":"Gatineau, Québec","Time":"11:00 AM","Date":"2019-09-27","Frequency":"Once only","Lat":45.4765446,"Lon":-75.7012723},{"Country":"UK","Town":"Londonderry","Address":"Shipquay Place|Guildhall Square, Londonderry, Northern Ireland","Time":"1:00 PM|13:00","Date":"2019-09-20","Frequency":"Once only","Lat":54.9966124,"Lon":-7.3085748},{"Country":"Canada","Town":"Georgetown, Halton Hills","Address":"Dominion Gardens Park, 135 Maple Ave. Georgetown, ON |Dominion Gardens Park, 118 Guelph St, Georgetown, Ontario","Time":"15:30-17:00|3:45 PM","Date":"2019-09-20","Frequency":"Once only","Lat":43.6502046,"Lon":-79.9036236},{"Country":"UK","Town":"Cheltenham","Address":"Francis Hall Close Campus Courtyard|Swindon Rd|Francis Close Hall, FCH Campus, GL50 4AZ Cheltenham, Gloucestershire","Time":"At 12.00-13.00 (noon to 1pm)|12:00 PM|12:00","Date":"2019-09-20","Frequency":"Once only","Lat":51.8993855,"Lon":-2.0782533},{"Country":"Canada","Town":"Guelph","Address":"In front of townhall|In front of townhall|1 Carden Street","Time":"12-2pm|At 12.00-13.00 (noon to 1pm)|11:00 AM","Date":"2019-09-20","Frequency":"Once only","Lat":43.5448048,"Lon":-80.2481666},{"Country":"Canada","Town":"Halifax Regional Municipality","Address":"TBD|TBD|Victoria Park, Halifax, Nova Scotia","Time":"12:00 PM|9:00 PM|11:00 AM","Date":"2019-09-27","Frequency":"Once only","Lat":44.6487635,"Lon":-63.5752387},{"Country":"UK","Town":"Fort William","Address":"Fort William on footpath outside Lochaber High School","Time":"8.45-9.45","Date":"2019-09-20","Frequency":"weekly","Lat":56.819817,"Lon":-5.1052179},{"Country":"Australia","Town":"Bega NSW 2550","Date":"2019-09-20","Frequency":"Every Friday","Lat":-36.6889097,"Lon":149.8416404},{"Country":"Germany","Town":"Aachen","Address":"Elisenbrunnen","Time":"10:00 Uhr","Date":"2019-09-20","Frequency":"Once only","Lat":50.776351,"Lon":6.083862},{"Country":"Australia","Town":"Melbourne VIC","Address":"Treasury Gardens next to Parliament House|In front of townhall|","Time":"2-4PM AEST|At 12.00-13.00 (noon to 1pm)|","Date":"2019-09-20","Frequency":"Once only","Lat":-37.8136276,"Lon":144.9630576},{"Country":"Germany","Town":"Aalen","Address":"Rathaus","Time":"14:00 Uhr","Date":"2019-09-20","Frequency":"Once only","Lat":48.8362705,"Lon":10.0931765},{"Country":"Germany","Town":"Achim","Address":"Rathaus","Time":"10:00 Uhr","Date":"2019-09-20","Frequency":"Once only","Lat":53.0068811,"Lon":9.0425504},{"Country":"Germany","Town":"Adelsdorf","Address":"Marktplatz","Time":"11:00 Uhr","Date":"2019-09-20","Frequency":"Once only","Lat":49.7097619,"Lon":10.8908195},{"Country":"Germany","Town":"Ahaus","Address":"Rathausplatz","Time":"15:00 Uhr","Date":"2019-09-20","Frequency":"Once only","Lat":52.0761541,"Lon":7.004876},{"Country":"Germany","Town":"Aichach","Address":"Altes Rathaus","Time":"16:00 Uhr","Date":"2019-09-20","Frequency":"Once only","Lat":48.4589775,"Lon":11.1308417},{"Country":"Germany","Town":"Albersloh","Address":"Teckelschlaut 11 - Wiemhove","Time":"15:30 Uhr","Date":"2019-09-20","Frequency":"Once only","Lat":51.8679292,"Lon":7.7331599},{"Country":"Germany","Town":"Albstadt-Ebingen","Address":"Stadtbrunnen/Marktstraße","Time":"11:00 Uhr","Date":"2019-09-20","Frequency":"Once only","Lat":48.2102589,"Lon":9.0272452},{"Country":"Germany","Town":"Alsfeld","Address":"Marktplatz","Time":"14:00 Uhr","Date":"2019-09-20","Frequency":"Once only","Lat":50.7523545,"Lon":9.268355},{"Country":"Germany","Town":"Altenburg","Address":"Bahnhof ABG","Time":"10:00 Uhr","Date":"2019-09-20","Frequency":"Once only","Lat":50.9852411,"Lon":12.4340988},{"Country":"Germany","Town":"Altusried","Address":"Rahausplatz","Time":"12:00 Uhr","Date":"2019-09-20","Frequency":"Once only","Lat":47.8052615,"Lon":10.2136981},{"Country":"Australia","Town":"Albury–Wodonga","Date":"2019-09-20","Frequency":"Once only","Lat":-36.1583417,"Lon":146.8985944},{"Country":"Germany","Town":"Alzey","Address":"Rossmarkt","Time":"10:00 Uhr","Date":"2019-09-20","Frequency":"Once only","Lat":49.7455695,"Lon":8.1150946},{"Country":"Germany","Town":"Amberg","Address":"Maltesergarten mit Zug zur Schiffgasse","Time":"14:00 Uhr","Date":"2019-09-20","Frequency":"Once only","Lat":49.4454211,"Lon":11.858728},{"Country":"Germany","Town":"Anklam","Address":"Markt","Time":"13:00 Uhr","Date":"2019-09-20","Frequency":"Once only","Lat":53.8560526,"Lon":13.688091},{"Country":"Germany","Town":"Anröchte","Address":"Bürgerhausvorplatz","Time":"15:30 Uhr","Date":"2019-09-20","Frequency":"Once only","Lat":51.5597886,"Lon":8.3247323},{"Country":"Germany","Town":"Ansbach","Address":"Martin-Luther-Platz","Time":"13:00 Uhr","Date":"2019-09-20","Frequency":"Once only","Lat":49.3028611,"Lon":10.5722288},{"Country":"Germany","Town":"Aschaffenburg","Address":"Theaterplatz","Time":"12:00 Uhr","Date":"2019-09-20","Frequency":"Once only","Lat":49.9706701,"Lon":9.138485731},{"Country":"Germany","Town":"Aschersleben","Address":"Herrenbreite","Time":"13:00 Uhr","Date":"2019-09-20","Frequency":"Once only","Lat":51.755204,"Lon":11.460066},{"Country":"Germany","Town":"Auerbach in der Oberpfalz","Address":"Rathaus (unterer Markt)","Time":"13:00 Uhr","Date":"2019-09-20","Frequency":"Once only","Lat":49.6923981,"Lon":11.6325698},{"Country":"Germany","Town":"Augsburg","Address":"Rathausplatz","Time":"11:00 Uhr","Date":"2019-09-20","Frequency":"Once only","Lat":48.3668041,"Lon":10.8986971},{"Country":"Germany","Town":"Aulendorf","Address":"Vor dem Rathaus","Time":"11:30 Uhr","Date":"2019-09-20","Frequency":"Once only","Lat":47.9528162,"Lon":9.6409331},{"Country":"Canada","Town":"Joliette","Address":"Parc Louis-Querbes, Québec","Time":"12:30 PM","Date":"2019-09-27","Frequency":"Once only","Lat":46.014012,"Lon":-73.4177961},{"Country":"UK","Town":"Newcastle upon Tyne","Address":"Civic Centre|UKSCN North East","Time":"11:00 AM|11:00","Date":"2019-09-20","Frequency":"Once only","Lat":54.978252,"Lon":-1.61778},{"Country":"Australia","Town":"Bairnsdale VIC 3875","Address":"Main Street rotunda.|","Time":"At 12.00-13.00 (noon to 1pm)|","Date":"2019-09-20","Frequency":"Once only","Lat":-37.833333,"Lon":147.616667},{"Country":"Germany","Town":"Aurich","Address":"Sparkassen-Arena","Time":"11:30 Uhr","Date":"2019-09-20","Frequency":"Once only","Lat":53.4695604,"Lon":7.4823808},{"Country":"Germany","Town":"Backnang","Address":"Vor der Bibliothek","Time":"9:00 Uhr","Date":"2019-09-20","Frequency":"Once only","Lat":48.9466799,"Lon":9.4311225},{"Country":"Germany","Town":"Bad Belzig","Address":"Hofladen Lübnitz","Time":"9:00 Uhr","Date":"2019-09-20","Frequency":"Once only","Lat":52.1405622,"Lon":12.5865873},{"Country":"Germany","Town":"Bad Berleburg","Address":"Rathausplatz","Time":"17:00 Uhr","Date":"2019-09-20","Frequency":"Once only","Lat":51.0478493,"Lon":8.3917759},{"Country":"Germany","Town":"Bad Camberg","Address":"Marktplatz","Time":"17:00 Uhr","Date":"2019-09-20","Frequency":"Once only","Lat":50.299603,"Lon":8.2673122},{"Country":"Germany","Town":"Bad Dürkheim","Address":"Parkplatz Tennisclub - Kanalstr. 44","Time":"11:30 Uhr","Date":"2019-09-20","Frequency":"Once only","Lat":49.4632944,"Lon":8.1705063},{"Country":"Germany","Town":"Bad Endorf","Address":"Kirchplatz","Time":"17:00 Uhr","Date":"2019-09-20","Frequency":"Once only","Lat":47.906411,"Lon":12.3013697},{"Country":"Germany","Town":"Bad Gandersheim","Address":"Westportal Stiftskirche","Time":"11:00 Uhr","Date":"2019-09-20","Frequency":"Once only","Lat":51.8704732,"Lon":10.0297839},{"Country":"Germany","Town":"Bad Grönenbach","Address":"Marktplatz","Time":"10:00 Uhr","Date":"2019-09-20","Frequency":"Once only","Lat":47.8774446,"Lon":10.2217265},{"Country":"Germany","Town":"Bad Hersfeld","Address":"Stadthaus","Time":"16:00 Uhr","Date":"2019-09-20","Frequency":"Once only","Lat":50.8681341,"Lon":9.7068481},{"Country":"Australia","Town":"Ballarat VIC","Date":"2019-09-20","Frequency":"Once only","Lat":-37.5621587,"Lon":143.8502556},{"Country":"Germany","Town":"Bad Kreuznach","Address":".","Time":"11:30 Uhr","Date":"2019-09-20","Frequency":"Once only","Lat":49.8489566,"Lon":7.8628083},{"Country":"Germany","Town":"Bad Mergentheim ","Address":"neues Rathaus","Time":"10:30 Uhr","Date":"2019-09-20","Frequency":"Once only","Lat":49.490532,"Lon":9.7730692},{"Country":"Germany","Town":"Bad Neustadt an der Saale ","Address":"Bahnhof","Time":"09:45 Uhr","Date":"2019-09-20","Frequency":"Once only","Lat":50.32329335,"Lon":10.20086554},{"Country":"Germany","Town":"Bad Oldesloe","Address":"Vom Rathaus mit dem Fahrrad nach Bargteheide","Time":"8:30 Uhr","Date":"2019-09-20","Frequency":"Once only","Lat":53.8096562,"Lon":10.3733692},{"Country":"Germany","Town":"Bad Schönborn","Address":"Rathaus in Mingolsheim","Time":"16:00 Uhr","Date":"2019-09-20","Frequency":"Once only","Lat":49.2089408,"Lon":8.6498754},{"Country":"Germany","Town":"Bad Segeberg","Address":"Marktplatz","Time":"12:00 Uhr","Date":"2019-09-20","Frequency":"Once only","Lat":53.9366878,"Lon":10.3042377},{"Country":"Germany","Town":"Bad Tölz","Address":"Rathaus","Time":"11:00 Uhr","Date":"2019-09-20","Frequency":"Once only","Lat":47.7610641,"Lon":11.5582933},{"Country":"Germany","Town":"Bad Waldsee","Address":"Volksbank (Grabenmühle)","Time":"11:00 Uhr","Date":"2019-09-20","Frequency":"Once only","Lat":47.9209556,"Lon":9.7542772},{"Country":"Germany","Town":"Bad Windsheim","Address":"Marktplatz","Time":"11:55 Uhr","Date":"2019-09-20","Frequency":"Once only","Lat":49.5020006,"Lon":10.4175301},{"Country":"Germany","Town":"Bad-Homburg (Hochtaunuskreis)","Address":"Bahnhof","Time":"12:00 Uhr","Date":"2019-09-20","Frequency":"Once only","Lat":50.2373164,"Lon":8.568604363},{"Country":"Australia","Town":"Bendigo VIC 3550","Date":"2019-09-20","Frequency":"Once only","Lat":-36.7570157,"Lon":144.2793906},{"Country":"Germany","Town":"Baiersbronn","Address":"Rosenplatz","Time":"11:55 Uhr","Date":"2019-09-20","Frequency":"Once only","Lat":48.5069519,"Lon":8.3720124},{"Country":"Germany","Town":"Baltrum","Address":"Fähranleger","Time":"13:30 Uhr","Date":"2019-09-20","Frequency":"Once only","Lat":53.7283495,"Lon":7.399479964},{"Country":"Germany","Town":"Bamberg","Address":"Bahnhofsvorplatz","Time":"11:30 Uhr","Date":"2019-09-20","Frequency":"Once only","Lat":49.8926723,"Lon":10.8876149},{"Country":"Germany","Town":"Bargteheide","Address":"Bahnhof","Time":"10:30 Uhr","Date":"2019-09-20","Frequency":"Once only","Lat":53.7279671,"Lon":10.2618075},{"Country":"Germany","Town":"Bassum","Address":"Bahnhof","Time":"13:30 Uhr","Date":"2019-09-20","Frequency":"Once only","Lat":52.8495881,"Lon":8.728382},{"Country":"Germany","Town":"Bautzen","Address":"Theaterplatz","Time":"14:30 Uhr","Date":"2019-09-20","Frequency":"Once only","Lat":51.1813907,"Lon":14.4275735},{"Country":"Germany","Town":"Bayreuth","Address":"Rathaus","Time":"10:00 Uhr","Date":"2019-09-20","Frequency":"Once only","Lat":49.9427202,"Lon":11.5763079},{"Country":"Germany","Town":"Beckum","Address":"Marktplatz vor dem Stadtmuseum","Time":"14:00 Uhr","Date":"2019-09-20","Frequency":"Once only","Lat":51.7555148,"Lon":8.041135},{"Country":"Germany","Town":"Beetzendorf Poppau","Address":"Dorfplatz Sieben Linden","Time":"12:00 Uhr","Date":"2019-09-20","Frequency":"Once only","Lat":52.6797098,"Lon":11.1362217},{"Country":"Germany","Town":"Bensheim","Address":"Rathaus","Time":"12:00 Uhr","Date":"2019-09-20","Frequency":"Once only","Lat":49.6810158,"Lon":8.6227577},{"Country":"Australia","Town":"Bright VIC 3741","Date":"2019-09-20","Frequency":"Once only","Lat":-36.7321521,"Lon":146.9836221},{"Country":"UK","Town":"London","Address":"Parliament Square","Time":"11.00-14.00","Date":"2019-09-20","Frequency":"weekly","Lat":51.5073509,"Lon":-0.1277583},{"Country":"Germany","Town":"Bergen auf Rügen","Address":"Markt 2","Time":"10:00 Uhr","Date":"2019-09-20","Frequency":"Once only","Lat":54.4172673,"Lon":13.4305634},{"Country":"Germany","Town":"Bergisch Gladbach","Address":"Marktplatz","Time":"10:00 Uhr","Date":"2019-09-20","Frequency":"Once only","Lat":50.9929303,"Lon":7.1277379},{"Country":"Germany","Town":"Berlin","Address":"Brandenburger Tor","Time":"12:00 Uhr","Date":"2019-09-20","Frequency":"Once only","Lat":52.5200066,"Lon":13.404954},{"Country":"Germany","Town":"Berlin Reinickendorf","Address":"Tegel vor C&A","Time":"10:00 Uhr","Date":"2019-09-20","Frequency":"Once only","Lat":52.60458635,"Lon":13.28812102},{"Country":"Germany","Town":"Bernau","Address":"Marktplatz","Time":"12:15 Uhr","Date":"2019-09-20","Frequency":"Once only","Lat":52.6826757,"Lon":13.58764685},{"Country":"Germany","Town":"Bernkastel-Kues","Address":"Busparkplatz","Time":"13:15 Uhr","Date":"2019-09-20","Frequency":"Once only","Lat":49.9157398,"Lon":7.0708181},{"Country":"Germany","Town":"Biberach an der Riß","Address":"Marktplatz","Time":"11:00 Uhr","Date":"2019-09-20","Frequency":"Once only","Lat":48.0984413,"Lon":9.7899938},{"Country":"Germany","Town":"Bielefeld","Address":"Altstädter Nicolaikirche (church)|HBF","Time":"12:05 - 21:00|12:05 Uhr","Date":"2019-09-20","Frequency":"Once only","Lat":52.0302285,"Lon":8.5324708},{"Country":"Germany","Town":"Bischofsheim","Address":"Seniorenpark","Time":"16:00 Uhr","Date":"2019-09-20","Frequency":"Once only","Lat":49.9895565,"Lon":8.3550358},{"Country":"Germany","Town":"Bitburg","Address":"Am Spittel","Time":"9:00 Uhr","Date":"2019-09-20","Frequency":"Once only","Lat":49.9732762,"Lon":6.524947},{"Country":"Australia","Town":"Echuca VIC 3564","Date":"2019-09-20","Frequency":"Once only","Lat":-36.1459548,"Lon":144.7448007},{"Country":"Germany","Town":"Bocholt","Address":"Berliner Platz (Neues Rathaus)","Time":"15:30 Uhr","Date":"2019-09-20","Frequency":"Once only","Lat":51.8382715,"Lon":6.6148669},{"Country":"Germany","Town":"Bochum","Address":"Dr. Ruer Platz","Time":"11:45 Uhr","Date":"2019-09-20","Frequency":"Once only","Lat":51.4818111,"Lon":7.2196635},{"Country":"Germany","Town":"Bonn","Address":"Hofgarten","Time":"11:00 Uhr","Date":"2019-09-20","Frequency":"Once only","Lat":50.735851,"Lon":7.10066},{"Country":"Germany","Town":"Borgholzhausen","Address":"Gesamtschule","Time":"10:45 Uhr","Date":"2019-09-20","Frequency":"Once only","Lat":52.0995198,"Lon":8.3022963},{"Country":"Germany","Town":"Borken","Address":"Marktplatz","Time":"13:00 Uhr","Date":"2019-09-20","Frequency":"Once only","Lat":51.8443183,"Lon":6.8582247},{"Country":"Germany","Town":"Bottrop","Address":"Rathausplatz (Ernst-Wilczock-Platz)","Time":"14:30 Uhr","Date":"2019-09-20","Frequency":"Once only","Lat":51.521581,"Lon":6.929204},{"Country":"Germany","Town":"Brake","Address":".","Time":"10:00 Uhr","Date":"2019-09-20","Frequency":"Once only","Lat":53.3312769,"Lon":8.461099156},{"Country":"Germany","Town":"Brandenburg an der Havel","Address":"Neustädtischer Markt","Time":"16:00 Uhr","Date":"2019-09-20","Frequency":"Once only","Lat":52.4108261,"Lon":12.5497933},{"Country":"Germany","Town":"Braunschweig","Address":"Schlossplatz","Time":"10:00 Uhr","Date":"2019-09-20","Frequency":"Once only","Lat":52.2646577,"Lon":10.5236066},{"Country":"Germany","Town":"Bremen","Address":"Bahnhofsvorplatz","Time":"10:00 Uhr","Date":"2019-09-20","Frequency":"Once only","Lat":53.0792962,"Lon":8.8016936},{"Country":"Australia","Town":"Fish Creek VIC 3959","Date":"2019-09-20","Frequency":"Once only","Lat":-38.7043519,"Lon":146.087727},{"Country":"Germany","Town":"Bremerhaven","Address":"Klimahaus","Time":"10:00 Uhr","Date":"2019-09-20","Frequency":"Once only","Lat":53.5522264,"Lon":8.5865509},{"Country":"Germany","Town":"Bremervörde","Address":"Rathausmarkt","Time":"10:00 Uhr","Date":"2019-09-20","Frequency":"Once only","Lat":53.4850249,"Lon":9.1362085},{"Country":"Germany","Town":"Bruchhausen-Vilsen","Address":"Platz vor Bullenkamp","Time":"15:30 Uhr","Date":"2019-09-20","Frequency":"Once only","Lat":52.8288647,"Lon":8.988901},{"Country":"Germany","Town":"Brueggen","Address":"Rathaus","Time":"15:30 uhr","Date":"2019-09-20","Frequency":"Once only","Lat":51.2430813,"Lon":6.1812296},{"Country":"Germany","Town":"Buch","Address":"Obenhausener Ried / Buch","Time":"8:30 Uhr","Date":"2019-09-20","Frequency":"Once only","Lat":48.236351,"Lon":10.154363},{"Country":"Germany","Town":"Buchholz in der Nordheide","Address":"Kirche St. Paulus","Time":"12:00 Uhr","Date":"2019-09-20","Frequency":"Once only","Lat":53.3333021,"Lon":9.8666653},{"Country":"Germany","Town":"Büdingen","Address":"Willi-Zinnkann-Halle - Eberhard-Bauner-Allee","Time":"12:00 Uhr","Date":"2019-09-20","Frequency":"Once only","Lat":50.291621,"Lon":9.144913994},{"Country":"Germany","Town":"Bünde","Address":"Bünde Marktplatz","Time":"10:30 Uhr","Date":"2019-09-20","Frequency":"Once only","Lat":52.2003644,"Lon":8.5827558},{"Country":"Germany","Town":"Burghausen ","Address":"Bahnhof","Time":"14:00 Uhr","Date":"2019-09-20","Frequency":"Once only","Lat":48.1689863,"Lon":12.8304816},{"Country":"Germany","Town":"Burgkunstadt","Address":"Lange Gasse","Time":"12:00 Uhr","Date":"2019-09-20","Frequency":"Once only","Lat":50.1428821,"Lon":11.2515508},{"Country":"Australia","Town":"Geelong VIC 3220","Date":"2019-09-20","Frequency":"Once only","Lat":-38.1499181,"Lon":144.3617186},{"Country":"Germany","Town":"21614 Buxtehude","Address":"Schafmarktplatz|Schafmarktplatz","Time":"10:00 - 13:00|10:00 Uhr","Date":"2019-09-20","Frequency":"Once only","Lat":53.4674857,"Lon":9.6915741},{"Country":"Germany","Town":"Calw","Address":"Marktplatz","Time":"11:00 Uhr","Date":"2019-09-20","Frequency":"Once only","Lat":48.7153344,"Lon":8.7381796},{"Country":"Germany","Town":"Castrop-Rauxel","Address":"Marktplatz/Rathaus","Time":"13:00 Uhr","Date":"2019-09-20","Frequency":"Once only","Lat":51.5646195,"Lon":7.3106175},{"Country":"Germany","Town":"Celle","Address":"Stechbahn","Time":"11:30 Uhr","Date":"2019-09-20","Frequency":"Once only","Lat":52.624056,"Lon":10.081052},{"Country":"Germany","Town":"Chemnitz","Address":"Roter Turm","Time":"12:30 Uhr","Date":"2019-09-20","Frequency":"Once only","Lat":50.8322608,"Lon":12.9252977},{"Country":"Germany","Town":"Cloppenburg","Address":"Bahnhof","Time":"10:00 Uhr","Date":"2019-09-20","Frequency":"Once only","Lat":52.8461339,"Lon":8.0438783},{"Country":"Germany","Town":"Coburg","Address":"Marktplatz","Time":"12:00 Uhr","Date":"2019-09-20","Frequency":"Once only","Lat":50.258112,"Lon":10.964463},{"Country":"Germany","Town":"Cottbus","Address":"Heronplatz (Hugendubel)","Time":"13:00 Uhr","Date":"2019-09-20","Frequency":"Once only","Lat":51.7567447,"Lon":14.3357307},{"Country":"Germany","Town":"Cuxhaven","Address":"Wochnmarktplatz","Time":"12:00 Uhr","Date":"2019-09-20","Frequency":"Once only","Lat":53.86878,"Lon":8.698286},{"Country":"Germany","Town":"Dachau","Address":"Treffpunkt am Bahnsteig der S-Bahn - fahrt nach München","Time":"10:30 Uhr","Date":"2019-09-20","Frequency":"Once only","Lat":48.2592477,"Lon":11.4354419},{"Country":"Australia","Town":"Mildura VIC 3500","Date":"2019-09-20","Frequency":"Once only","Lat":-34.2080167,"Lon":142.1245535},{"Country":"Germany","Town":"Darmstadt","Address":"Hauptbahnhof","Time":"12:00 Uhr","Date":"2019-09-20","Frequency":"Once only","Lat":49.872775,"Lon":8.651177},{"Country":"Germany","Town":"Datteln","Address":"Neumarkt","Time":"12:00 Uhr","Date":"2019-09-20","Frequency":"Once only","Lat":51.6512192,"Lon":7.3393014},{"Country":"Germany","Town":"Deggendorf","Address":"Luitpoldplatz vor der Grabkirche","Time":"10:00 Uhr","Date":"2019-09-20","Frequency":"Once only","Lat":48.8333535,"Lon":12.96205},{"Country":"Germany","Town":"Delitzsch","Address":"Marktplatz","Time":"11:00 Uhr","Date":"2019-09-20","Frequency":"Once only","Lat":51.5255661,"Lon":12.342857},{"Country":"Germany","Town":"Delmenhorst","Address":"Marktplatz","Time":"11:30 Uhr","Date":"2019-09-20","Frequency":"Once only","Lat":53.0528092,"Lon":8.6294626},{"Country":"Germany","Town":"Demmin","Address":"Luisenplazt","Time":"10:00 Uhr","Date":"2019-09-20","Frequency":"Once only","Lat":53.9070019,"Lon":13.0327836},{"Country":"Germany","Town":"Dessau-Roßlau","Date":"2019-09-20","Frequency":"Once only","Lat":51.8311104,"Lon":12.2429261},{"Country":"Germany","Town":"Detmold","Address":"In front of townhall| Marktplatz in Detmold,  Marktpl. 5, 32756 Detmold|Marktplatz","Time":"13:30|13.30 (1.30pm)|13:30 Uhr","Date":"2019-09-20","Frequency":"Once only","Lat":51.9384783,"Lon":8.8686381},{"Country":"Germany","Town":"Diepholz","Address":"Schulzentrum Diepholz","Time":"10:00 Uhr","Date":"2019-09-20","Frequency":"Once only","Lat":52.6113677,"Lon":8.372661},{"Country":"Germany","Town":"Dillingen","Address":"Vor dem Stadtsaal","Time":"12:00 Uhr","Date":"2019-09-20","Frequency":"Once only","Lat":48.5812458,"Lon":10.4952243},{"Country":"Australia","Town":"Olinda VIC 3788","Date":"2019-09-20","Frequency":"Once only","Lat":-37.85599,"Lon":145.364357},{"Country":"Germany","Town":"Dingolfing","Address":"Caprimaparkplatz","Time":"13:15 Uhr","Date":"2019-09-20","Frequency":"Once only","Lat":48.6300801,"Lon":12.4977434},{"Country":"Germany","Town":"Dinkelsbühl","Address":"TSV-Parkplatz","Time":"13:00 Uhr","Date":"2019-09-20","Frequency":"Once only","Lat":49.0692306,"Lon":10.3223475},{"Country":"Germany","Town":"Dinslaken","Address":"Neutorplatz","Time":"12:00 Uhr","Date":"2019-09-20","Frequency":"Once only","Lat":51.567365,"Lon":6.7382029},{"Country":"Germany","Town":"Dissen am Teutoburger Wald","Address":"Schwarzer Platz (Schulzentrum)","Time":"11:00 Uhr","Date":"2019-09-20","Frequency":"Once only","Lat":52.115769,"Lon":8.2034345},{"Country":"Germany","Town":"Döbeln","Address":"Rathaus Obermarkt","Time":"16:30 Uhr","Date":"2019-09-20","Frequency":"Once only","Lat":51.1167001,"Lon":13.1166999},{"Country":"Germany","Town":"Donauwörth","Address":"Donaumeile","Time":"15:00 Uhr","Date":"2019-09-20","Frequency":"Once only","Lat":48.7180364,"Lon":10.7807299},{"Country":"Germany","Town":"Dorfen","Address":"Friedhofsparkplatz","Time":"10:00 Uhr","Date":"2019-09-20","Frequency":"Once only","Lat":48.2746357,"Lon":12.1530097},{"Country":"Germany","Town":"Dorsten","Address":"Marktplatz","Time":"10:30 Uhr","Date":"2019-09-20","Frequency":"Once only","Lat":51.6604071,"Lon":6.9647431},{"Country":"Germany","Town":"Dortmund","Address":"Friedensplatz","Time":"12:00 Uhr","Date":"2019-09-20","Frequency":"Once only","Lat":51.5142273,"Lon":7.4652789},{"Country":"Germany","Town":"Dresden","Address":"Hauptbahnhof & Alaunpark","Time":"11:55 Uhr","Date":"2019-09-20","Frequency":"Once only","Lat":51.0493286,"Lon":13.7381437},{"Country":"Australia","Town":"Sale VIC 3850","Date":"2019-09-20","Frequency":"Once only","Lat":-38.1026004,"Lon":147.073027},{"Country":"Germany","Town":"Duisburg","Address":"Hauptbahnhof","Time":"12:30 Uhr","Date":"2019-09-20","Frequency":"Once only","Lat":51.434999,"Lon":6.759562},{"Country":"Germany","Town":"Dülmen","Address":"Marktplatz","Time":"10:00 Uhr","Date":"2019-09-20","Frequency":"Once only","Lat":51.8283677,"Lon":7.2791406},{"Country":"Germany","Town":"Düren","Address":"Vor dem Leopold-Hoesch Museum","Time":"10:00 Uhr","Date":"2019-09-20","Frequency":"Once only","Lat":50.8031684,"Lon":6.4820806},{"Country":"Germany","Town":"Düsseldorf","Address":"Corneliusplatz","Time":"11:00 Uhr","Date":"2019-09-20","Frequency":"Once only","Lat":51.2277411,"Lon":6.7734556},{"Country":"Germany","Town":"Eberswalde","Address":"Bahnhof","Time":"13:30 Uhr","Date":"2019-09-20","Frequency":"Once only","Lat":52.8351496,"Lon":13.7997011},{"Country":"Germany","Town":"Eckernförde","Address":"Hafenspitze","Time":"9:00 Uhr","Date":"2019-09-20","Frequency":"Once only","Lat":54.4716456,"Lon":9.8374947},{"Country":"Germany","Town":"Edenkoben","Address":"Parkplatz Goldenes Eck","Time":"15:30 Uhr","Date":"2019-09-20","Frequency":"Once only","Lat":49.282236,"Lon":8.1284357},{"Country":"Germany","Town":"Edingen-Neckarhausen","Address":"Bürgermeister-Reinle-Platz","Time":"10:00 Uhr","Date":"2019-09-20","Frequency":"Once only","Lat":49.4571949,"Lon":8.6053654},{"Country":"Germany","Town":"Eggenfelden","Address":"Gymnasium","Time":"13:30 Uhr","Date":"2019-09-20","Frequency":"Once only","Lat":48.4031909,"Lon":12.7626208},{"Country":"Germany","Town":"Eichstätt","Address":"Marktplatz","Time":"11:00 Uhr","Date":"2019-09-20","Frequency":"Once only","Lat":48.8933417,"Lon":11.1838965},{"Country":"Canada","Town":"Kamloops","Address":"455 Columbia St and 7 Victoria St|Kamloops, British Columbia","Time":"10:00 AM|TBD","Date":"2019-09-20","Frequency":"Once only","Lat":50.674522,"Lon":-120.3272675},{"Country":"Australia","Town":"Traralgon VIC 3844","Date":"2019-09-20","Frequency":"Once only","Lat":-38.2033531,"Lon":146.519786},{"Country":"Germany","Town":"Einbeck","Address":"Start am Marktplatz","Time":"11:30 Uhr","Date":"2019-09-20","Frequency":"Once only","Lat":51.8185067,"Lon":9.8678465},{"Country":"Germany","Town":"Ellwangen","Address":"Fuchseck","Time":"13:00 Uhr","Date":"2019-09-20","Frequency":"Once only","Lat":48.9615975,"Lon":10.131975},{"Country":"Germany","Town":"Elmshorn ","Address":"St-Nikolai-Kirche","Time":"12:00 Uhr","Date":"2019-09-20","Frequency":"Once only","Lat":53.7532486,"Lon":9.6524559},{"Country":"Germany","Town":"Emden","Address":"Kreuzung an der Pizzeria Mammut am Wall (in Emden)","Time":"11:30 Uhr","Date":"2019-09-20","Frequency":"Once only","Lat":53.3670541,"Lon":7.2058304},{"Country":"Germany","Town":"Enge-Sande","Address":"GreenTEC Campus","Time":"08:45 Uhr","Date":"2019-09-20","Frequency":"Once only","Lat":54.7322969,"Lon":8.9656986},{"Country":"Germany","Town":"Enger","Address":"Widukind-Gymnasium Enger","Time":"12:05 Uhr","Date":"2019-09-20","Frequency":"Once only","Lat":52.1394015,"Lon":8.5588818},{"Country":"Germany","Town":"Erfurt","Address":"Angerdreieck","Time":"12:00 Uhr","Date":"2019-09-20","Frequency":"Once only","Lat":50.9777974,"Lon":11.0287364},{"Country":"Germany","Town":"Erkelenz","Address":"Rathaus","Time":"13:30 Uhr","Date":"2019-09-20","Frequency":"Once only","Lat":51.080992,"Lon":6.3160684},{"Country":"Germany","Town":"Erlangen","Address":"Schlossplatz","Time":"11:00 Uhr","Date":"2019-09-20","Frequency":"Once only","Lat":49.5981187,"Lon":11.003645},{"Country":"Germany","Town":"Essen","Address":"Burgplatz","Time":"10:00 Uhr","Date":"2019-09-20","Frequency":"Once only","Lat":51.457087,"Lon":7.011429},{"Country":"Australia","Town":"Warrnambool VIC 3280","Address":"In front of townhall|","Time":"At 12.00-13.00 (noon to 1pm)|","Date":"2019-09-20","Frequency":"Once only","Lat":-38.3686779,"Lon":142.4982086},{"Country":"Germany","Town":"Esslingen","Address":"Marktplatz","Time":"9:00 Uhr","Date":"2019-09-20","Frequency":"Once only","Lat":48.7427584,"Lon":9.3071685},{"Country":"Germany","Town":"23701 Eutin","Address":"meet up at the water tower, march, program in front of townhall|Wasserturm > Demozug > Programm vorm Rathaus","Time":"10:30-14:00|10:30 Uhr","Date":"2019-09-20","Frequency":"Once only","Lat":54.1330282,"Lon":10.6095048},{"Country":"Germany","Town":"Falkensee","Address":"Bahnhof","Time":"10:30 Uhr","Date":"2019-09-20","Frequency":"Once only","Lat":52.5678244,"Lon":13.0855621},{"Country":"Germany","Town":"Fehmarn","Address":"Marktplatz","Time":"11:30 Uhr","Date":"2019-09-20","Frequency":"Once only","Lat":54.4687375,"Lon":11.13408484},{"Country":"Germany","Town":"Feldkirchen-Westerham","Address":"Dorfplatz","Time":"13:00 Uhr","Date":"2019-09-20","Frequency":"Once only","Lat":47.9016078,"Lon":11.8396394},{"Country":"Germany","Town":"Feuchtwangen","Address":"Schulzentrum","Time":"13:15 Uhr","Date":"2019-09-20","Frequency":"Once only","Lat":49.1678603,"Lon":10.3313268},{"Country":"Germany","Town":"Filderstadt/Bernhausen","Address":"S-Bahnhof Bernhausen","Time":"13:30 Uhr","Date":"2019-09-20","Frequency":"Once only","Lat":48.6764905,"Lon":9.2177599},{"Country":"Germany","Town":"Finkenbach","Address":"Fahrt nach Bad Kreuznach","Time":"10:00 Uhr","Date":"2019-09-20","Frequency":"Once only","Lat":49.5412016,"Lon":8.905144},{"Country":"Germany","Town":"Finsterwalde","Address":"Marktplatz","Time":"11:55 Uhr","Date":"2019-09-20","Frequency":"Once only","Lat":51.6315282,"Lon":13.707358},{"Country":"Germany","Town":"Flensburg","Address":"Hafenspitze","Time":"10:00 Uhr","Date":"2019-09-20","Frequency":"Once only","Lat":54.7833021,"Lon":9.4333264},{"Country":"Australia","Town":"Shepparton VIC 3630","Date":"2019-09-20","Frequency":"Once only","Lat":-36.383333,"Lon":145.4},{"Country":"Germany","Town":"Forchheim","Address":"Le Perreux Park","Time":"12:00 Uhr","Date":"2019-09-20","Frequency":"Once only","Lat":49.7187128,"Lon":11.059642},{"Country":"Germany","Town":"Frankenberg/Eder","Address":"Garten des Landratsamtes","Time":"12:45 Uhr","Date":"2019-09-20","Frequency":"Once only","Lat":51.0605483,"Lon":8.7948361},{"Country":"Germany","Town":"Frankenthal","Address":"Röntgenplatz","Time":"11:00 Uhr","Date":"2019-09-20","Frequency":"Once only","Lat":49.5445804,"Lon":8.3540061},{"Country":"Germany","Town":"Frankfurt","Address":"In front of townhall|Frankfurt am Main, Germany|Hauptbahnhof","Time":"At 12.00-13.00 (noon to 1pm)|At 12.00-13.00 (noon to 1pm)|12:00 Uhr","Date":"2019-09-20","Frequency":"Once only","Lat":50.1109221,"Lon":8.6821267},{"Country":"Germany","Town":"Frankfurt am Main 3","Address":"Gallus Galluswarte","Time":"10:30 Uhr","Date":"2019-09-20","Frequency":"Once only","Lat":50.111432,"Lon":8.647591},{"Country":"Germany","Town":"Frankfurt am Main Architects 4 Future","Address":"Deutsches Architekturmuseum Auditorium","Time":"15:00 Uhr","Date":"2019-09-20","Frequency":"Once only","Lat":50.1050329,"Lon":8.6772338},{"Country":"Germany","Town":"Fredeburg","Address":"Demter-Hof","Time":"10:00 Uhr","Date":"2019-09-20","Frequency":"Once only","Lat":53.6735873,"Lon":10.7245092},{"Country":"Australia","Town":"Sydney NSW","Address":"Pennant Hills Station|","Time":"15:30-17:00|","Date":"2019-09-20","Frequency":"Once only","Lat":-33.8688197,"Lon":151.2092955},{"Country":"Germany","Town":"Freiberg","Address":"Obermarkt","Time":"16:00 Uhr","Date":"2019-09-20","Frequency":"Once only","Lat":50.9169415,"Lon":13.3428889},{"Country":"Germany","Town":"Freiburg","Address":"Platz der alten Synagoge","Time":"10:00 Uhr","Date":"2019-09-20","Frequency":"Once only","Lat":47.9960901,"Lon":7.8494005},{"Country":"Germany","Town":"Freising","Address":"Kriegerdenkmal","Time":"12:00 Uhr","Date":"2019-09-20","Frequency":"Once only","Lat":48.4008273,"Lon":11.7439565},{"Country":"Germany","Town":"Freudenstadt","Address":"Oberer Marktplatz","Time":"12:10 Uhr","Date":"2019-09-20","Frequency":"Once only","Lat":48.4637727,"Lon":8.4111727},{"Country":"Germany","Town":"Friedberg","Address":"Bahnhofsvorplatz","Time":"11:30 Uhr","Date":"2019-09-20","Frequency":"Once only","Lat":50.28517,"Lon":8.6697619},{"Country":"Germany","Town":"Friedrichshafen","Address":"Stadtbahnhof (Franziskusplatz)","Time":"11:30 Uhr","Date":"2019-09-20","Frequency":"Once only","Lat":47.6505715,"Lon":9.4797531},{"Country":"Germany","Town":"Fritzlar","Address":"Stadthalle Fritzlar","Time":"16:00 Uhr","Date":"2019-09-20","Frequency":"Once only","Lat":51.131196,"Lon":9.2748504},{"Country":"Germany","Town":"Fulda","Address":"Gellingshalle","Time":"11:00 Uhr","Date":"2019-09-20","Frequency":"Once only","Lat":50.5521486,"Lon":9.676511},{"Country":"Germany","Town":"Fürstenfeldbruck","Address":"Bahnsteig S-Bahn Buchenau - fahrt nach München 14:00 -19:00 Uhr PARK(ing) Day in der Hauptstraße","Time":"11:20 Uhr","Date":"2019-09-20","Frequency":"Once only","Lat":48.1813797,"Lon":11.2382125},{"Country":"Germany","Town":"Fürth","Address":"Dreiherrenbrunnen","Time":"16:00 Uhr","Date":"2019-09-20","Frequency":"Once only","Lat":49.477263,"Lon":10.989616},{"Country":"Australia","Town":"Armidale NSW 2350","Date":"2019-09-20","Frequency":"Once only","Lat":-30.5015616,"Lon":151.6661993},{"Country":"Germany","Town":"Füssen","Address":"Kemptener Str. 11","Time":"15:55 Uhr","Date":"2019-09-20","Frequency":"Once only","Lat":47.5709212,"Lon":10.6977089},{"Country":"Germany","Town":"Garmisch Partenkirchen","Address":"Rathausplatz","Time":"11:00 Uhr","Date":"2019-09-20","Frequency":"Once only","Lat":47.4938359,"Lon":11.103992},{"Country":"Germany","Town":"Geilenkirchen","Address":"Gesamtschule","Time":"8:00 Uhr","Date":"2019-09-20","Frequency":"Once only","Lat":50.963605,"Lon":6.1199802},{"Country":"Germany","Town":"Geldern","Address":"Bahnhof Geldern","Time":"08:45 Uhr","Date":"2019-09-20","Frequency":"Once only","Lat":51.5169736,"Lon":6.3228189},{"Country":"Germany","Town":"Gelnhausen","Address":"Müllerwiese 13:00 Uhr Bollenweg","Time":"11:00 Uhr","Date":"2019-09-20","Frequency":"Once only","Lat":50.2028622,"Lon":9.190486},{"Country":"Germany","Town":"Gelsenkirchen","Address":"Heinrich König Platz","Time":"12:00 Uhr","Date":"2019-09-20","Frequency":"Once only","Lat":51.5110321,"Lon":7.0960124},{"Country":"Germany","Town":"Gera","Address":"Kuk","Time":"12:00 Uhr","Date":"2019-09-20","Frequency":"Once only","Lat":50.8772301,"Lon":12.0796208},{"Country":"Germany","Town":"Gerlingen","Address":"Rathausplatz","Time":"11:00 Uhr","Date":"2019-09-20","Frequency":"Once only","Lat":48.7983947,"Lon":9.0624386},{"Country":"Germany","Town":"Germering","Address":"Therese-Giehse-Platz","Time":"11:55 Uhr","Date":"2019-09-20","Frequency":"Once only","Lat":48.1340035,"Lon":11.3657306},{"Country":"Germany","Town":"Gerolstein","Address":"Parkplatz am Heimatmuseum","Time":"07:30 Uhr","Date":"2019-09-20","Frequency":"Once only","Lat":50.2234404,"Lon":6.6618586},{"Country":"Australia","Town":"Bathurst NSW 2795","Date":"2019-09-20","Frequency":"Once only","Lat":-33.4192822,"Lon":149.5775008},{"Country":"Germany","Town":"Gerolzhofen","Address":"Erlöserkirche (evang. Kirche / Dreimühlenstraße)","Time":"13:30 Uhr","Date":"2019-09-20","Frequency":"Once only","Lat":49.9003568,"Lon":10.3487749},{"Country":"Germany","Town":"Gießen","Address":"Kirchplatz","Time":"11:00 Uhr","Date":"2019-09-20","Frequency":"Once only","Lat":50.5862066,"Lon":8.6742306},{"Country":"Germany","Town":"Gifhorn","Address":"Schillerplatz","Time":"10:30 Uhr","Date":"2019-09-20","Frequency":"Once only","Lat":52.4827905,"Lon":10.5445691},{"Country":"Germany","Town":"Gladenbach","Address":"Marktplatz (Brunnen)","Time":"18:00 Uhr","Date":"2019-09-20","Frequency":"Once only","Lat":50.7689363,"Lon":8.5819848},{"Country":"Germany","Town":"Glückstadt","Address":"MOIN Bio Backwaren - Hinterm Hofe 15","Time":"8:00 Uhr","Date":"2019-09-20","Frequency":"Once only","Lat":53.7913149,"Lon":9.4267978},{"Country":"Germany","Town":"Goch","Address":"Bahnhof Goch","Time":"9:15 Uhr","Date":"2019-09-20","Frequency":"Once only","Lat":51.6755765,"Lon":6.1593045},{"Country":"Germany","Town":"Göppingen","Address":"Schillerplatz Göppingen","Time":"11:30 Uhr","Date":"2019-09-20","Frequency":"Once only","Lat":48.7031377,"Lon":9.6541116},{"Country":"Germany","Town":"Görlitz","Address":"Wilhelmsplatz","Time":"14:30 Uhr","Date":"2019-09-20","Frequency":"Once only","Lat":51.1563185,"Lon":14.991018},{"Country":"Germany","Town":"Goslar","Address":"Goslar Bahnhof","Time":"13:30 Uhr","Date":"2019-09-20","Frequency":"Once only","Lat":51.9059936,"Lon":10.4266284},{"Country":"Germany","Town":"Gotha","Address":"Unterer Hauptmarkt","Time":"12:00 Uhr","Date":"2019-09-20","Frequency":"Once only","Lat":50.9462725,"Lon":10.6945265},{"Country":"Australia","Town":"Bega NSW 2550","Date":"2019-09-20","Frequency":"Once only","Lat":-36.6889097,"Lon":149.8416404},{"Country":"Germany","Town":"Göttingen","Address":"Neues Rathaus","Time":"12:00 Uhr","Date":"2019-09-20","Frequency":"Once only","Lat":51.5327604,"Lon":9.9352051},{"Country":"Germany","Town":"Grafing bei München","Address":"Stadtpark","Time":"13:00 Uhr","Date":"2019-09-20","Frequency":"Once only","Lat":48.0502855,"Lon":11.9661337},{"Country":"Germany","Town":"Greifswald","Address":"Mühlentor","Time":"10:00 Uhr","Date":"2019-09-20","Frequency":"Once only","Lat":54.095791,"Lon":13.3815238},{"Country":"Germany","Town":"Greiz","Address":"Kirchplatz","Time":"14:00 Uhr","Date":"2019-09-20","Frequency":"Once only","Lat":50.6477963,"Lon":12.1734848},{"Country":"Germany","Town":"Grimma","Address":"Markt","Time":"12:45 Uhr","Date":"2019-09-20","Frequency":"Once only","Lat":51.2383379,"Lon":12.7287511},{"Country":"Germany","Town":"Gronau","Address":"Theodor - Heuss - Platz vor dem Extrablatt","Time":"11:45 Uhr","Date":"2019-09-20","Frequency":"Once only","Lat":52.2118499,"Lon":7.0236342},{"Country":"Germany","Town":"Groß Bieberau","Address":"Großsporthalle Groß-Bieberau","Time":"09:15 Uhr","Date":"2019-09-20","Frequency":"Once only","Lat":49.7982384,"Lon":8.822842},{"Country":"Germany","Town":"Groß-Bieberau","Address":"Großsporthalle Groß-Bieberau","Time":"9:15 Uhr","Date":"2019-09-20","Frequency":"Once only","Lat":49.7982384,"Lon":8.822842},{"Country":"Germany","Town":"Groß-Gerau","Address":"Marktplatz","Time":"11:00 Uhr","Date":"2019-09-20","Frequency":"Once only","Lat":49.9194456,"Lon":8.4852426},{"Country":"Germany","Town":"Grünstadt","Address":"Luitpoldplatz","Time":"15:30 Uhr","Date":"2019-09-20","Frequency":"Once only","Lat":49.5655288,"Lon":8.163722},{"Country":"Australia","Town":"Blue Mountains, New South Wales","Date":"2019-09-20","Frequency":"Once only","Lat":-33.409983,"Lon":150.3037323},{"Country":"Germany","Town":"Gummersbach","Address":"Bahnhof","Time":"11:00 Uhr","Date":"2019-09-20","Frequency":"Once only","Lat":51.0277658,"Lon":7.5630545},{"Country":"Germany","Town":"Günzburg ","Address":"Marktplatz","Time":"13:00 Uhr","Date":"2019-09-20","Frequency":"Once only","Lat":48.4539028,"Lon":10.2785509},{"Country":"Germany","Town":"Gunzenhausen","Address":"Oettinger Parkplatz","Time":"14:30 Uhr","Date":"2019-09-20","Frequency":"Once only","Lat":49.1147095,"Lon":10.7545933},{"Country":"Germany","Town":"Gütersloh","Address":"Vor dem Rathaus","Time":"12:00 Uhr","Date":"2019-09-20","Frequency":"Once only","Lat":51.9063997,"Lon":8.3782078},{"Country":"Germany","Town":"Haan","Address":"Park Ville d Eu","Time":"12:00 Uhr","Date":"2019-09-20","Frequency":"Once only","Lat":51.1954956,"Lon":7.0085328},{"Country":"Germany","Town":"Hachenburg","Address":"Bahnhof Hachenburg","Time":"8:30 Uhr","Date":"2019-09-20","Frequency":"Once only","Lat":50.6627538,"Lon":7.8253173},{"Country":"Germany","Town":"Hagen","Address":"Johanniskirche","Time":"12:00 Uhr","Date":"2019-09-20","Frequency":"Once only","Lat":51.3582945,"Lon":7.473296},{"Country":"Germany","Town":"Halberstadt","Address":"Holzmarkt","Time":"13:30 Uhr","Date":"2019-09-20","Frequency":"Once only","Lat":51.8948709,"Lon":11.0496159},{"Country":"Germany","Town":"Halle (Westfalen)","Address":"Rathaus","Time":"12:45 Uhr","Date":"2019-09-20","Frequency":"Once only","Lat":52.0621677,"Lon":8.3593157},{"Country":"Australia","Town":"Bowral NSW 2576","Date":"2019-09-20","Frequency":"Once only","Lat":-34.479167,"Lon":150.418056},{"Country":"Germany","Town":"Halstenbek","Address":"Rathausplatz","Time":"14:00 Uhr","Date":"2019-09-20","Frequency":"Once only","Lat":53.6332984,"Lon":9.8499933},{"Country":"Germany","Town":"Hamburg","Address":"Jungfernstieg","Time":"12:00 Uhr","Date":"2019-09-20","Frequency":"Once only","Lat":53.5510846,"Lon":9.9936819},{"Country":"Germany","Town":"Hameln","Address":"Hochzeitshaus","Time":"12:00 Uhr","Date":"2019-09-20","Frequency":"Once only","Lat":52.1039941,"Lon":9.3561569},{"Country":"Germany","Town":"Hamm","Address":"Beibder Stadtbücherei","Time":"10:00 Uhr","Date":"2019-09-20","Frequency":"Once only","Lat":51.6616271,"Lon":7.821683125},{"Country":"Germany","Town":"Hanau","Address":"Freiheitsplatz","Time":"13:00 Uhr","Date":"2019-09-20","Frequency":"Once only","Lat":50.1335542,"Lon":8.9168179},{"Country":"Germany","Town":"Hann. Münden","Address":"Rathaus","Time":"16:00 Uhr","Date":"2019-09-20","Frequency":"Once only","Lat":51.4161908,"Lon":9.6550096},{"Country":"Germany","Town":"Hannover 4","Address":"Küchengarten","Time":"12:30 Uhr","Date":"2019-09-20","Frequency":"Once only","Lat":52.3744779,"Lon":9.7385532},{"Country":"Australia","Town":"Bowraville NSW 2449","Date":"2019-09-20","Frequency":"Once only","Lat":-30.633333,"Lon":152.85},{"Country":"Germany","Town":"Harpstedt","Address":"Marktplatz","Time":"15:30 Uhr","Date":"2019-09-20","Frequency":"Once only","Lat":52.9091599,"Lon":8.587044},{"Country":"Germany","Town":"Haßfurt","Address":"Hauptstraße/Unteres Tor","Time":"11:30 Uhr","Date":"2019-09-20","Frequency":"Once only","Lat":50.0318698,"Lon":10.5065562},{"Country":"Germany","Town":"Haselünne","Address":"Am Wasserturm","Time":"10:00 Uhr","Date":"2019-09-20","Frequency":"Once only","Lat":52.6718718,"Lon":7.4830538},{"Country":"Germany","Town":"Hattingen","Address":"Untermarkt","Time":"9:30 Uhr","Date":"2019-09-20","Frequency":"Once only","Lat":51.4007175,"Lon":7.1862486},{"Country":"Germany","Town":"Haunetal","Address":"Dorothee Stuckardt","Time":"13:00 Uhr","Date":"2019-09-20","Frequency":"Once only","Lat":50.756495,"Lon":9.6497027},{"Country":"Germany","Town":"Heide","Address":"Marktplatz vor der St. Jürgen Kirche","Time":"13:00 Uhr","Date":"2019-09-20","Frequency":"Once only","Lat":54.1948456,"Lon":9.0929015},{"Country":"Germany","Town":"Heidelberg","Address":"In front of townhall|Stadtbücherei","Time":"11.00-13.00|11:00 Uhr","Date":"2019-09-20","Frequency":"Once only","Lat":49.3987524,"Lon":8.6724335},{"Country":"Germany","Town":"Heidenheim an der Brenz ","Address":"Bahnhof","Time":"11:00 Uhr","Date":"2019-09-20","Frequency":"Once only","Lat":48.6767637,"Lon":10.152923},{"Country":"Germany","Town":"Heidesee","Address":"KiEZ Hözerner See","Time":"10:00 Uhr","Date":"2019-09-20","Frequency":"Once only","Lat":52.2564475,"Lon":13.782084},{"Country":"Germany","Town":"Heilbronn","Address":"Bollwerksturm","Time":"11:30 Uhr","Date":"2019-09-20","Frequency":"Once only","Lat":49.142291,"Lon":9.218655},{"Country":"Canada","Town":"Kitchener","Address":"Uptown Waterloo Square","Time":"TBD","Date":"2019-09-27","Frequency":"Once only","Lat":43.4516395,"Lon":-80.4925337},{"Country":"Australia","Town":"Byron Bay NSW 2481","Address":"Byron Bay Rec Fields |Byron Bay Rec Fields |Byron Rec Grounds |","Time":"At 12.00-13.00 (noon to 1pm)|At 12.00-13.00 (noon to 1pm)|10:00-12:00|","Date":"2019-09-20","Frequency":"Once only","Lat":-28.6473671,"Lon":153.601977},{"Country":"Germany","Town":"Helgoland","Address":"Am Südstrand/Kurpromenade","Time":"12:00 Uhr","Date":"2019-09-20","Frequency":"Once only","Lat":54.18004525,"Lon":7.885362101},{"Country":"Germany","Town":"Hemmingen","Address":"Haupteingang CFGS","Time":"11:30 Uhr","Date":"2019-09-20","Frequency":"Once only","Lat":52.3167,"Lon":9.75},{"Country":"Germany","Town":"Hemsbach","Address":"Parkplatz an Bahnhof","Time":"11:30 Uhr","Date":"2019-09-20","Frequency":"Once only","Lat":49.5919545,"Lon":8.6460261},{"Country":"Germany","Town":"Herdecke","Address":"Kirchender Dorfweg 44","Time":"18:00 Uhr","Date":"2019-09-20","Frequency":"Once only","Lat":51.4001119,"Lon":7.4330062},{"Country":"Germany","Town":"Herford","Address":"Rathaustreppe","Time":"12:30 Uhr","Date":"2019-09-20","Frequency":"Once only","Lat":52.1152245,"Lon":8.6711118},{"Country":"Germany","Town":"Herne","Address":"Europaplatz","Time":"10:00 Uhr","Date":"2019-09-20","Frequency":"Once only","Lat":51.5380394,"Lon":7.219985},{"Country":"Germany","Town":"Herten","Address":"Am Glashaus","Time":"10:00 Uhr","Date":"2019-09-20","Frequency":"Once only","Lat":51.5942009,"Lon":7.1368071},{"Country":"Germany","Town":"Herzogenaurach","Address":"An der Schütt - Fahrt nach Erlangen","Time":"10:00 Uhr","Date":"2019-09-20","Frequency":"Once only","Lat":49.5710376,"Lon":10.8815262},{"Country":"Germany","Town":"Hilden","Address":"Dietrich-Bonhoeffer Gymnasium","Time":"8:00 Uhr","Date":"2019-09-20","Frequency":"Once only","Lat":51.1674417,"Lon":6.9307271},{"Country":"Germany","Town":"Hildesheim","Address":"Hauptbahnhof","Time":"14:00 Uhr","Date":"2019-09-20","Frequency":"Once only","Lat":52.1521636,"Lon":9.9513046},{"Country":"Australia","Town":"Cessnock NSW 2325","Date":"2019-09-20","Frequency":"Once only","Lat":-32.8345098,"Lon":151.3624266},{"Country":"Germany","Town":"Hochneukirch","Address":"Aussichtspunkt Garzweiler Nord","Time":"14:00 Uhr","Date":"2019-09-20","Frequency":"Once only","Lat":51.0878039,"Lon":6.463636582},{"Country":"Germany","Town":"Hockenheim","Address":"Gauß Gymnasium","Time":"13:00 Uhr","Date":"2019-09-20","Frequency":"Once only","Lat":49.3196046,"Lon":8.5499903},{"Country":"Germany","Town":"Hof","Address":"Altstadt/Kugelbrunnen","Time":"14:00 Uhr","Date":"2019-09-20","Frequency":"Once only","Lat":50.3219015,"Lon":11.9178807},{"Country":"Germany","Town":"Holzminden","Address":"Marktplatz","Time":"13:30 Uhr","Date":"2019-09-20","Frequency":"Once only","Lat":51.828835,"Lon":9.4466591},{"Country":"Germany","Town":"Homburg/Saar","Address":"Waldstadion","Time":"10:00 Uhr","Date":"2019-09-20","Frequency":"Once only","Lat":49.3437126,"Lon":7.3042399},{"Country":"Germany","Town":"Hooge","Address":"Hallig Hooge","Time":"12:00 Uhr","Date":"2019-09-20","Frequency":"Once only","Lat":54.56834475,"Lon":8.545524527},{"Country":"Germany","Town":"Hoya","Address":"In front of townhall|Johann Beck Gymnasium","Time":"11pm|11:00 Uhr","Date":"2019-09-20","Frequency":"Once only","Lat":52.8099622,"Lon":9.1378895},{"Country":"Germany","Town":"Husum","Address":"Parkplatz Neue Freiheit","Time":"12:30 Uhr","Date":"2019-09-20","Frequency":"Once only","Lat":54.4853638,"Lon":9.0538156},{"Country":"Germany","Town":"Idar-Oberstein","Address":"Platz Auf der Idar bis Schleiferplatz","Time":"12:00 Uhr","Date":"2019-09-20","Frequency":"Once only","Lat":49.7106197,"Lon":7.313321},{"Country":"Germany","Town":"Idstein","Address":"Idsteiner Bahnhof","Time":"17:00 Uhr","Date":"2019-09-20","Frequency":"Once only","Lat":50.2212764,"Lon":8.269554},{"Country":"Australia","Town":"Coffs Harbour NSW 2450","Date":"2019-09-20","Frequency":"Once only","Lat":-30.298612,"Lon":153.1093922},{"Country":"Germany","Town":"Ingelheim am Rhein","Address":"Bahnhof","Time":"10:00 Uhr","Date":"2019-09-20","Frequency":"Once only","Lat":49.9752749,"Lon":8.0547274},{"Country":"Germany","Town":"Ingolstadt","Address":"Münster","Time":"13:00 Uhr","Date":"2019-09-20","Frequency":"Once only","Lat":48.7630165,"Lon":11.4250395},{"Country":"Germany","Town":"Iserlohn","Address":"Hemberg Parkplatz |Hemberg Parkplatz","Time":"10.00-13.00|10:00 Uhr","Date":"2019-09-20","Frequency":"Once only","Lat":51.3765096,"Lon":7.6960842},{"Country":"Germany","Town":"Isny","Address":"Rathaus isny","Time":"11:00 Uhr","Date":"2019-09-20","Frequency":"Once only","Lat":47.69168495,"Lon":10.03366921},{"Country":"Germany","Town":"Itzehoe","Address":"Zob","Time":"10:00 Uhr","Date":"2019-09-20","Frequency":"Once only","Lat":53.9250316,"Lon":9.5155854},{"Country":"Germany","Town":"Jaderberg","Address":"Oberschule Jaderberg","Time":"10:45 Uhr","Date":"2019-09-20","Frequency":"Once only","Lat":53.3321756,"Lon":8.1856229},{"Country":"Germany","Town":"Jena","Address":"Stadtkirche","Time":"14:00 Uhr","Date":"2019-09-20","Frequency":"Once only","Lat":50.9281717,"Lon":11.5879359},{"Country":"Germany","Town":"Joldelund","Address":"Bäckerei Norderweg 7","Time":"11:00 Uhr","Date":"2019-09-20","Frequency":"Once only","Lat":54.6497452,"Lon":9.1375357},{"Country":"Germany","Town":"Jüchen","Address":"Schulzentrum","Time":"12:55 Uhr","Date":"2019-09-20","Frequency":"Once only","Lat":51.1017138,"Lon":6.5036893},{"Country":"Germany","Town":"Jülich","Address":"Schlossplatz Jülich","Time":"16:00 Uhr","Date":"2019-09-20","Frequency":"Once only","Lat":50.9220931,"Lon":6.3611015},{"Country":"Australia","Town":"Dubbo NSW 2830","Date":"2019-09-20","Frequency":"Once only","Lat":-32.2315018,"Lon":148.6329645},{"Country":"Germany","Town":"Kaarst","Address":"Neumarkt","Time":"12:00 Uhr","Date":"2019-09-20","Frequency":"Once only","Lat":51.226675,"Lon":6.6193924},{"Country":"Germany","Town":"Kaiserslautern","Address":"Hauptbahnhof","Time":"11:30 Uhr","Date":"2019-09-20","Frequency":"Once only","Lat":49.4432174,"Lon":7.7689951},{"Country":"Germany","Town":"Kaltenkirchen","Address":"Holstenplatz am Hauptbahnhof","Time":"14:30 Uhr","Date":"2019-09-20","Frequency":"Once only","Lat":53.8371714,"Lon":9.9614889},{"Country":"Germany","Town":"Karlsruhe","Address":"Friedrichsplatz 18:00 Uhr Zirkus Maccaroni","Time":"11:00 Uhr","Date":"2019-09-20","Frequency":"Once only","Lat":49.0068705,"Lon":8.4034195},{"Country":"Germany","Town":"Kassel","Address":"Hauptbahnhof","Time":"12:00 Uhr","Date":"2019-09-20","Frequency":"Once only","Lat":51.3076867,"Lon":9.4624705},{"Country":"Germany","Town":"Kaufbeuren","Address":"Zollhäuschen","Time":"13:30 Uhr","Date":"2019-09-20","Frequency":"Once only","Lat":47.8803788,"Lon":10.622246},{"Country":"Germany","Town":"Kaufungen","Address":"Brauplatz Oberkaufungen","Time":"10:30 Uhr","Date":"2019-09-20","Frequency":"Once only","Lat":51.2817974,"Lon":9.6185407},{"Country":"Germany","Town":"Kempen","Address":"Gymnasium Thomaeum","Time":"11:30 Uhr","Date":"2019-09-20","Frequency":"Once only","Lat":51.0933769,"Lon":6.1005432},{"Country":"Germany","Town":"Kempten","Address":"Forum Allgäu","Time":"12:30 Uhr","Date":"2019-09-20","Frequency":"Once only","Lat":47.736061,"Lon":10.3452095},{"Country":"Germany","Town":"Kerpen","Address":"Kerpen Europagymnasium","Time":"16:30 Uhr","Date":"2019-09-20","Frequency":"Once only","Lat":51.3656075,"Lon":6.4139802},{"Country":"Australia","Town":"Eden NSW 2551","Date":"2019-09-20","Frequency":"Once only","Lat":-37.066667,"Lon":149.9},{"Country":"Germany","Town":"Kiel","Address":"Rathausplatz","Time":"11:55 Uhr","Date":"2019-09-20","Frequency":"Once only","Lat":54.3227085,"Lon":10.135555},{"Country":"Germany","Town":"Kirchheim unter Teck","Address":"Marktplatz","Time":"10:45 Uhr","Date":"2019-09-20","Frequency":"Once only","Lat":48.6480545,"Lon":9.4510227},{"Country":"Germany","Town":"Kitzingen","Address":"Marktplatz","Time":"15:00 Uhr","Date":"2019-09-20","Frequency":"Once only","Lat":49.7339751,"Lon":10.161216},{"Country":"Germany","Town":"Kleve","Address":"Parkplatz Ludwig-Jahn-Straße","Time":"10:15 Uhr","Date":"2019-09-20","Frequency":"Once only","Lat":51.7854839,"Lon":6.131367415},{"Country":"Germany","Town":"Koblenz","Address":"Hauptbahnhof Reichensbergerplatz","Time":"11:55 Uhr","Date":"2019-09-20","Frequency":"Once only","Lat":50.3533278,"Lon":7.5943951},{"Country":"Germany","Town":"Köln","Address":"Hans Böckler Platz DGB Haus","Time":"11:00 Uhr","Date":"2019-09-20","Frequency":"Once only","Lat":50.938361,"Lon":6.959974},{"Country":"Germany","Town":"Konstanz","Address":"Herosé 19:00 Uhr MarktstätteLaternenumzug","Time":"11:30 Uhr","Date":"2019-09-20","Frequency":"Once only","Lat":47.659216,"Lon":9.1750718},{"Country":"Germany","Town":"Korbach","Address":"Fußgängerzone -T iefebene am Berndorfer Tor","Time":"12:00 Uhr","Date":"2019-09-20","Frequency":"Once only","Lat":51.27242185,"Lon":8.883906641},{"Country":"Germany","Town":"Kraichtal","Address":"Friedrichsplatz","Time":"16:00 Uhr","Date":"2019-09-20","Frequency":"Once only","Lat":49.1303,"Lon":8.74365},{"Country":"Germany","Town":"Krefeld","Address":"Hauptbahnhof","Time":"12:00 Uhr","Date":"2019-09-20","Frequency":"Once only","Lat":51.3331205,"Lon":6.5623343},{"Country":"Australia","Town":"Forster NSW 2428","Date":"2019-09-20","Frequency":"Once only","Lat":-32.180556,"Lon":152.511667},{"Country":"UK","Town":"Ullapool","Address":"Ullapool Primary School","Time":"11.00-14.00","Date":"2019-09-20","Frequency":"weekly","Lat":57.895418,"Lon":-5.161313},{"Country":"Germany","Town":"Kreis Pinneberg","Date":"2019-09-20","Frequency":"Once only","Lat":53.7278939,"Lon":9.6979598},{"Country":"Germany","Town":"Kronach","Address":"Bushaltestelle Innerer Ring am Schulzentrum","Time":"12:00 Uhr","Date":"2019-09-20","Frequency":"Once only","Lat":50.2397846,"Lon":11.3277669},{"Country":"Germany","Town":"Kulmbach","Address":"Marktplatz","Time":"11:30 Uhr","Date":"2019-09-20","Frequency":"Once only","Lat":50.1008448,"Lon":11.4479149},{"Country":"Germany","Town":"Künzelsau","Address":"Rathaus","Time":"12:00 Uhr","Date":"2019-09-20","Frequency":"Once only","Lat":49.2803765,"Lon":9.6901512},{"Country":"Germany","Town":"Kuppenheim","Address":"Friedensplatz","Time":"15:00 Uhr","Date":"2019-09-20","Frequency":"Once only","Lat":48.8272323,"Lon":8.2545743},{"Country":"Germany","Town":"Landau an der Isar ","Address":"Volksfestplatz","Time":"13:00 Uhr","Date":"2019-09-20","Frequency":"Once only","Lat":48.6727908,"Lon":12.6941754},{"Country":"Germany","Town":"Landau in der Pfalz","Address":"Stadtbibliothek","Time":"12:05 Uhr","Date":"2019-09-20","Frequency":"Once only","Lat":49.1982825,"Lon":8.1123441},{"Country":"Germany","Town":"Landsberg","Address":"Hauptplatz mit anschließendem Demozug","Time":"14:00 Uhr","Date":"2019-09-20","Frequency":"Once only","Lat":48.0514973,"Lon":10.8737728},{"Country":"Germany","Town":"Landshut","Address":"Rathaus","Time":"12:30 Uhr","Date":"2019-09-20","Frequency":"Once only","Lat":48.5457171,"Lon":12.2081029},{"Country":"Germany","Town":"Langenberg","Address":"Rathaus","Time":"12:00 Uhr","Date":"2019-09-20","Frequency":"Once only","Lat":51.3517032,"Lon":7.121529},{"Country":"Australia","Town":"Gosford NSW 2250","Date":"2019-09-20","Frequency":"Once only","Lat":-33.426667,"Lon":151.341667},{"Country":"Germany","Town":"Laubach","Address":"Marktplatz","Time":"15:30 Uhr","Date":"2019-09-20","Frequency":"Once only","Lat":50.5424486,"Lon":8.990259},{"Country":"Germany","Town":"Laupheim","Address":"Marktplatz","Time":"12:30 Uhr","Date":"2019-09-20","Frequency":"Once only","Lat":48.2305342,"Lon":9.8771587},{"Country":"Germany","Town":"Lauterbach","Address":"Marktplatz","Time":"13:00 Uhr","Date":"2019-09-20","Frequency":"Once only","Lat":50.6333,"Lon":9.4},{"Country":"Germany","Town":"Leer","Address":"Mühlenplatz","Time":"13:30 Uhr","Date":"2019-09-20","Frequency":"Once only","Lat":53.2473626,"Lon":7.463146804},{"Country":"Germany","Town":"Lehrte","Address":"Neues Zentrum","Time":"11:30 Uhr","Date":"2019-09-20","Frequency":"Once only","Lat":52.3749334,"Lon":9.9748557},{"Country":"Germany","Town":"Leipzig","Address":"Augustusplatz","Time":"15:00 Uhr","Date":"2019-09-20","Frequency":"Once only","Lat":51.3406321,"Lon":12.3747329},{"Country":"Germany","Town":"32657 Lemgo","Address":"In front of townhall|Marktplatz","Time":"13|12:30 Uhr","Date":"2019-09-20","Frequency":"Once only","Lat":52.0266732,"Lon":8.9018625},{"Country":"Germany","Town":"Leopoldshöhe","Address":"Marktplatz","Time":"9:00 Uhr","Date":"2019-09-20","Frequency":"Once only","Lat":52.0125239,"Lon":8.6987431},{"Country":"Germany","Town":"Leutkirch im Allgäu","Address":"Bahnhof und Marktplatz","Time":"11:00 Uhr","Date":"2019-09-20","Frequency":"Once only","Lat":47.81012285,"Lon":10.03551838},{"Country":"Germany","Town":"Leverkusen","Address":"Rathausvorplatz","Time":"11:30 Uhr","Date":"2019-09-20","Frequency":"Once only","Lat":51.0324743,"Lon":6.9881194},{"Country":"Australia","Town":"Grafton NSW 2460","Date":"2019-09-20","Frequency":"Once only","Lat":-29.6816894,"Lon":152.9336547},{"Country":"Germany","Town":"Lienen","Address":"Kirchplatz","Time":"10:30 Uhr","Date":"2019-09-20","Frequency":"Once only","Lat":52.1467353,"Lon":7.9747711},{"Country":"Germany","Town":"Limbach","Address":"Elisabethkirche","Time":"11:55 Uhr","Date":"2019-09-20","Frequency":"Once only","Lat":49.1279824,"Lon":9.6491227},{"Country":"Germany","Town":"Limburg","Address":"Bahnhof|Bahnhofsvorplatz","Time":"11:30|11:30 Uhr","Date":"2019-09-20","Frequency":"Once only","Lat":50.3986005,"Lon":8.0795783},{"Country":"Germany","Town":"Lindau (B)","Address":"Altes Rathaus","Time":"11:55 Uhr","Date":"2019-09-20","Frequency":"Once only","Lat":47.550753,"Lon":9.6926624},{"Country":"Germany","Town":"Lindenberg","Address":"Stadtplatz Lindenberg","Time":"12:30 Uhr","Date":"2019-09-20","Frequency":"Once only","Lat":47.6015641,"Lon":9.8863905},{"Country":"Germany","Town":"Lingen","Address":"Bahnhof","Time":"8:00 Uhr","Date":"2019-09-20","Frequency":"Once only","Lat":52.5224659,"Lon":7.316584},{"Country":"Germany","Town":"Lippstadt","Address":"Rathausplatz","Time":"11:55 Uhr","Date":"2019-09-20","Frequency":"Once only","Lat":51.6747074,"Lon":8.347194},{"Country":"Germany","Town":"Löhne","Address":"Rathaus","Time":"13:30 Uhr","Date":"2019-09-20","Frequency":"Once only","Lat":52.1990346,"Lon":8.7141587},{"Country":"Germany","Town":"Lohr am Main","Address":"Seewegparkplatz","Time":"15:00 Uhr","Date":"2019-09-20","Frequency":"Once only","Lat":49.9954978,"Lon":9.5733619},{"Country":"Germany","Town":"Lorch (Rhein)","Address":"Kirche St.Martin -Museumsplatz","Time":"11:00 Uhr","Date":"2019-09-20","Frequency":"Once only","Lat":50.04851705,"Lon":7.834010243},{"Country":"Australia","Town":"Gulgong NSW 2852","Date":"2019-09-20","Frequency":"Once only","Lat":-32.35,"Lon":149.533333},{"Country":"Germany","Town":"Lörrach","Address":"Lörrach","Time":"12:00 Uhr","Date":"2019-09-20","Frequency":"Once only","Lat":47.6120896,"Lon":7.6607218},{"Country":"Germany","Town":"Loxstedt","Address":"Rathaus","Time":"9:00 Uhr","Date":"2019-09-20","Frequency":"Once only","Lat":53.4698653,"Lon":8.6479179},{"Country":"Germany","Town":"Lübbecke","Address":"Schulhof des Wittekind-Gymnasiums 11:00 Uhr Marktplatz","Time":"9:30 Uhr","Date":"2019-09-20","Frequency":"Once only","Lat":52.3027209,"Lon":8.6183054},{"Country":"Germany","Town":"Lübeck","Address":"MuK Vorplatz 13:00 Uhr Stadion Buniamshof","Time":"11:15 Uhr","Date":"2019-09-20","Frequency":"Only once","Lat":53.866444,"Lon":10.684738},{"Country":"Germany","Town":"Lüchow-Dannenberg","Address":"Marktplatz","Time":"10:00 Uhr","Date":"2019-09-20","Frequency":"Only once","Lat":53.0244717,"Lon":11.0348965},{"Country":"Germany","Town":"Luckenwalde","Address":"Kreishaus","Time":"10:00 Uhr","Date":"2019-09-20","Frequency":"Only once","Lat":52.0897398,"Lon":13.162872},{"Country":"Germany","Town":"Lüdenscheid","Address":"Sternplatz","Time":"10:00 Uhr","Date":"2019-09-20","Frequency":"Only once","Lat":51.218116,"Lon":7.6395513},{"Country":"Germany","Town":"Ludwigsburg","Address":"ZOB","Time":"12:00 Uhr","Date":"2019-09-20","Frequency":"Only once","Lat":48.8953937,"Lon":9.1895147},{"Country":"Germany","Town":"Ludwigsfelde","Address":"Bhf. Ludwigsfelde","Time":"10:30 Uhr","Date":"2019-09-20","Frequency":"Only once","Lat":52.3016096,"Lon":13.2610163},{"Country":"Germany","Town":"Ludwigshafen am Rhein","Address":"Europaplatz","Time":"11:00 Uhr","Date":"2019-09-20","Frequency":"Only once","Lat":49.485114,"Lon":8.439999},{"Country":"Australia","Town":"Gunnedah NSW 2380","Date":"2019-09-20","Frequency":"Once only","Lat":-30.9922968,"Lon":150.2368919},{"Country":"Germany","Town":"Ludwigslust","Address":"Bahnhof","Time":"14:00 Uhr","Date":"2019-09-20","Frequency":"Only once","Lat":53.3300229,"Lon":11.4993644},{"Country":"Germany","Town":"Lüneburg","Address":"Marktplatz","Time":"12:00 Uhr","Date":"2019-09-20","Frequency":"Only once","Lat":53.248706,"Lon":10.407855},{"Country":"Germany","Town":"Lünen","Address":"Europaplatz","Time":"12:00 Uhr","Date":"2019-09-20","Frequency":"Only once","Lat":51.6142482,"Lon":7.5228088},{"Country":"Germany","Town":"Lutherstadt Wittenberg","Address":"Marktplatz Wittenberg","Time":"13:00 Uhr","Date":"2019-09-20","Frequency":"Only once","Lat":51.8666527,"Lon":12.646761},{"Country":"Germany","Town":"Magdeburg","Address":"Domplatz","Time":"12:00 Uhr","Date":"2019-09-20","Frequency":"Only once","Lat":52.126207,"Lon":11.635136},{"Country":"Germany","Town":"Magstadt","Address":"Marktplatz","Time":"11:00 Uhr","Date":"2019-09-20","Frequency":"Only once","Lat":48.742352,"Lon":8.9628053},{"Country":"Germany","Town":"Mainburg","Address":"Marktplatz (neben Stadtpfarrkirche)","Time":"15:00 Uhr","Date":"2019-09-20","Frequency":"Only once","Lat":48.640589,"Lon":11.7820705},{"Country":"Germany","Town":"Mainz 3","Address":"Kastel Bahnhof","Time":"12:30 Uhr","Date":"2019-09-20","Frequency":"Only once","Lat":50.0069286,"Lon":8.2832075},{"Country":"Canada","Town":"Laval","Address":"Place Claude-Léveillée, 1500 Rue Jacques-Tétreault, Laval (en face du campus UdeM, métro Montmorency)","Time":"10:00","Date":"2019-09-27","Frequency":"Once only","Lat":45.6066487,"Lon":-73.712409},{"Country":"UK","Town":"Salisbury","Address":"Middleton Rd|The Guildhall, Market Place, Salisbury","Time":"11:00 AM|11:00","Date":"2019-09-20","Frequency":"Once only","Lat":51.068785,"Lon":-1.794472},{"Country":"Sweden","Town":"Norrköping","Address":"Hörsalsparken|","Time":"12.00 - 17.00|","Date":"2019-09-27","Frequency":"Once only","Lat":58.587745,"Lon":16.192421},{"Country":"Australia","Town":"Katoomba NSW 2780","Date":"2019-09-20","Frequency":"Once only","Lat":-33.7125,"Lon":150.311944},{"Country":"Germany","Town":"Mannheim","Address":"Mannheim Hauptbahnhofsvorplatz","Time":"17:00 Uhr","Date":"2019-09-20","Frequency":"Only once","Lat":49.489591,"Lon":8.467236},{"Country":"Germany","Town":"Marburg","Address":"Hauptbahnhof und Marktplatz","Time":"12:00 Uhr","Date":"2019-09-20","Frequency":"Only once","Lat":50.8117327,"Lon":8.7757742},{"Country":"Germany","Town":"Marienberg","Address":"Marktplatz","Time":"14.30 Uhr","Date":"2019-09-20","Frequency":"Only once","Lat":50.6507279,"Lon":13.163188},{"Country":"Germany","Town":"Marienstatt","Address":"Privates Gymnasium Marienstatt","Time":"11:55 Uhr","Date":"2019-09-20","Frequency":"Only once","Lat":50.6848378,"Lon":7.802728112},{"Country":"Germany","Town":"Markdorf","Address":"Hauptstrasse","Time":"11:00 Uhr","Date":"2019-09-20","Frequency":"Only once","Lat":47.7206084,"Lon":9.3917257},{"Country":"Germany","Town":"Markt Schwaben","Address":"Unterbräusaal","Time":"18:00 Uhr","Date":"2019-09-20","Frequency":"Only once","Lat":48.1914326,"Lon":11.867376},{"Country":"Germany","Town":"Marktbreit","Address":"Bahnhof Marktbreit","Time":"9:40 Uhr","Date":"2019-09-20","Frequency":"Only once","Lat":49.6668574,"Lon":10.144153},{"Country":"Germany","Town":"Marktoberdorf","Address":"Realschule","Time":"13:00 Uhr","Date":"2019-09-20","Frequency":"Only once","Lat":47.7750654,"Lon":10.6170847},{"Country":"Germany","Town":"Marl","Address":"Rathausplatz","Time":"12:00 Uhr","Date":"2019-09-20","Frequency":"Only once","Lat":51.6485843,"Lon":7.0829054},{"Country":"Australia","Town":"Kempsey NSW 2440","Address":"Services Club Park|","Time":"1:00 - 2:00|","Date":"2019-09-20","Frequency":"Once only","Lat":-31.0604769,"Lon":152.8481977},{"Country":"Germany","Town":"Meerbusch","Address":"Dr. Franz Schütz Platz","Time":"17:00 Uhr","Date":"2019-09-20","Frequency":"Only once","Lat":51.2652237,"Lon":6.6760958},{"Country":"Germany","Town":"Meersburg","Address":"Marktplatz","Time":"14:00 Uhr","Date":"2019-09-20","Frequency":"Only once","Lat":47.6955538,"Lon":9.2719656},{"Country":"Germany","Town":"Memmingen","Address":"Schrannenplatz","Time":"12:00 Uhr","Date":"2019-09-20","Frequency":"Only once","Lat":47.9867696,"Lon":10.181319},{"Country":"Germany","Town":"Meppen","Address":"Marktplatz","Time":"12:00 Uhr","Date":"2019-09-20","Frequency":"Only once","Lat":52.6947452,"Lon":7.2909824},{"Country":"Germany","Town":"Metelen","Address":"Parkplatz Netto Markendisk","Time":"8:00 Uhr","Date":"2019-09-20","Frequency":"Only once","Lat":52.147557,"Lon":7.2153939},{"Country":"Germany","Town":"Michelstadt","Address":"Odenwaldhalle","Time":"11:45 Uhr","Date":"2019-09-20","Frequency":"Only once","Lat":49.68239005,"Lon":9.034072902},{"Country":"Germany","Town":"Miesbach","Address":"Haidmühlstraße 36","Time":"13:00 Uhr","Date":"2019-09-20","Frequency":"Only once","Lat":47.790025,"Lon":11.8335417},{"Country":"Germany","Town":"Mindelheim","Address":"Marienplatz","Time":"13:00 Uhr","Date":"2019-09-20","Frequency":"Only once","Lat":48.0464164,"Lon":10.4882504},{"Country":"Germany","Town":"Minden","Address":"Marktplatz","Time":"11:30 Uhr","Date":"2019-09-20","Frequency":"Only once","Lat":52.2881045,"Lon":8.9168852},{"Country":"Germany","Town":"Möckmühl","Address":"Sportheimparkplatz","Time":"11:00 Uhr","Date":"2019-09-20","Frequency":"Only once","Lat":49.3233013,"Lon":9.3611411},{"Country":"Australia","Town":"Leeton NSW 2705","Date":"2019-09-20","Frequency":"Once only","Lat":-34.566667,"Lon":146.4},{"Country":"Germany","Town":"Mönchengladbach","Address":"Brucknerallee (Am Fischerturm/Amtsgericht)","Time":"11:55 Uhr","Date":"2019-09-20","Frequency":"Only once","Lat":51.1946983,"Lon":6.4353641},{"Country":"Germany","Town":"Montabaur","Address":"Am BBS-Kreisel","Time":"12:05 Uhr","Date":"2019-09-20","Frequency":"Only once","Lat":50.4362219,"Lon":7.8302494},{"Country":"Germany","Town":"Mosbach","Address":"Bahnhof","Time":"11:55 Uhr","Date":"2019-09-20","Frequency":"Only once","Lat":49.3527796,"Lon":9.1455235},{"Country":"Germany","Town":"Mössingen","Address":"Hauptbahnhof - fahrt nach Tübingen","Time":"10:00 Uhr","Date":"2019-09-20","Frequency":"Only once","Lat":48.4073606,"Lon":9.0646686},{"Country":"Germany","Town":"Much","Address":"Schulhof Gesamtschule Much","Time":"10:00 Uhr","Date":"2019-09-20","Frequency":"Only once","Lat":50.9044492,"Lon":7.4017528},{"Country":"Germany","Town":"Mühlhausen ","Address":"Blobach","Time":"12:00 Uhr","Date":"2019-09-20","Frequency":"Only once","Lat":51.2090628,"Lon":10.4739006},{"Country":"Germany","Town":"Mülheim an der Ruhr","Address":"Kurt-Schumacher-Platz","Time":"14:00 Uhr","Date":"2019-09-20","Frequency":"Only once","Lat":51.4272925,"Lon":6.8829192},{"Country":"Germany","Town":"Müllheim","Address":"Markgräferplatz","Time":"14:00 Uhr","Date":"2019-09-20","Frequency":"Only once","Lat":47.8099613,"Lon":7.6257276},{"Country":"Germany","Town":"München","Address":"Königsplatz","Time":"12:00 Uhr","Date":"2019-09-20","Frequency":"Only once","Lat":48.1371079,"Lon":11.5753822},{"Country":"Germany","Town":"Münsingen","Address":"Rathausplat","Time":"13:00 Uhr","Date":"2019-09-20","Frequency":"Only once","Lat":48.4128592,"Lon":9.4947894},{"Country":"Australia","Town":"Lismore NSW 2480","Date":"2019-09-20","Frequency":"Once only","Lat":-28.8093154,"Lon":153.2882876},{"Country":"Germany","Town":"Münster","Address":"Prinzipalmarkt","Time":"10:00 Uhr","Date":"2019-09-20","Frequency":"Only once","Lat":51.9501317,"Lon":7.61330165},{"Country":"Germany","Town":"Murnau","Address":"Staffelsee Gymnasium","Time":"13:00 Uhr","Date":"2019-09-20","Frequency":"Only once","Lat":47.6778816,"Lon":11.2011903},{"Country":"Germany","Town":"Naumburg","Address":"Alle Schulen 14:00 Uhr Markt","Time":"13:30 Uhr","Date":"2019-09-20","Frequency":"Only once","Lat":52.2350901,"Lon":10.5420509},{"Country":"Germany","Town":"Neckargemünd","Address":"Marktplatz","Time":"13:30 Uhr","Date":"2019-09-20","Frequency":"Only once","Lat":49.3954054,"Lon":8.7965893},{"Country":"Germany","Town":"Neubrandenburg","Address":"Friedländer Straße 1","Time":"10:00 Uhr","Date":"2019-09-20","Frequency":"Only once","Lat":53.5315858,"Lon":13.1702202},{"Country":"Germany","Town":"Neuburg a.d. Donau","Address":"Schrannenplatz 12:30 Uhr Zugfahrt nach Ingolstadt 13:00 Uhr Demo in Ingolstadt","Time":"12:00 Uhr","Date":"2019-09-20","Frequency":"Only once","Lat":48.7371951,"Lon":11.1795268},{"Country":"Germany","Town":"Neukirchen Vluyn","Address":"Vluyner Platz","Time":"16:00 Uhr","Date":"2019-09-20","Frequency":"Only once","Lat":51.4413742,"Lon":6.5467641},{"Country":"Germany","Town":"Neumarkt ","Address":"Rathaus","Time":"15:30 Uhr","Date":"2019-09-20","Frequency":"Only once","Lat":49.27806195,"Lon":11.4874279},{"Country":"Germany","Town":"Neumarkt Oberpfalz","Address":"Rathausplatz","Time":"15:30 Uhr","Date":"2019-09-20","Frequency":"Only once","Lat":49.2733724,"Lon":11.4568761},{"Country":"Australia","Town":"Mudgee NSW 2850","Date":"2019-09-20","Frequency":"Once only","Lat":-32.6144566,"Lon":149.5733291},{"Country":"Germany","Town":"Neumünster","Address":"Bahnhof","Time":"12:00 Uhr","Date":"2019-09-20","Frequency":"Only once","Lat":54.0715956,"Lon":9.9865296},{"Country":"Germany","Town":"Neuruppin","Address":"Fontaneschule","Time":"11:57 Uhr","Date":"2019-09-20","Frequency":"Only once","Lat":52.9243859,"Lon":12.8092919},{"Country":"Germany","Town":"Neuss","Address":"Marienkirchplatz","Time":"12:15 Uhr","Date":"2019-09-20","Frequency":"Only once","Lat":51.1981778,"Lon":6.6916476},{"Country":"Germany","Town":"Neustadt an der Aisch","Address":"Marktplatz","Time":"13:00 Uhr","Date":"2019-09-20","Frequency":"Only once","Lat":49.5818862,"Lon":10.6083702},{"Country":"Germany","Town":"Neustadt an der Weinstraße","Address":"Marktplatz","Time":"10:00 Uhr","Date":"2019-09-20","Frequency":"Only once","Lat":49.3539802,"Lon":8.1350021},{"Country":"Germany","Town":"Neustrelitz","Address":"Carolinum/Strelitzhalle","Time":"13:00 Uhr","Date":"2019-09-20","Frequency":"Only once","Lat":53.3368392,"Lon":12.9851733},{"Country":"Germany","Town":"Niebüll","Address":"Rathausplatz","Time":"13:30 Uhr","Date":"2019-09-20","Frequency":"Only once","Lat":54.7868097,"Lon":8.8258359},{"Country":"Germany","Town":"Nieder-Olm","Address":"Rathausplatz","Time":"16:00 Uhr","Date":"2019-09-20","Frequency":"Only once","Lat":49.9094108,"Lon":8.2033406},{"Country":"Germany","Town":"Niederlehme","Address":"Wiesenhof-Schlachthof","Time":"11:00 Uhr","Date":"2019-09-20","Frequency":"Only once","Lat":52.32514075,"Lon":13.66339406},{"Country":"Germany","Town":"Nienburg (Weser)","Address":"Bushaltestelle Im Meerbachbogen","Time":"11:00 Uhr","Date":"2019-09-20","Frequency":"Only once","Lat":52.6410849,"Lon":9.2181918},{"Country":"Australia","Town":"Nambucca Heads NSW 2448","Date":"2019-09-20","Frequency":"Once only","Lat":-30.6419702,"Lon":152.9978834},{"Country":"Germany","Town":"Norden","Address":"Norden - Marktplatz","Time":"10:00 Uhr","Date":"2019-09-20","Frequency":"Only once","Lat":53.5942039,"Lon":7.2067435},{"Country":"Germany","Town":"Norderney","Address":"Watt Welten Besucherzentrum 11:00 Uhr Schulhof der KGS","Time":"12:00 Uhr","Date":"2019-09-20","Frequency":"Only once","Lat":53.7122885,"Lon":7.235779477},{"Country":"Germany","Town":"Nordhorn","Address":"Alte Kirche am Markt","Time":"12:00 Uhr","Date":"2019-09-20","Frequency":"Only once","Lat":52.4359731,"Lon":7.0707659},{"Country":"Germany","Town":"Northeim","Address":"Mühlenanger","Time":"12:05 Uhr","Date":"2019-09-20","Frequency":"Only once","Lat":51.705401,"Lon":9.9972782},{"Country":"Germany","Town":"Nürnberg","Address":"Lorenzerplatz","Time":"12:05 Uhr","Date":"2019-09-20","Frequency":"Only once","Lat":49.453872,"Lon":11.077298},{"Country":"Germany","Town":"Nürtingen","Address":"Stadthalle K3N","Time":"12:00 Uhr","Date":"2019-09-20","Frequency":"Only once","Lat":48.6265854,"Lon":9.3365463},{"Country":"Germany","Town":"Oberaudorf","Address":"Rathausvorplatz","Time":"13:00 Uhr","Date":"2019-09-20","Frequency":"Only once","Lat":47.6484154,"Lon":12.1737799},{"Country":"Germany","Town":"Oberbergischer Kreis","Address":"Bahnhof","Time":"11:00 Uhr","Date":"2019-09-20","Frequency":"Only once","Lat":51.0128184,"Lon":7.5179457},{"Country":"Germany","Town":"Oberhausen","Address":"Rathaus Schwartzstraße","Time":"11:30 Uhr","Date":"2019-09-20","Frequency":"Only once","Lat":51.51399325,"Lon":6.849322761},{"Country":"Germany","Town":"Ochtrup","Address":"Lamberti-Kirchplatz","Time":"16:00 Uhr","Date":"2019-09-20","Frequency":"Only once","Lat":52.2096442,"Lon":7.1886098},{"Country":"Australia","Town":"Narooma NSW 2546","Date":"2019-09-20","Frequency":"Once only","Lat":-36.2419463,"Lon":150.1081935},{"Country":"Germany","Town":"Odenwaldkreis","Address":"Odenwaldhalle","Time":"11:45 Uhr","Date":"2019-09-20","Frequency":"Only once","Lat":49.6841067,"Lon":8.973222},{"Country":"Germany","Town":"Oer-Erkenschwick","Address":"Berliner Platz","Time":"10:30 Uhr","Date":"2019-09-20","Frequency":"Only once","Lat":51.6398512,"Lon":7.2605914},{"Country":"Germany","Town":"Offenburg","Address":"Fischmarkt","Time":"11:00 Uhr","Date":"2019-09-20","Frequency":"Only once","Lat":48.4716556,"Lon":7.944378},{"Country":"Germany","Town":"Oldenburg","Address":"Bahnhof - Schloss","Time":"12:00 Uhr","Date":"2019-09-20","Frequency":"Only once","Lat":53.1389753,"Lon":8.2146017},{"Country":"Germany","Town":"Olpe","Address":"ZOB Olpe","Time":"15:00 Uhr","Date":"2019-09-20","Frequency":"Only once","Lat":51.0297603,"Lon":7.8424193},{"Country":"Germany","Town":"Oranienburg","Address":"Bahnhof Oranienburg","Time":"12:00 Uhr","Date":"2019-09-20","Frequency":"Only once","Lat":52.7529379,"Lon":13.2457591},{"Country":"Germany","Town":"Osnabrück","Address":"Theatervorplatz","Time":"13:30 Uhr","Date":"2019-09-20","Frequency":"Only once","Lat":52.266837,"Lon":8.049741},{"Country":"Germany","Town":"Ostalbkreis","Date":"2019-09-20","Frequency":"Only once","Lat":48.8777738,"Lon":10.0337317},{"Country":"Germany","Town":"Osterholz-Scharmbeck","Address":"Bahnhof","Time":"10:00 Uhr","Date":"2019-09-20","Frequency":"Only once","Lat":53.2281763,"Lon":8.7948239},{"Country":"Germany","Town":"Paderborn","Address":"Marktplatz","Time":"14:00 Uhr","Date":"2019-09-20","Frequency":"Only once","Lat":51.71895955,"Lon":8.764869778},{"Country":"Australia","Town":"Newcastle NSW","Date":"2019-09-20","Frequency":"Once only","Lat":-32.9282712,"Lon":151.7816802},{"Country":"Germany","Town":"Panketal","Address":"Vor dem Rathaus / am S-Bahnhof Zepernick","Time":"11:30 Uhr","Date":"2019-09-20","Frequency":"Only once","Lat":52.6480137,"Lon":13.5412361},{"Country":"Germany","Town":"Papenburg","Address":"Rathaus","Time":"14:00 Uhr","Date":"2019-09-20","Frequency":"Only once","Lat":53.0822606,"Lon":7.3928398},{"Country":"Germany","Town":"Passau","Address":"Cagnes-sur-Mer-Promenade","Time":"12:00 Uhr","Date":"2019-09-20","Frequency":"Only once","Lat":48.5748229,"Lon":13.4609744},{"Country":"Germany","Town":"Pegnitz","Address":"Rathausvorplatz","Time":"13:15 Uhr","Date":"2019-09-20","Frequency":"Only once","Lat":49.75649,"Lon":11.540944},{"Country":"Germany","Town":"Peine","Address":"Peine","Time":"12:00 Uhr","Date":"2019-09-20","Frequency":"Only once","Lat":52.3217849,"Lon":10.2349489},{"Country":"Germany","Town":"Pellworm (Nordseeinsel)","Address":"Amt Pellworm","Time":"13:00 Uhr","Date":"2019-09-20","Frequency":"Only once","Lat":54.523038,"Lon":8.6122151},{"Country":"Germany","Town":"Penzberg","Address":"Gymnasium","Time":"11:45 Uhr","Date":"2019-09-20","Frequency":"Only once","Lat":47.7518502,"Lon":11.3763014},{"Country":"Germany","Town":"Petershausen","Address":"Pertrichplatz","Time":"14:00 Uhr","Date":"2019-09-20","Frequency":"Only once","Lat":48.4087889,"Lon":11.4698608},{"Country":"Germany","Town":"Pfaffenhofen an der Ilm","Address":"Hauptplatz","Time":"11:00 Uhr","Date":"2019-09-20","Frequency":"Only once","Lat":48.5299793,"Lon":11.50511},{"Country":"Germany","Town":"Pfarrkichen","Address":"Stadtplatz","Time":"13:00 Uhr","Date":"2019-09-20","Frequency":"Only once","Lat":48.40512105,"Lon":12.88548266},{"Country":"Australia","Town":"Nowra NSW 2541","Date":"2019-09-20","Frequency":"Once only","Lat":-34.883333,"Lon":150.6},{"Country":"Germany","Town":"Pfarrkirchen","Address":"Stadtplatz","Time":"13:00 Uhr","Date":"2019-09-20","Frequency":"Only once","Lat":48.4340737,"Lon":12.9397371},{"Country":"Germany","Town":"Pforzheim","Address":"Marktplatz","Time":"11:00 Uhr","Date":"2019-09-20","Frequency":"Only once","Lat":48.8908846,"Lon":8.7029532},{"Country":"Germany","Town":"Plauen","Address":"Theaterplatz","Time":"16:00 Uhr","Date":"2019-09-20","Frequency":"Only once","Lat":50.4950632,"Lon":12.1346523},{"Country":"Germany","Town":"Plön","Address":"Rathaus","Time":"9:30 Uhr","Date":"2019-09-20","Frequency":"Only once","Lat":54.158082,"Lon":10.41771},{"Country":"Germany","Town":"Potsdam","Address":"Alter Markt","Time":"11:58 Uhr","Date":"2019-09-20","Frequency":"Only once","Lat":52.4009309,"Lon":13.0591397},{"Country":"Germany","Town":"Prien am Chiemsee","Address":"Wendelsteinpark Prien","Time":"13:30 Uhr","Date":"2019-09-20","Frequency":"Only once","Lat":47.8541669,"Lon":12.3455493},{"Country":"Germany","Town":"Puchheim","Address":"Grüner Markt","Time":"11:55 Uhr","Date":"2019-09-20","Frequency":"Only once","Lat":48.1704908,"Lon":11.3526351},{"Country":"Germany","Town":"Quedlinburg","Address":"Marktplatz","Time":"11:00 Uhr","Date":"2019-09-20","Frequency":"Only once","Lat":51.789153,"Lon":11.141504},{"Country":"Germany","Town":"Rangsdorf","Address":"Rathausvorplatz","Time":"11:55 Uhr","Date":"2019-09-20","Frequency":"Only once","Lat":52.2914292,"Lon":13.418888},{"Country":"Germany","Town":"Rastatt","Address":"vor dem Landratsamt","Time":"11:00 Uhr","Date":"2019-09-20","Frequency":"Only once","Lat":48.8574209,"Lon":8.2088088},{"Country":"Australia","Town":"Orange NSW 2800","Address":"2329 Beachport-Penola Rd, Kangaroo SA 5280|","Time":"11:45 until 12:25|","Date":"2019-09-20","Frequency":"Once only","Lat":-33.2908082,"Lon":149.1219976},{"Country":"Germany","Town":"Rastede","Address":"ab KGS Rastede","Time":"10:00 Uhr","Date":"2019-09-20","Frequency":"Only once","Lat":53.2467081,"Lon":8.201904},{"Country":"Germany","Town":"Ratingen","Address":"Marktplatz","Time":"11:30 Uhr","Date":"2019-09-20","Frequency":"Only once","Lat":51.2973261,"Lon":6.8493503},{"Country":"Germany","Town":"Recklinghausen","Address":"Bahnhof","Time":"12:00 Uhr","Date":"2019-09-20","Frequency":"Only once","Lat":51.6143815,"Lon":7.1978546},{"Country":"Germany","Town":"Rees","Address":"Busparkplatz Gymnasium","Time":"10:45 Uhr","Date":"2019-09-20","Frequency":"Only once","Lat":51.7581242,"Lon":6.3956605},{"Country":"Germany","Town":"Regensburg","Address":"Hauptbahnhof (Fahrraddemo) 17:00 Uhr Ernst Reuter Platz (Menschenkette)","Time":"15:00 Uhr","Date":"2019-09-20","Frequency":"Only once","Lat":49.0195333,"Lon":12.0974869},{"Country":"Germany","Town":"Reichelsheim/Odenwald","Address":"Parkplatz Reichenberg-Schule","Time":"11:00 Uhr","Date":"2019-09-20","Frequency":"Only once","Lat":49.70052405,"Lon":8.847770067},{"Country":"Germany","Town":"Rendsburg","Address":"Theatervorplatz","Time":"8:00 Uhr","Date":"2019-09-20","Frequency":"Only once","Lat":54.3046701,"Lon":9.6645115},{"Country":"Germany","Town":"Reutlingen","Address":"Bahnhof","Time":"11:00 Uhr","Date":"2019-09-20","Frequency":"Only once","Lat":48.4919508,"Lon":9.2114144},{"Country":"Germany","Town":"Rhein-Sieg-Kreis","Address":"Siegburg Markt","Time":"9:30 Uhr","Date":"2019-09-20","Frequency":"Only once","Lat":50.752824,"Lon":7.381380572},{"Country":"Germany","Town":"Römerstein-Böhringen","Address":"Rathaus","Time":"11:00 Uhr","Date":"2019-09-20","Frequency":"Only once","Lat":48.4946482,"Lon":9.5142607},{"Country":"Sweden","Town":"Uppsala","Address":"In front of townhall|","Time":"At 12.00-13.00 (noon to 1pm)|","Date":"2019-09-27","Frequency":"Once only","Lat":59.8585638,"Lon":17.6389267},{"Country":"Canada","Town":"London","Address":"London City Hall, Ontario","Time":"3:00 PM","Date":"2019-09-20","Frequency":"Once only","Lat":42.9849233,"Lon":-81.2452768},{"Country":"Australia","Town":"Pennant Hills NSW 2120","Date":"2019-09-20","Frequency":"Once only","Lat":-33.738881,"Lon":151.0723841},{"Country":"Germany","Town":"Rosenheim","Address":"Max-Josefs-Platz","Time":"14:00 Uhr","Date":"2019-09-20","Frequency":"Only once","Lat":47.8539273,"Lon":12.127262},{"Country":"Germany","Town":"Rostock","Address":"Hauptbahnhof","Time":"13:00 Uhr","Date":"2019-09-20","Frequency":"Only once","Lat":54.0924445,"Lon":12.1286127},{"Country":"Germany","Town":"Rötenberg","Address":"Kirchplatz Rötenberg","Time":"17:00 Uhr","Date":"2019-09-20","Frequency":"Only once","Lat":48.3052409,"Lon":8.4203482},{"Country":"Germany","Town":"Rothenburg ob der Tauber","Address":"Marktplatz","Time":"13:00 Uhr","Date":"2019-09-20","Frequency":"Only once","Lat":49.3771899,"Lon":10.1788809},{"Country":"Germany","Town":"Rottenburg am Neckar","Address":"Marktplatz","Time":"12:00 Uhr","Date":"2019-09-20","Frequency":"Only once","Lat":48.47696,"Lon":8.9336788},{"Country":"Germany","Town":"Rottweil","Address":"Rathaus","Time":"11:30 Uhr","Date":"2019-09-20","Frequency":"Only once","Lat":48.165531,"Lon":8.6251283},{"Country":"Germany","Town":"Rüsselsheim am Main","Address":"Bahnhofsplatz","Time":"12:00 Uhr","Date":"2019-09-20","Frequency":"Only once","Lat":49.9948956,"Lon":8.4118279},{"Country":"Germany","Town":"Saarbrücken","Address":"Landwehrplatz","Time":"14:30 Uhr","Date":"2019-09-20","Frequency":"Only once","Lat":49.234362,"Lon":6.996379},{"Country":"Germany","Town":"Salzwedel","Address":"Am Rathausturmplatz","Time":"11:30 Uhr","Date":"2019-09-20","Frequency":"Only once","Lat":52.8528456,"Lon":11.1539699},{"Country":"Germany","Town":"Sausenheim","Address":"Grundschule","Date":"2019-09-20","Frequency":"Only once","Lat":49.55088075,"Lon":8.159020635},{"Country":"Australia","Town":"Port Macquarie NSW 2444","Date":"2019-09-20","Frequency":"Once only","Lat":-31.433333,"Lon":152.9},{"Country":"Germany","Town":"Schleswig","Address":"NoSpa am Capitolplatz","Time":"9:45 Uhr","Date":"2019-09-20","Frequency":"Only once","Lat":54.51851,"Lon":9.5653284},{"Country":"Germany","Town":"Schöneiche bei Berlin","Address":"Dorfaue 1","Time":"17:00 Uhr","Date":"2019-09-20","Frequency":"Only once","Lat":52.4782043,"Lon":13.6958749},{"Country":"Germany","Town":"Schorndorf","Address":"Oberer Marktplatz in Schorndorf","Time":"11:30 Uhr","Date":"2019-09-20","Frequency":"Only once","Lat":48.8055169,"Lon":9.5272665},{"Country":"Germany","Town":"Schramberg","Address":"Rathaus","Time":"13:30 Uhr","Date":"2019-09-20","Frequency":"Only once","Lat":48.225478,"Lon":8.3852168},{"Country":"Germany","Town":"Schwabach","Address":"Schulhof der Wirtschaftsschule","Time":"16:00 Uhr","Date":"2019-09-20","Frequency":"Only once","Lat":49.3295535,"Lon":11.0195132},{"Country":"Germany","Town":"Schwäbisch Gmünd","Address":"Marktplatz","Time":"11:00 Uhr","Date":"2019-09-20","Frequency":"Only once","Lat":48.8001179,"Lon":9.7963529},{"Country":"Germany","Town":"Schwäbisch Hall","Date":"2019-09-20","Frequency":"Only once","Lat":49.1123963,"Lon":9.7369047},{"Country":"Germany","Town":"Schwedt","Address":"Platz der Befreiung","Time":"11:55 Uhr","Date":"2019-09-20","Frequency":"Only once","Lat":53.0586366,"Lon":14.2840858},{"Country":"Germany","Town":"Schweinfurt","Address":"Schillerplatz 17:00 Uhr Mahnwache","Time":"13:30 Uhr","Date":"2019-09-20","Frequency":"Only once","Lat":50.0499945,"Lon":10.233302},{"Country":"Germany","Town":"Schwerin","Address":"Südufer Pfaffenteich","Time":"11:30 Uhr","Date":"2019-09-20","Frequency":"Only once","Lat":53.6288297,"Lon":11.4148038},{"Country":"Australia","Town":"Moruya NSW 2537","Date":"2019-09-20","Frequency":"Once only","Lat":-35.9073095,"Lon":150.0928052},{"Country":"Germany","Town":"Schwerte","Address":"Rohrmeisterei Schwerte","Time":"9:00 Uhr","Date":"2019-09-20","Frequency":"Only once","Lat":51.445525,"Lon":7.5674652},{"Country":"Germany","Town":"Schwetzingen","Address":"Hebelgymnasium Schwetzingen","Time":"13:15 Uhr","Date":"2019-09-20","Frequency":"Only once","Lat":49.3832919,"Lon":8.5735135},{"Country":"Germany","Town":"Selb","Address":"Marktplatz","Time":"13:15 Uhr","Date":"2019-09-20","Frequency":"Only once","Lat":50.169121,"Lon":12.1297769},{"Country":"Germany","Town":"Selm","Address":"Freibad/Bürgerhaus","Time":"13:00 Uhr","Date":"2019-09-20","Frequency":"Only once","Lat":51.7005549,"Lon":7.468614},{"Country":"Germany","Town":"Sendenhorst","Address":"Teigelkamp 5","Time":"10:00 Uhr","Date":"2019-09-20","Frequency":"Only once","Lat":51.8444362,"Lon":7.8273931},{"Country":"Germany","Town":"Siegburg","Address":"Marktplatz","Time":"9:30 Uhr","Date":"2019-09-20","Frequency":"Only once","Lat":50.7928332,"Lon":7.2070774},{"Country":"Germany","Town":"Siegen","Address":"Bismarckplatz","Time":"10:30 Uhr","Date":"2019-09-20","Frequency":"Only once","Lat":50.8749804,"Lon":8.0227233},{"Country":"Germany","Town":"Simmern (Hunsrück)","Address":"Schlossplatz","Time":"10:00 Uhr","Date":"2019-09-20","Frequency":"Only once","Lat":49.98614705,"Lon":7.532142267},{"Country":"Germany","Town":"Singen","Address":"Heinrich-Weber-Platz","Time":"10:00 Uhr","Date":"2019-09-20","Frequency":"Only once","Lat":47.7617515,"Lon":8.8348709},{"Country":"Germany","Town":"Sinsheim","Address":"Burgplatz","Time":"11:00 Uhr","Date":"2019-09-20","Frequency":"Only once","Lat":49.2553,"Lon":8.87722},{"Country":"Australia","Town":"Pottsville NSW 2489","Date":"2019-09-20","Frequency":"Once only","Lat":-28.3877489,"Lon":153.5580894},{"Country":"Germany","Town":"Sinzig","Address":"Jahnwiese","Time":"16:00 Uhr","Date":"2019-09-20","Frequency":"Only once","Lat":50.5452042,"Lon":7.2490828},{"Country":"Germany","Town":"Soest","Address":"Marktplatz","Time":"11:30 Uhr","Date":"2019-09-20","Frequency":"Only once","Lat":51.5784166,"Lon":8.1043635},{"Country":"Germany","Town":"Solingen","Address":"Rathaus","Time":"10:00 Uhr","Date":"2019-09-20","Frequency":"Only once","Lat":51.1712468,"Lon":7.0838996},{"Country":"Germany","Town":"Soltau","Address":"Gymnasium Soltau Parkplatz","Time":"16:00 Uhr","Date":"2019-09-20","Frequency":"Only once","Lat":52.9859666,"Lon":9.8433909},{"Country":"Germany","Town":"Sonthofen","Address":"Vor dem Rathaus","Time":"13:30 Uhr","Date":"2019-09-20","Frequency":"Only once","Lat":47.5135363,"Lon":10.281931},{"Country":"Germany","Town":"Speyer","Address":"Eingang Adenauerpark","Time":"11:00 Uhr","Date":"2019-09-20","Frequency":"Only once","Lat":49.3165553,"Lon":8.433615},{"Country":"Germany","Town":"Spiekeroog","Address":"Rathaus","Time":"9:30 Uhr","Date":"2019-09-20","Frequency":"Only once","Lat":53.7666185,"Lon":7.725559048},{"Country":"Germany","Town":"St. Ingbert","Address":"Alten Feuerwache am Landwehrplatz","Time":"14:30 Uhr","Date":"2019-09-20","Frequency":"Only once","Lat":49.2788369,"Lon":7.1158276},{"Country":"Germany","Town":"Stade","Address":"Hospitalstraße","Time":"16:00 Uhr","Date":"2019-09-20","Frequency":"Only once","Lat":53.599794,"Lon":9.475438},{"Country":"Germany","Town":"Stadthagen","Address":"Festplatz","Time":"13:30 Uhr","Date":"2019-09-20","Frequency":"Only once","Lat":52.3289688,"Lon":9.2053496},{"Country":"Australia","Town":"Wollar NSW 2850","Date":"2019-09-20","Frequency":"Once only","Lat":-32.3425728,"Lon":149.9527765},{"Country":"Germany","Town":"Stahnsdorf","Address":"Gemeindezentrum (Annastraße 3)","Time":"9:30 Uhr","Date":"2019-09-20","Frequency":"Only once","Lat":52.3869675,"Lon":13.2077118},{"Country":"Germany","Town":"Stein","Address":"FORUM STEIN (Hauptstraße 36)","Time":"15:00 Uhr","Date":"2019-09-20","Frequency":"Only once","Lat":49.4139647,"Lon":11.0130276},{"Country":"Germany","Town":"Steinwenden","Address":"protestantische Kirche","Time":"12:00 Uhr","Date":"2019-09-20","Frequency":"Only once","Lat":49.4560722,"Lon":7.527995},{"Country":"Germany","Town":"Stendal","Address":"Marktplatz","Time":"14:00 Uhr","Date":"2019-09-20","Frequency":"Only once","Lat":52.6051341,"Lon":11.8593217},{"Country":"Germany","Town":"Sternberg","Address":"Marktplatz","Time":"10:00 Uhr","Date":"2019-09-20","Frequency":"Only once","Lat":53.7159278,"Lon":11.778361},{"Country":"Germany","Town":"Straubing","Address":"Theresienplatz","Time":"10:00 Uhr","Date":"2019-09-20","Frequency":"Only once","Lat":48.8819801,"Lon":12.569716},{"Country":"Germany","Town":"Ströhen","Address":"Dorfplatz an der Varreler Straße","Time":"11:00 Uhr","Date":"2019-09-20","Frequency":"Only once","Lat":52.532111,"Lon":8.693333},{"Country":"Germany","Town":"Stuttgart","Address":"Kernerplatz","Time":"11:30 Uhr","Date":"2019-09-20","Frequency":"Only once","Lat":48.7784485,"Lon":9.1800132},{"Country":"Germany","Town":"Stuttgart Weilimdorf","Address":"Löwenmarkt","Time":"12:00 Uhr","Date":"2019-09-20","Frequency":"Only once","Lat":48.822086,"Lon":9.0944331},{"Country":"Germany","Town":"Suhl","Address":"Bahnhof Suhl","Time":"12:00 Uhr","Date":"2019-09-20","Frequency":"Only once","Lat":50.6249024,"Lon":10.75648784},{"Country":"Australia","Town":"Tamworth NSW 2340","Date":"2019-09-20","Frequency":"Once only","Lat":-31.092748,"Lon":150.9320334},{"Country":"Germany","Town":"Sulingen","Address":"Neuer Markt","Time":"15:00 Uhr","Date":"2019-09-20","Frequency":"Only once","Lat":52.6828374,"Lon":8.8018923},{"Country":"Germany","Town":"Syke","Address":"Rathausplatz","Time":"13:30 Uhr","Date":"2019-09-20","Frequency":"Only once","Lat":52.9131332,"Lon":8.8198737},{"Country":"Germany","Town":"Sylt","Address":"Sylt","Time":"12:00 Uhr","Date":"2019-09-20","Frequency":"Only once","Lat":54.9014315,"Lon":8.331455292},{"Country":"Germany","Town":"Tauberbischofsheim","Address":"Schlossplatz","Time":"11:00 Uhr","Date":"2019-09-20","Frequency":"Only once","Lat":49.6229682,"Lon":9.6627138},{"Country":"Germany","Town":"Templin","Address":"Kurmeile","Time":"11:00 Uhr","Date":"2019-09-20","Frequency":"Only once","Lat":53.1193496,"Lon":13.5005559},{"Country":"Germany","Town":"Tharandt","Address":"Schillerstraße","Time":"12:00 Uhr","Date":"2019-09-20","Frequency":"Only once","Lat":50.9853391,"Lon":13.5794907},{"Country":"Germany","Town":"Titisee-Neustadt","Address":"Narrenbrunnen","Time":"10:30 Uhr","Date":"2019-09-20","Frequency":"Only once","Lat":47.9178933,"Lon":8.1927447},{"Country":"Germany","Town":"Traunstein","Address":"Bahnhofsplatz","Time":"10:45 Uhr","Date":"2019-09-20","Frequency":"Only once","Lat":47.8701474,"Lon":12.6423403},{"Country":"Germany","Town":"Trier","Address":"Domfreihof","Time":"10:00 Uhr","Date":"2019-09-20","Frequency":"Only once","Lat":49.7596208,"Lon":6.6441878},{"Country":"Germany","Town":"Trossingen","Address":"Rudolf-Maschke-Platz Trossingen","Time":"12:00 Uhr","Date":"2019-09-20","Frequency":"Only once","Lat":48.07506,"Lon":8.6362987},{"Country":"Australia","Town":"Taree NSW 2430","Address":"Fotheringham Park. Taree NSW|","Time":"9am - 11am|","Date":"2019-09-20","Frequency":"Once only","Lat":-31.8894897,"Lon":152.4444453},{"Country":"Germany","Town":"Tübingen","Address":"Uhlandstraße - Zwischenkundgebung: Vor der neuen Aula - Abschlusskundgebung: Anlagenpark 18:00 Uhr Universitätsbibliothek 19:00 Uhr Holzmarkt","Time":"11:00 Uhr","Date":"2019-09-20","Frequency":"Only once","Lat":48.5236164,"Lon":9.0535531},{"Country":"Germany","Town":"Tutzing","Date":"2019-09-20","Frequency":"Only once","Lat":47.9086611,"Lon":11.2798274},{"Country":"Germany","Town":"Uelzen","Address":"Bahnhof","Time":"11:00 Uhr","Date":"2019-09-20","Frequency":"Only once","Lat":52.966838,"Lon":10.558615},{"Country":"Germany","Town":"Ulm","Address":"Marktplatz","Time":"15:00 Uhr","Date":"2019-09-20","Frequency":"Only once","Lat":48.3974003,"Lon":9.9934336},{"Country":"Germany","Town":"Unna","Address":"Rathausplatz","Time":"12:00 Uhr","Date":"2019-09-20","Frequency":"Only once","Lat":51.5348835,"Lon":7.689014},{"Country":"Germany","Town":"Uslar","Address":"ZOB Zur Schwarzen Erde","Time":"12:45","Date":"2019-09-20","Frequency":"Only once","Lat":51.6586082,"Lon":9.6338073},{"Country":"Germany","Town":"Vechta","Address":"Europaplatz","Time":"12:00 Uhr","Date":"2019-09-20","Frequency":"Only once","Lat":52.7310691,"Lon":8.2873162},{"Country":"Germany","Town":"Verden (Aller)","Address":"Bahnhof","Time":"11:00 Uhr","Date":"2019-09-20","Frequency":"Only once","Lat":52.94106755,"Lon":9.235471627},{"Country":"Germany","Town":"Villingen-Schwenningen","Address":"Villingen Bahnhofsvorplatz","Time":"11:30 Uhr","Date":"2019-09-20","Frequency":"Only once","Lat":48.0632739,"Lon":8.494588},{"Country":"Germany","Town":"Vilsbiburg","Address":"Verkehrsgarten","Time":"13:15 Uhr","Date":"2019-09-20","Frequency":"Only once","Lat":48.448482,"Lon":12.355795},{"Country":"Australia","Town":"Tweed Heads NSW","Date":"2019-09-20","Frequency":"Once only","Lat":-28.1786656,"Lon":153.5370011},{"Country":"Germany","Town":"Visselhövede","Address":"Marktplatz","Time":"11:55 Uhr","Date":"2019-09-20","Frequency":"Only once","Lat":52.9847596,"Lon":9.5782553},