{
    "title":"FFF Github Global Map WFF",
    "generated":"2019-09-10 01:35",
    "encoding":"utf-8",
    "keys":["Country","Town","Address","Time","Date","Frequency","Lat","Lon"],
    "data":[{"Country":"Sweden","Town":"Alingsås","Address":"På rådhustrapporna vid Stora torget","Time":"17-18","Date":"2019-09-20","Frequency":"Weekly","Lat":57.9300205,"Lon":12.5362113},{"Country":"Sweden","Town":"Gothenburg","Address":"In front of townhall|Göteborg, Gustav Adolfs Torg. kl 15-17 kontakt Kerstin Hamberger","Time":"Kl. 12.00-13.00|15-17","Date":"2019-09-20","Frequency":"Weekly","Lat":57.70887,"Lon":11.97456},{"Country":"Sweden","Town":"Halmstad","Address":"Halmstad, Rädhuset. kl12-14, kontakt Suzanne Näckdal och Anne-Marie Bruno","Time":"12-14","Date":"2019-09-20","Frequency":"Weekly","Lat":56.6743748,"Lon":12.8577885},{"Country":"Sweden","Town":"Karlstad","Address":"Stora Torget |Stora Torget","Time":"12.00-15.00|12-15","Date":"2019-09-20","Frequency":"Weekly","Lat":59.4021806,"Lon":13.5114978},{"Country":"Sweden","Town":"Luleå","Address":"Luleå, stadshuset, kl12-13 kontakt Elsa Rensfeldt o Emma Westerberg","Time":"12-13","Date":"2019-09-20","Frequency":"Weekly","Lat":65.584819,"Lon":22.1567026},{"Country":"Sweden","Town":"Örebro","Address":"Örebro. kl 15.-17. Kontakt: @Klimatfredag Instagram","Time":"15-17","Date":"2019-09-20","Frequency":"Weekly","Lat":59.2752626,"Lon":15.2134105},{"Country":"Sweden","Town":"Östersund","Address":"In front of Rådhuset|ÖSTERSUND, Östersunds Rådhus, kl14-17 kontakt Joakim Karlsson o Lina Strömgren https://www.facebook.com/events/277411122918641/","Time":"14.00-17.00|14-17","Date":"2019-09-20","Frequency":"Weekly","Lat":63.1766832,"Lon":14.6360681},{"Country":"Sweden","Town":"Simrishamn","Address":"Simrishamn på fredag framför stadshuset 10.30-13.30","Time":"10.30-13.30","Date":"2019-09-20","Frequency":"Weekly","Lat":55.5573959,"Lon":14.3489651},{"Country":"Sweden","Town":"Skövde","Address":"Skövde, stadshuset, kl15-17, kontakt Maj-Lis Lindholm","Time":"15-17","Date":"2019-09-20","Frequency":"Weekly","Lat":58.3902782,"Lon":13.8461208},{"Country":"Sweden","Town":"Uppsala","Address":"Uppsala, Forumtorget. kl 15-17. Kontakt: Karin Holmstrand Jordensvänner, Klimatstudenterna - SLU","Time":"15-17","Date":"2019-09-20","Frequency":"Weekly","Lat":59.8585638,"Lon":17.6389267},{"Country":"Sweden","Town":"Västerås","Address":"Torggatan i centrum","Date":"2019-09-20","Frequency":"Weekly","Lat":59.6099005,"Lon":16.5448092},{"Country":"Sweden","Town":"Stockholm","Time":"kl8-13|kl8-13","Date":"2019-09-20","Frequency":"weekly","Lat":59.3293235,"Lon":18.0685808},{"Country":"Sweden","Town":"Växjö","Time":"kl15-16","Date":"2019-09-20","Frequency":"weekly","Lat":56.8790044,"Lon":14.8058523},{"Country":"Sweden","Town":"Vimmerby","Address":"VIMMERBY Contact: Ingvar Edlund o Laurent Mertz https://www.facebook.com/events/187531722140345/ https://www.facebook.com/groups/288419755103990/permalink/291860014759964/","Date":"2019-09-20","Frequency":"Weekly","Lat":57.6690339,"Lon":15.858857},{"Country":"Sweden","Town":"Visby","Address":"Östercentrum|Visby Östercentrum|VISBY Ostercentrum kl11:30-14 kontakt Alfred Westh https://www.facebook.com/events/346676762763537/?ti=cl","Time":"17-18|17.00-18.00|11.30-14","Date":"2019-09-20","Frequency":"Weekly","Lat":57.6348,"Lon":18.29484},{"Country":"Germany","Town":"Aachen","Date":"2019-09-20","Frequency":"Once only","Lat":50.7753455,"Lon":6.0838868},{"Country":"Germany","Town":"Bamberg","Date":"2019-09-20","Frequency":"Once only","Lat":49.8988135,"Lon":10.9027636},{"Country":"Germany","Town":"22941 Bargteheide","Date":"2019-09-20","Frequency":"Once only","Lat":53.7287773,"Lon":10.2656004},{"Country":"Germany","Town":"64625 Bensheim","Address":"Rathaus|","Date":"2019-09-20","Frequency":"Once only","Lat":49.6861354,"Lon":8.6187296},{"Country":"Germany","Town":"Berlin","Date":"2019-09-20","Frequency":"Once only","Lat":52.5200066,"Lon":13.404954},{"Country":"Germany","Town":"54634 Bitburg","Date":"2019-09-20","Frequency":"Once only","Lat":49.9664145,"Lon":6.5298603},{"Country":"Germany","Town":"Bonn","Address":"Hofgarten|","Time":"11:00 Uhr|","Date":"2019-09-20","Frequency":"Once only","Lat":50.73743,"Lon":7.0982068},{"Country":"Germany","Town":"46325 Borken","Date":"2019-09-20","Frequency":"Once only","Lat":51.8482714,"Lon":6.8594477},{"Country":"Germany","Town":"Bremen","Address":"Bahnhofsvorplatz|","Time":"10:00 Uhr|","Date":"2019-09-20","Frequency":"Once only","Lat":53.0792962,"Lon":8.8016936},{"Country":"Germany","Town":"Bunde","Date":"2019-09-20","Frequency":"Once only","Lat":53.1850881,"Lon":7.2712674},{"Country":"Germany","Town":"75365 Calw","Address":"Marktplatz |","Time":"11:00 Uhr|","Date":"2019-09-20","Frequency":"Once only","Lat":48.7122107,"Lon":8.7472439},{"Country":"Germany","Town":"Chemnitz","Date":"2019-09-20","Frequency":"Once only","Lat":50.827845,"Lon":12.9213697},{"Country":"Germany","Town":"85221 Dachau","Date":"2019-09-20","Frequency":"Once only","Lat":48.2629984,"Lon":11.4339022},{"Country":"Germany","Town":"Darmstadt","Date":"2019-09-20","Frequency":"Once only","Lat":49.8728253,"Lon":8.6511929},{"Country":"Germany","Town":"Dortmund","Address":"Friedensplatz|","Time":"12:00 Uhr|","Date":"2019-09-20","Frequency":"Once only","Lat":51.5135872,"Lon":7.4652981},{"Country":"Germany","Town":"Dresden","Date":"2019-09-20","Frequency":"Once only","Lat":51.0504088,"Lon":13.7372621},{"Country":"Germany","Town":"Eberswalde","Date":"2019-09-20","Frequency":"Once only","Lat":52.837133,"Lon":13.7875871},{"Country":"Germany","Town":"Eckernförde","Address":"Hafenspitze|","Time":"9:00 Uhr|","Date":"2019-09-20","Frequency":"Once only","Lat":54.4689457,"Lon":9.8384466},{"Country":"Germany","Town":"85072 Eichstätt","Date":"2019-09-20","Frequency":"Once only","Lat":48.8912508,"Lon":11.1899861},{"Country":"Germany","Town":"Erfurt","Date":"2019-09-20","Frequency":"Once only","Lat":50.9847679,"Lon":11.02988},{"Country":"Germany","Town":"Erlangen","Address":"Schlossplatz|","Time":"11:00 Uhr|","Date":"2019-09-20","Frequency":"Once only","Lat":49.5896744,"Lon":11.0119611},{"Country":"Germany","Town":"Esslingen","Date":"2019-09-20","Frequency":"Once only","Lat":48.7433425,"Lon":9.3201122},{"Country":"Germany","Town":"23701 Eutin","Date":"2019-09-20","Frequency":"Once only","Lat":54.1330282,"Lon":10.6095048},{"Country":"Germany","Town":"Frankfurt","Address":"Alte Oper|","Time":"12:00 Uhr|","Date":"2019-09-20","Frequency":"Once only","Lat":50.1109221,"Lon":8.6821267},{"Country":"Germany","Town":"Freiburg im Breisgau","Date":"2019-09-20","Frequency":"Once only","Lat":47.9990077,"Lon":7.8421043},{"Country":"Germany","Town":"Freising","Date":"2019-09-20","Frequency":"Once only","Lat":48.4028796,"Lon":11.7411846},{"Country":"Germany","Town":"Giessen","Date":"2019-09-20","Frequency":"Once only","Lat":50.5840512,"Lon":8.6784031},{"Country":"Germany","Town":"Groß-Gerau","Date":"2019-09-20","Frequency":"Once only","Lat":49.9203655,"Lon":8.4847038},{"Country":"Germany","Town":"Gütersloh","Date":"2019-09-20","Frequency":"Once only","Lat":51.9032375,"Lon":8.3857535},{"Country":"Germany","Town":"Haan","Date":"2019-09-20","Frequency":"Once only","Lat":51.1923262,"Lon":7.0065575},{"Country":"Germany","Town":"Hamburg","Address":"Jungfernstieg|","Time":"12:00 Uhr|","Date":"2019-09-20","Frequency":"Once only","Lat":53.5510846,"Lon":9.9936819},{"Country":"Germany","Town":"Hamelin","Date":"2019-09-20","Frequency":"Once only","Lat":52.1082726,"Lon":9.362171},{"Country":"Germany","Town":"Hamm","Address":"Beibder Stadtbücherei |","Time":"10:00 Uhr|","Date":"2019-09-20","Frequency":"Once only","Lat":51.6738583,"Lon":7.8159817},{"Country":"Germany","Town":"34346 Hann. Münden","Date":"2019-09-20","Frequency":"Once only","Lat":51.419285,"Lon":9.6557588},{"Country":"Germany","Town":"Hanover","Address":"Unterschiedliche|","Time":"12:30 Uhr|","Date":"2019-09-20","Frequency":"Once only","Lat":52.3758916,"Lon":9.7320104},{"Country":"Germany","Town":"Itzehoe","Address":"Zob|","Time":"10:00 Uhr|","Date":"2019-09-20","Frequency":"Once only","Lat":53.9317752,"Lon":9.5051475},{"Country":"Germany","Town":"Karlsruhe","Address":"Friedrichsplatz |","Time":"11:00 Uhr|","Date":"2019-09-20","Frequency":"Once only","Lat":49.0068901,"Lon":8.4036527},{"Country":"Germany","Town":"47906 Kempen","Date":"2019-09-20","Frequency":"Once only","Lat":51.3649942,"Lon":6.4205309},{"Country":"Germany","Town":"Kiel","Date":"2019-09-20","Frequency":"Once only","Lat":54.3232927,"Lon":10.1227651},{"Country":"Germany","Town":"47533 Kleve","Address":"Parkplatz Ludwig-Jahn-Straße|","Time":"10:15 Uhr|","Date":"2019-09-20","Frequency":"Once only","Lat":51.786726,"Lon":6.12954},{"Country":"Germany","Town":"Koblenz","Date":"2019-09-20","Frequency":"Once only","Lat":50.3569429,"Lon":7.5889959},{"Country":"Germany","Town":"Cologne","Address":"Hans Böckler Platz/ Bf West / DGB Haus |","Time":"11:00 Uhr|","Date":"2019-09-20","Frequency":"Once only","Lat":50.937531,"Lon":6.9602786},{"Country":"Germany","Town":"Konstanz","Date":"2019-09-20","Frequency":"Once only","Lat":47.6779496,"Lon":9.1732384},{"Country":"Germany","Town":"Kulmbach","Address":"Marktplatz|","Time":"11:30 Uhr|","Date":"2019-09-20","Frequency":"Once only","Lat":50.1039282,"Lon":11.4448178},{"Country":"Germany","Town":"Landau","Date":"2019-09-20","Frequency":"Once only","Lat":49.198886,"Lon":8.1185622},{"Country":"Germany","Town":"86899 Landsberg am Lech","Date":"2019-09-20","Frequency":"Once only","Lat":48.050783,"Lon":10.8703515},{"Country":"Germany","Town":"Landshut","Date":"2019-09-20","Frequency":"Once only","Lat":48.5441917,"Lon":12.1468532},{"Country":"Germany","Town":"31275 Lehrte","Date":"2019-09-20","Frequency":"Once only","Lat":52.3746255,"Lon":9.9784211},{"Country":"Germany","Town":"Leipzig","Address":"Augustusplatz|","Time":"15:00 Uhr|","Date":"2019-09-20","Frequency":"Once only","Lat":51.3396955,"Lon":12.3730747},{"Country":"Germany","Town":"Lübeck","Date":"2019-09-20","Frequency":"Once only","Lat":53.8654673,"Lon":10.6865593},{"Country":"Germany","Town":"Ludwigsburg","Date":"2019-09-20","Frequency":"Once only","Lat":48.8940624,"Lon":9.195464},{"Country":"Germany","Town":"Lüneburg","Address":"Marktplatz|","Time":"12:00 Uhr|","Date":"2019-09-20","Frequency":"Once only","Lat":53.2464214,"Lon":10.4115179},{"Country":"Germany","Town":"Mannheim","Date":"2019-09-20","Frequency":"Once only","Lat":49.4874592,"Lon":8.4660395},{"Country":"Germany","Town":"Marburg","Date":"2019-09-20","Frequency":"Once only","Lat":50.8021728,"Lon":8.7667933},{"Country":"Germany","Town":"Mönchengladbach","Date":"2019-09-20","Frequency":"Once only","Lat":51.1804572,"Lon":6.4428041},{"Country":"Germany","Town":"Munich","Date":"2019-09-20","Frequency":"Once only","Lat":48.1351253,"Lon":11.5819805},{"Country":"Germany","Town":"Münster","Address":"Prinzipalmarkt|","Time":"10:00 Uhr|","Date":"2019-09-20","Frequency":"Once only","Lat":51.9606649,"Lon":7.6261347},{"Country":"Germany","Town":"86633 Neuburg an der Donau","Date":"2019-09-20","Frequency":"Once only","Lat":48.7302674,"Lon":11.1887693},{"Country":"Germany","Town":"Neustadt","Date":"2019-09-20","Frequency":"Once only","Lat":49.3501864,"Lon":8.1486886},{"Country":"Germany","Town":"Nuremberg","Date":"2019-09-20","Frequency":"Once only","Lat":49.4521018,"Lon":11.0766654},{"Country":"Germany","Town":"Oberhausen","Date":"2019-09-20","Frequency":"Once only","Lat":51.4963341,"Lon":6.8637765},{"Country":"Germany","Town":"Offenburg","Date":"2019-09-20","Frequency":"Once only","Lat":48.473451,"Lon":7.9498017},{"Country":"Germany","Town":"Osnabrück","Date":"2019-09-20","Frequency":"Once only","Lat":52.2799112,"Lon":8.0471788},{"Country":"Germany","Town":"Ostalbkreis","Date":"2019-09-20","Frequency":"Once only","Lat":48.8308896,"Lon":10.096835},{"Country":"Germany","Town":"Paderborn","Date":"2019-09-20","Frequency":"Once only","Lat":51.7189205,"Lon":8.7575093},{"Country":"Germany","Town":"Pforzheim","Date":"2019-09-20","Frequency":"Once only","Lat":48.8921862,"Lon":8.6946286},{"Country":"Germany","Town":"78315 Radolfzell","Date":"2019-09-20","Frequency":"Once only","Lat":47.745237,"Lon":8.9669098},{"Country":"Germany","Town":"26180 Rastede","Date":"2019-09-20","Frequency":"Once only","Lat":53.2445468,"Lon":8.2005361},{"Country":"Germany","Town":"Recklinghausen","Address":"Bahnhof|","Time":"12:00 Uhr|","Date":"2019-09-20","Frequency":"Once only","Lat":51.6140649,"Lon":7.1979453},{"Country":"Germany","Town":"Rendsburg","Date":"2019-09-20","Frequency":"Once only","Lat":54.3080869,"Lon":9.6606992},{"Country":"Germany","Town":"Reutlingen","Date":"2019-09-20","Frequency":"Once only","Lat":48.5069389,"Lon":9.2038043},{"Country":"Germany","Town":"Rostock","Date":"2019-09-20","Frequency":"Once only","Lat":54.0924406,"Lon":12.0991466},{"Country":"Germany","Town":"Saarbrücken","Date":"2019-09-20","Frequency":"Once only","Lat":49.2401572,"Lon":6.9969327},{"Country":"Germany","Town":"Salzwedel","Date":"2019-09-20","Frequency":"Once only","Lat":52.8503387,"Lon":11.1646679},{"Country":"Germany","Town":"Schweinfurt","Date":"2019-09-20","Frequency":"Once only","Lat":50.0492047,"Lon":10.2194227},{"Country":"Germany","Town":"Stuttgart","Address":"Schlossplatz|","Time":"11:00 Uhr|","Date":"2019-09-20","Frequency":"Once only","Lat":48.7758459,"Lon":9.1829321},{"Country":"Germany","Town":"Tübingen","Date":"2019-09-20","Frequency":"Once only","Lat":48.5216364,"Lon":9.0576448},{"Country":"Germany","Town":"Villingen-Schwenningen","Date":"2019-09-20","Frequency":"Once only","Lat":48.0594021,"Lon":8.4640869},{"Country":"Germany","Town":"82362 Weilheim in Oberbayern","Address":"Theaterplatz|","Time":"11:00 Uhr|","Date":"2019-09-20","Frequency":"Once only","Lat":47.8406859,"Lon":11.1421379},{"Country":"Germany","Town":"21423 Winsen","Address":"Bahnhof|","Time":"10:00 Uhr|","Date":"2019-09-20","Frequency":"Once only","Lat":53.3574436,"Lon":10.2127204},{"Country":"Germany","Town":"Wülfrath","Date":"2019-09-20","Frequency":"Once only","Lat":51.280284,"Lon":7.0349609},{"Country":"Faroe Islands","Town":"Tórshavn","Date":"2019-09-20","Frequency":"Weekly","Lat":62.0107248,"Lon":-6.7740852},{"Country":"Sweden","Town":"Mynttorget, Stockholm","Time":"strike","Date":"2019-09-20","Frequency":"every friday","Lat":59.3267464,"Lon":18.0692843},{"Country":"Germany","Town":"Aachen","Address":"Elisenbrunnen|Elisenbrunnen","Time":"10.00-13.00|10:00 Uhr","Date":"2019-09-20","Frequency":"Every Friday","Lat":50.7753455,"Lon":6.0838868},{"Country":"Germany","Town":"Krefeld","Address":"HBF","Time":"11:00 Uhr","Date":"2019-09-20","Frequency":"Weekly","Lat":51.3387609,"Lon":6.5853417},{"Country":"Germany","Town":"Osnabrück","Address":"Theatervorplatz","Time":"10:00 Uhr","Date":"2019-09-20","Frequency":"Every Friday","Lat":52.2799112,"Lon":8.0471788},{"Country":"Australia","Town":"Bega NSW 2550","Date":"2019-09-20","Frequency":"Every Friday","Lat":-36.6889097,"Lon":149.8416404},{"Country":"Australia","Town":"Melbourne VIC","Date":"2019-09-20","Frequency":"Once only","Lat":-37.8136276,"Lon":144.9630576},{"Country":"UK","Town":"Fort William","Address":"Fort William on footpath outside Lochaber High School","Time":"8.45-9.45","Date":"2019-09-20","Frequency":"weekly","Lat":56.819817,"Lon":-5.1052179},{"Country":"Australia","Town":"Albury–Wodonga","Date":"2019-09-20","Frequency":"Once only","Lat":-36.1583417,"Lon":146.8985944},{"Country":"Australia","Town":"Bairnsdale VIC 3875","Date":"2019-09-20","Frequency":"Once only","Lat":-37.833333,"Lon":147.616667},{"Country":"Australia","Town":"Ballarat VIC","Date":"2019-09-20","Frequency":"Once only","Lat":-37.5621587,"Lon":143.8502556},{"Country":"Australia","Town":"Bendigo VIC 3550","Date":"2019-09-20","Frequency":"Once only","Lat":-36.7570157,"Lon":144.2793906},{"Country":"Australia","Town":"Bright VIC 3741","Date":"2019-09-20","Frequency":"Once only","Lat":-36.7321521,"Lon":146.9836221},{"Country":"Australia","Town":"Echuca VIC 3564","Date":"2019-09-20","Frequency":"Once only","Lat":-36.1459548,"Lon":144.7448007},{"Country":"Australia","Town":"Fish Creek VIC 3959","Date":"2019-09-20","Frequency":"Once only","Lat":-38.7043519,"Lon":146.087727},{"Country":"Australia","Town":"Geelong VIC 3220","Date":"2019-09-20","Frequency":"Once only","Lat":-38.1499181,"Lon":144.3617186},{"Country":"Australia","Town":"Mildura VIC 3500","Date":"2019-09-20","Frequency":"Once only","Lat":-34.2080167,"Lon":142.1245535},{"Country":"Australia","Town":"Olinda VIC 3788","Date":"2019-09-20","Frequency":"Once only","Lat":-37.85599,"Lon":145.364357},{"Country":"Australia","Town":"Sale VIC 3850","Date":"2019-09-20","Frequency":"Once only","Lat":-38.1026004,"Lon":147.073027},{"Country":"Australia","Town":"Traralgon VIC 3844","Date":"2019-09-20","Frequency":"Once only","Lat":-38.2033531,"Lon":146.519786},{"Country":"UK","Town":"London","Address":"Parliament Square","Time":"11.00-14.00","Date":"2019-09-20","Frequency":"weekly","Lat":51.5073509,"Lon":-0.1277583},{"Country":"Australia","Town":"Warrnambool VIC 3280","Date":"2019-09-20","Frequency":"Once only","Lat":-38.3686779,"Lon":142.4982086},{"Country":"Australia","Town":"Shepparton VIC 3630","Date":"2019-09-20","Frequency":"Once only","Lat":-36.383333,"Lon":145.4},{"Country":"Australia","Town":"Sydney NSW","Date":"2019-09-20","Frequency":"Once only","Lat":-33.8688197,"Lon":151.2092955},{"Country":"Australia","Town":"Armidale NSW 2350","Date":"2019-09-20","Frequency":"Once only","Lat":-30.5015616,"Lon":151.6661993},{"Country":"Australia","Town":"Bathurst NSW 2795","Date":"2019-09-20","Frequency":"Once only","Lat":-33.4192822,"Lon":149.5775008},{"Country":"Australia","Town":"Bega NSW 2550","Date":"2019-09-20","Frequency":"Once only","Lat":-36.6889097,"Lon":149.8416404},{"Country":"Australia","Town":"Blue Mountains, New South Wales","Date":"2019-09-20","Frequency":"Once only","Lat":-33.409983,"Lon":150.3037323},{"Country":"Australia","Town":"Bowral NSW 2576","Date":"2019-09-20","Frequency":"Once only","Lat":-34.479167,"Lon":150.418056},{"Country":"Australia","Town":"Bowraville NSW 2449","Date":"2019-09-20","Frequency":"Once only","Lat":-30.633333,"Lon":152.85},{"Country":"Australia","Town":"Byron Bay NSW 2481","Date":"2019-09-20","Frequency":"Once only","Lat":-28.6473671,"Lon":153.601977},{"Country":"Australia","Town":"Cessnock NSW 2325","Date":"2019-09-20","Frequency":"Once only","Lat":-32.8345098,"Lon":151.3624266},{"Country":"Australia","Town":"Coffs Harbour NSW 2450","Date":"2019-09-20","Frequency":"Once only","Lat":-30.298612,"Lon":153.1093922},{"Country":"Australia","Town":"Dubbo NSW 2830","Date":"2019-09-20","Frequency":"Once only","Lat":-32.2315018,"Lon":148.6329645},{"Country":"Australia","Town":"Eden NSW 2551","Date":"2019-09-20","Frequency":"Once only","Lat":-37.066667,"Lon":149.9},{"Country":"Australia","Town":"Forster NSW 2428","Date":"2019-09-20","Frequency":"Once only","Lat":-32.180556,"Lon":152.511667},{"Country":"Australia","Town":"Gosford NSW 2250","Date":"2019-09-20","Frequency":"Once only","Lat":-33.426667,"Lon":151.341667},{"Country":"Australia","Town":"Grafton NSW 2460","Date":"2019-09-20","Frequency":"Once only","Lat":-29.6816894,"Lon":152.9336547},{"Country":"Australia","Town":"Gulgong NSW 2852","Date":"2019-09-20","Frequency":"Once only","Lat":-32.35,"Lon":149.533333},{"Country":"Australia","Town":"Gunnedah NSW 2380","Date":"2019-09-20","Frequency":"Once only","Lat":-30.9922968,"Lon":150.2368919},{"Country":"Australia","Town":"Katoomba NSW 2780","Date":"2019-09-20","Frequency":"Once only","Lat":-33.7125,"Lon":150.311944},{"Country":"Australia","Town":"Kempsey NSW 2440","Date":"2019-09-20","Frequency":"Once only","Lat":-31.0604769,"Lon":152.8481977},{"Country":"Australia","Town":"Leeton NSW 2705","Date":"2019-09-20","Frequency":"Once only","Lat":-34.566667,"Lon":146.4},{"Country":"Australia","Town":"Lismore NSW 2480","Date":"2019-09-20","Frequency":"Once only","Lat":-28.8093154,"Lon":153.2882876},{"Country":"UK","Town":"Ullapool","Address":"Ullapool Primary School","Time":"11.00-14.00","Date":"2019-09-20","Frequency":"weekly","Lat":57.895418,"Lon":-5.161313},{"Country":"Australia","Town":"Mudgee NSW 2850","Date":"2019-09-20","Frequency":"Once only","Lat":-32.6144566,"Lon":149.5733291},{"Country":"Australia","Town":"Nambucca Heads NSW 2448","Date":"2019-09-20","Frequency":"Once only","Lat":-30.6419702,"Lon":152.9978834},{"Country":"Australia","Town":"Narooma NSW 2546","Date":"2019-09-20","Frequency":"Once only","Lat":-36.2419463,"Lon":150.1081935},{"Country":"Australia","Town":"Newcastle NSW","Date":"2019-09-20","Frequency":"Once only","Lat":-32.9282712,"Lon":151.7816802},{"Country":"Australia","Town":"Nowra NSW 2541","Date":"2019-09-20","Frequency":"Once only","Lat":-34.883333,"Lon":150.6},{"Country":"Australia","Town":"Orange NSW 2800","Date":"2019-09-20","Frequency":"Once only","Lat":-33.283333,"Lon":149.1},{"Country":"Australia","Town":"Pennant Hills NSW 2120","Date":"2019-09-20","Frequency":"Once only","Lat":-33.738881,"Lon":151.0723841},{"Country":"Australia","Town":"Port Macquarie NSW 2444","Date":"2019-09-20","Frequency":"Once only","Lat":-31.433333,"Lon":152.9},{"Country":"Australia","Town":"Moruya NSW 2537","Date":"2019-09-20","Frequency":"Once only","Lat":-35.9073095,"Lon":150.0928052},{"Country":"Australia","Town":"Pottsville NSW 2489","Date":"2019-09-20","Frequency":"Once only","Lat":-28.3877489,"Lon":153.5580894},{"Country":"Australia","Town":"Wollar NSW 2850","Date":"2019-09-20","Frequency":"Once only","Lat":-32.3425728,"Lon":149.9527765},{"Country":"Australia","Town":"Tamworth NSW 2340","Date":"2019-09-20","Frequency":"Once only","Lat":-31.092748,"Lon":150.9320334},{"Country":"Australia","Town":"Taree NSW 2430","Date":"2019-09-20","Frequency":"Once only","Lat":-31.8894897,"Lon":152.4444453},{"Country":"Australia","Town":"Tweed Heads NSW","Date":"2019-09-20","Frequency":"Once only","Lat":-28.1786656,"Lon":153.5370011},{"Country":"Australia","Town":"Ulladulla NSW 2539","Date":"2019-09-20","Frequency":"Once only","Lat":-35.3572426,"Lon":150.4613249},{"Country":"Australia","Town":"Wagga Wagga NSW 2650","Date":"2019-09-20","Frequency":"Once only","Lat":-35.1081689,"Lon":147.3598323},{"Country":"Australia","Town":"Wollongong NSW 2500","Date":"2019-09-20","Frequency":"Once only","Lat":-34.4278121,"Lon":150.8930607},{"Country":"Australia","Town":"Brisbane QLD","Date":"2019-09-20","Frequency":"Once only","Lat":-27.4697707,"Lon":153.0251235},{"Country":"Australia","Town":"Atherton QLD 4883","Date":"2019-09-20","Frequency":"Once only","Lat":-17.2660801,"Lon":145.4858599},{"Country":"Australia","Town":"Bundaberg Central QLD 4670","Date":"2019-09-20","Frequency":"Once only","Lat":-24.8669736,"Lon":152.3509714},{"Country":"Australia","Town":"Cairns QLD","Date":"2019-09-20","Frequency":"Once only","Lat":-16.9185514,"Lon":145.7780548},{"Country":"Australia","Town":"Gladstone Central QLD 4680","Date":"2019-09-20","Frequency":"Once only","Lat":-23.8415948,"Lon":151.2497708},{"Country":"Australia","Town":"Gold Coast QLD","Date":"2019-09-20","Frequency":"Once only","Lat":-28.016667,"Lon":153.4},{"Country":"Australia","Town":"Hervey Bay QLD 4655","Date":"2019-09-20","Frequency":"Once only","Lat":-25.2881539,"Lon":152.7676633},{"Country":"Australia","Town":"Mackay QLD 4740","Date":"2019-09-20","Frequency":"Once only","Lat":-21.1424956,"Lon":149.1821469},{"Country":"Australia","Town":"Mossman QLD 4873","Date":"2019-09-20","Frequency":"Once only","Lat":-16.45,"Lon":145.373333},{"Country":"Australia","Town":"Rockhampton QLD 4700","Date":"2019-09-20","Frequency":"Once only","Lat":-23.3790772,"Lon":150.510016},{"Country":"Australia","Town":"Sunshine Coast QLD","Date":"2019-09-20","Frequency":"Once only","Lat":-26.65,"Lon":153.066667},{"Country":"Australia","Town":"Toowoomba QLD","Date":"2019-09-20","Frequency":"Once only","Lat":-27.5598212,"Lon":151.9506696},{"Country":"Australia","Town":"Townsville QLD 4810","Date":"2019-09-20","Frequency":"Once only","Lat":-19.2589635,"Lon":146.8169483},{"Country":"Australia","Town":"Whitsunday Islands, Queensland","Date":"2019-09-20","Frequency":"Once only","Lat":-20.1862425,"Lon":148.7268546},{"Country":"Australia","Town":"Yeppoon QLD 4703","Date":"2019-09-20","Frequency":"Once only","Lat":-23.133333,"Lon":150.733333},{"Country":"Australia","Town":"Albany WA 6330","Date":"2019-09-20","Frequency":"Once only","Lat":-35.0269344,"Lon":117.8837206},{"Country":"Australia","Town":"Broome WA 6725","Date":"2019-09-20","Frequency":"Once only","Lat":-17.9644291,"Lon":122.2303657},{"Country":"Australia","Town":"Bunbury WA 6230","Date":"2019-09-20","Frequency":"Once only","Lat":-33.3209971,"Lon":115.6383482},{"Country":"Australia","Town":"Esperance WA 6450","Date":"2019-09-20","Frequency":"Once only","Lat":-33.8613103,"Lon":121.8914238},{"Country":"Australia","Town":"Geraldton WA 6530","Date":"2019-09-20","Frequency":"Once only","Lat":-28.7796535,"Lon":114.6144452},{"Country":"Australia","Town":"Margaret River WA 6285","Date":"2019-09-20","Frequency":"Once only","Lat":-33.9610465,"Lon":115.0767388},{"Country":"Australia","Town":"Nannup WA 6275","Date":"2019-09-20","Frequency":"Once only","Lat":-33.9821434,"Lon":115.7680471},{"Country":"Australia","Town":"Perth WA","Date":"2019-09-20","Frequency":"Once only","Lat":-31.9505269,"Lon":115.8604572},{"Country":"Australia","Town":"Vasse WA 6280","Date":"2019-09-20","Frequency":"Once only","Lat":-33.6741502,"Lon":115.2529009},{"Country":"Australia","Town":"Devonport TAS 7310","Date":"2019-09-20","Frequency":"Once only","Lat":-41.1770585,"Lon":146.3451775},{"Country":"Australia","Town":"Hobart TAS 7000","Date":"2019-09-20","Frequency":"Once only","Lat":-42.8821377,"Lon":147.3271949},{"Country":"Australia","Town":"Launceston TAS 7250","Date":"2019-09-20","Frequency":"Once only","Lat":-41.4332215,"Lon":147.1440875},{"Country":"Australia","Town":"Alice Springs NT 0870","Date":"2019-09-20","Frequency":"Once only","Lat":-23.698042,"Lon":133.8807471},{"Country":"Australia","Town":"Darwin NT","Date":"2019-09-20","Frequency":"Once only","Lat":-12.4634403,"Lon":130.8456418},{"Country":"Australia","Town":"Jabiru NT 0886","Date":"2019-09-20","Frequency":"Once only","Lat":-12.666667,"Lon":132.833333},{"Country":"Australia","Town":"Katherine NT 0850","Date":"2019-09-20","Frequency":"Once only","Lat":-14.4521139,"Lon":132.2715145},{"Country":"Australia","Town":"Naracoorte SA 5271","Date":"2019-09-20","Frequency":"Once only","Lat":-36.9602102,"Lon":140.7413243},{"Country":"Australia","Town":"Adelaide SA","Date":"2019-09-20","Frequency":"Once only","Lat":-34.9284989,"Lon":138.6007456},{"Country":"Australia","Town":"Canberra ACT 2601","Date":"2019-09-20","Frequency":"Once only","Lat":-35.2809368,"Lon":149.1300092},{"Country":"Australia","Town":"Clare SA 5453","Date":"2019-09-20","Frequency":"Once only","Lat":-33.8397986,"Lon":138.6127513},{"Country":"Australia","Town":"Port Lincoln SA 5606","Date":"2019-09-20","Frequency":"Once only","Lat":-34.7239963,"Lon":135.8611498},{"Country":"Australia","Address":"House-bound","Date":"2019-09-20","Frequency":"Once only","Lat":-25.274398,"Lon":133.775136},{"Country":"Australia","Town":"Springwood NSW 2777","Date":"2019-09-20","Frequency":"Once only","Lat":-33.7,"Lon":150.55},{"Country":"UK","Town":"Maidstone","Address":"County Hall, Maidstone, Kent","Time":"9:00","Date":"2019-09-20","Frequency":"Once only","Lat":51.270363,"Lon":0.522699},{"Country":"UK","Town":"Gloucester","Address":"92 Westgate St, Gloucester","Time":"11:00","Date":"2019-09-20","Frequency":"Once only","Lat":51.8642449,"Lon":-2.238156},{"Country":"UK","Town":"Faversham ME13","Address":"Whitstable Road, Faversham, Kent","Time":"9:30","Date":"2019-09-20","Frequency":"Once only","Lat":51.315994,"Lon":0.889358},{"Country":"UK","Town":"Stroud","Address":"Wallbridge Lock, Stroud. Thames and Severn Canal, Stroud, Gloucestershire","Time":"11:00","Date":"2019-09-20","Frequency":"Once only","Lat":51.745734,"Lon":-2.217758},{"Country":"UK","Town":"Loughton","Address":"Loughton","Time":"11:00","Date":"2019-09-20","Frequency":"Once only","Lat":51.655942,"Lon":0.068161},{"Country":"UK","Town":"Canterbury","Address":"27 St George's St","Time":"11:00","Date":"2019-09-20","Frequency":"Once only","Lat":51.280233,"Lon":1.0789089},{"Country":"UK","Town":"Alnwick NE66","Address":"Alnwick Climate Strike","Time":"9:00","Date":"2019-09-20","Frequency":"Once only","Lat":55.412744,"Lon":-1.706299},{"Country":"UK","Town":"Birmingham","Address":"Birmingham TBC","Time":"9:00","Date":"2019-09-20","Frequency":"Once only","Lat":52.486243,"Lon":-1.890401},{"Country":"UK","Town":"Liverpool","Address":"Liverpool TBC","Time":"9:00","Date":"2019-09-20","Frequency":"Once only","Lat":53.4083714,"Lon":-2.9915726},{"Country":"UK","Town":"Victoria Rd, Swindon SN1","Address":"Regent Circus, Victoria Rd, SN1 3DQ Swindon","Time":"12:30","Date":"2019-09-20","Frequency":"Once only","Lat":51.5556373,"Lon":-1.7780986},{"Country":"UK","Town":"Market Pl, Wells BA5 2RB","Address":"Wells town Hall, Wells Town Hall, Market Pl, Wells, Somerset","Time":"11:00","Date":"2019-09-20","Frequency":"Once only","Lat":51.2093265,"Lon":-2.6453165},{"Country":"UK","Town":"Londonderry","Address":"Guildhall Square, Londonderry, Northern Ireland","Time":"13:00","Date":"2019-09-20","Frequency":"Once only","Lat":54.9966124,"Lon":-7.3085748},{"Country":"UK","Town":"Cheltenham","Address":"Francis Close Hall, FCH Campus, GL50 4AZ Cheltenham, Gloucestershire","Time":"12:00","Date":"2019-09-20","Frequency":"Once only","Lat":51.8993855,"Lon":-2.0782533},{"Country":"UK","Town":"Bath","Address":"Guildhall, High Street, Bath, Somerset","Time":"11:00","Date":"2019-09-20","Frequency":"Once only","Lat":51.3810641,"Lon":-2.3590167},{"Country":"UK","Town":"Newcastle upon Tyne","Address":"UKSCN North East","Time":"11:00","Date":"2019-09-20","Frequency":"Once only","Lat":54.978252,"Lon":-1.61778},{"Country":"IM1","Address":"Tynwald","Time":"12:00","Date":"2019-09-20","Frequency":"Once only","Lat":54.1460985,"Lon":-4.4799283},{"Country":"UK","Town":"Belfast","Address":"Belfast City Hall, Donegall Square, Belfast","Time":"11:00","Date":"2019-09-20","Frequency":"Once only","Lat":54.597285,"Lon":-5.93012},{"Country":"UK","Town":"Salisbury","Address":"The Guildhall, Market Place, Salisbury","Time":"11:00","Date":"2019-09-20","Frequency":"Once only","Lat":51.068785,"Lon":-1.794472},{"Country":"UK","Town":"Crieff PH7","Address":"James Square, Crieff","Time":"10:00","Date":"2019-09-20","Frequency":"Once only","Lat":56.37655,"Lon":-3.841994},{"Country":"UK","Town":"Hull","Address":"Queen's Gardens, Hull, Kingston upon Hull","Time":"11:00","Date":"2019-09-20","Frequency":"Once only","Lat":53.7676236,"Lon":-0.3274198},{"Country":"UK","Town":"London","Address":"London TBC","Time":"9:00","Date":"2019-09-20","Frequency":"Once only","Lat":51.5073509,"Lon":-0.1277583},{"Country":"UK","Town":"Leicester","Address":"Leicester","Time":"12:00","Date":"2019-09-20","Frequency":"Once only","Lat":52.6368778,"Lon":-1.1397592},{"Country":"UK","Town":"Bournemouth","Address":"The Square, Bournemouth","Time":"11:00","Date":"2019-09-20","Frequency":"Once only","Lat":50.719164,"Lon":-1.880769},{"Country":"UK","Town":"Wrexham","Address":"Llwyn Isaf","Time":"12:00","Date":"2019-09-20","Frequency":"Once only","Lat":53.04304,"Lon":-2.992494},{"Country":"UK","Town":"Cambridge","Address":"Shire Hall Cambridge, Castle Hill","Time":"9:30","Date":"2019-09-20","Frequency":"Once only","Lat":52.205337,"Lon":0.121817},{"Country":"UK","Town":"Lancaster","Address":"Dalton Square","Time":"11:00","Date":"2019-09-20","Frequency":"Once only","Lat":54.046575,"Lon":-2.8007399},{"Country":"UK","Town":"Stevenage","Address":"Town Square","Time":"9:30","Date":"2019-09-20","Frequency":"Once only","Lat":51.903761,"Lon":-0.196612},{"Country":"UK","Town":"Guildford","Address":"High St.","Time":"11:00","Date":"2019-09-20","Frequency":"Once only","Lat":51.23622,"Lon":-0.570409},{"Country":"UK","Town":"Leeds","Address":"Millennium Square","Time":"11:00","Date":"2019-09-20","Frequency":"Once only","Lat":53.8007554,"Lon":-1.5490774},{"Country":"UK","Town":"Plymouth","Address":"Starbucks Entrance, SU5, Ground Floor","Time":"12:00","Date":"2019-09-20","Frequency":"Once only","Lat":50.3754565,"Lon":-4.1426565},{"Country":"UK","Town":"Durham","Address":"Market Pl","Time":"11:00","Date":"2019-09-20","Frequency":"Once only","Lat":54.77525,"Lon":-1.584852},{"Country":"UK","Town":"Tywyn","Address":"Council Office, High Street","Time":"8:30","Date":"2019-09-20","Frequency":"Once only","Lat":52.587006,"Lon":-4.087249},{"Country":"UK","Town":"Derby","Address":"Derby Council House, Corporation St","Time":"11:00","Date":"2019-09-20","Frequency":"Once only","Lat":52.9225301,"Lon":-1.4746186},{"Country":"UK","Town":"Peterborough","Address":"Cathedral Square, Peterborough","Time":"9:00","Date":"2019-09-20","Frequency":"Once only","Lat":52.5694985,"Lon":-0.2405299},{"Country":"UK","Town":"Coventry","Address":"Coventry City Council, Council House Earl Street","Time":"10:00","Date":"2019-09-20","Frequency":"Once only","Lat":52.406822,"Lon":-1.519693},{"Country":"UK","Town":"Bideford","Address":"The Quay","Time":"11:00","Date":"2019-09-20","Frequency":"Once only","Lat":51.016684,"Lon":-4.206666},{"Country":"UK","Town":"Nottingham","Address":"Old Market Square, Nottingham","Time":"11:00","Date":"2019-09-20","Frequency":"Once only","Lat":52.9547832,"Lon":-1.1581086},{"Country":"UK","Town":"Brighton","Address":"Churchill Square, Russell Pl","Time":"11:00","Date":"2019-09-20","Frequency":"Once only","Lat":50.82253,"Lon":-0.137163},{"Country":"UK","Town":"Swansea","Address":"Big Screen, Castle Square","Time":"11:30","Date":"2019-09-20","Frequency":"Once only","Lat":51.62144,"Lon":-3.943646},{"Country":"UK","Town":"Penzance","Address":"Top of Causeway Head","Time":"11:30","Date":"2019-09-20","Frequency":"Once only","Lat":50.118798,"Lon":-5.537592},{"Country":"UK","Town":"Oxford","Address":"Broad Street, Oxford","Time":"11:00","Date":"2019-09-20","Frequency":"Once only","Lat":51.7520209,"Lon":-1.2577263},{"Country":"UK","Town":"Barnstaple","Address":"North Devon Leisure Centre, Seven Brethren Bank, Barnstaple, Devon","Time":"10:00","Date":"2019-09-20","Frequency":"Once only","Lat":51.0781599,"Lon":-4.058338},{"Country":"UK","Town":"Eastbourne","Address":"NatWest, 96 Terminus Road","Time":"11:00","Date":"2019-09-20","Frequency":"Once only","Lat":50.768035,"Lon":0.290472},{"Country":"UK","Town":"Exeter","Address":"Northerhay Gardens, Northernhay Gate","Time":"11:00","Date":"2019-09-20","Frequency":"Once only","Lat":50.718412,"Lon":-3.533899},{"Country":"UK","Town":"Sunderland","Address":"Sunderland Civic Centre, Burdon Road","Time":"12:00","Date":"2019-09-20","Frequency":"Once only","Lat":54.906869,"Lon":-1.383801},{"Country":"UK","Town":"Broxbourne","Address":"Broxbourne","Time":"9:00","Date":"2019-09-20","Frequency":"Once only","Lat":51.743473,"Lon":-0.021151},{"Country":"UK","Town":"Sheffield","Address":"158 Decinshire Street","Time":"11:00","Date":"2019-09-20","Frequency":"Once only","Lat":53.381129,"Lon":-1.470085},{"Country":"UK","Town":"Edinburgh","Address":"The Meadows","Time":"11:00","Date":"2019-09-20","Frequency":"Once only","Lat":55.953252,"Lon":-3.188267},{"Country":"UK","Town":"Glasgow","Address":"6 Professors' Square","Time":"11:00","Date":"2019-09-20","Frequency":"Once only","Lat":55.864237,"Lon":-4.251806},{"Country":"UK","Town":"Abington St, Northampton NN1","Address":"BBC Radio Northampton, Abington St, NN1 2BH Northampton, Northamptonshire","Time":"12:00","Date":"2019-09-20","Frequency":"Once only","Lat":52.2387199,"Lon":-0.8921523},{"Country":"UK","Town":"Bristol","Address":"College Green","Time":"11:00","Date":"2019-09-20","Frequency":"Once only","Lat":51.454513,"Lon":-2.58791},{"Country":"UK","Town":"Oxford Rd, Manchester M13 9PL","Address":"Manchester TBC","Time":"9:00","Date":"2019-09-20","Frequency":"Once only","Lat":53.4668498,"Lon":-2.2338837},{"Country":"UK","Town":"Aberdeen","Address":"Broad St","Time":"11:00","Date":"2019-09-20","Frequency":"Once only","Lat":57.149717,"Lon":-2.094278},{"Country":"UK","Town":"Norwich","Address":"City Hall","Time":"11:00","Date":"2019-09-20","Frequency":"Once only","Lat":52.6308859,"Lon":1.297355},{"Country":"UK","Town":"Weston-super-Mare","Address":"Oxford Street","Time":"9:00","Date":"2019-09-20","Frequency":"Once only","Lat":51.347405,"Lon":-2.977255},{"Country":"UK","Town":"Chester","Address":"Chester Town Hall, Chester, Cheshire","Time":"11:00","Date":"2019-09-20","Frequency":"Once only","Lat":53.193392,"Lon":-2.893075},{"Country":"UK","Town":"St Albans","Address":"Saint Albans","Time":"9:00","Date":"2019-09-20","Frequency":"Once only","Lat":51.752725,"Lon":-0.339436},{"Country":"UK","Town":"Truro","Address":"Lemon Quay","Time":"10:30","Date":"2019-09-20","Frequency":"Once only","Lat":50.263195,"Lon":-5.051041},{"Country":"UK","Town":"North Tyneside District","Address":"Beverley Terrace","Time":"10:00","Date":"2019-09-20","Frequency":"Once only","Lat":55.0182399,"Lon":-1.4858436},{"Country":"UK","Town":"Hereford","Address":"Hereford 6th Form College, Folly Lane","Time":"11:15","Date":"2019-09-20","Frequency":"Once only","Lat":52.056398,"Lon":-2.715974},{"Country":"UK","Town":"Belper DE56","Address":"King Street","Time":"12:30","Date":"2019-09-20","Frequency":"Once only","Lat":53.0243899,"Lon":-1.477616},{"Country":"UK","Town":"Bude","Address":"Belle Vue","Time":"9:00","Date":"2019-09-20","Frequency":"Once only","Lat":50.826636,"Lon":-4.543678},{"Country":"UK","Town":"Cleethorpes","Address":"69 Queens Parade","Time":"17:00","Date":"2019-09-20","Frequency":"Once only","Lat":53.557378,"Lon":-0.029435},{"Country":"UK","Town":"Royal Wootton Bassett, Swindon","Address":"High Street","Time":"8:00","Date":"2019-09-20","Frequency":"Once only","Lat":51.541395,"Lon":-1.902318},{"Country":"UK","Town":"Newport PO30","Address":"High St","Time":"11:00","Date":"2019-09-20","Frequency":"Once only","Lat":50.700803,"Lon":-1.291633},{"Country":"UK","Town":"Scarborough","Address":"Falsgrave Junction with Seamer Road","Time":"11:30","Date":"2019-09-20","Frequency":"Once only","Lat":54.283113,"Lon":-0.399752},{"Country":"UK","Town":"Kidderminster","Address":"64 Birchfield Road","Time":"11:00","Date":"2019-09-20","Frequency":"Once only","Lat":52.388596,"Lon":-2.2496839},{"Country":"UK","Town":"Harrogate","Address":"Cenotaph","Time":"9:00","Date":"2019-09-20","Frequency":"Once only","Lat":53.99212,"Lon":-1.541812},{"Country":"UK","Town":"Carlisle","Address":"Market Street","Time":"11:00","Date":"2019-09-20","Frequency":"Once only","Lat":54.892473,"Lon":-2.932931},{"Country":"UK","Town":"Portsmouth","Address":"Guildhall Square","Time":"11:00","Date":"2019-09-20","Frequency":"Once only","Lat":50.8197675,"Lon":-1.0879769},{"Country":"UK","Town":"Southampton","Address":"Guildhall","Time":"11:00","Date":"2019-09-20","Frequency":"Once only","Lat":50.9097004,"Lon":-1.4043509},{"Country":"UK","Town":"Enniskillen BT74","Address":"The Diamond","Time":"11:00","Date":"2019-09-20","Frequency":"Once only","Lat":54.3438243,"Lon":-7.6315336},{"Country":"UK","Town":"Aberystwyth","Address":"Alexandra Road","Time":"11:30","Date":"2019-09-20","Frequency":"Once only","Lat":52.415303,"Lon":-4.08292},{"Country":"UK","Town":"Bedford","Address":"Bedford Central Library, Harpur Street, Bedford","Time":"11:00","Date":"2019-09-20","Frequency":"Once only","Lat":52.1386394,"Lon":-0.4667782},{"Country":"UK","Town":"Haverfordwest","Address":"Victoria Place","Time":"11:00","Date":"2019-09-20","Frequency":"Once only","Lat":51.800475,"Lon":-4.971319},{"Country":"UK","Town":"Stratford-upon-Avon CV37","Address":"Henley Street","Time":"11:00","Date":"2019-09-20","Frequency":"Once only","Lat":52.19173,"Lon":-1.708298},{"Country":"UK","Town":"Beaconsfield","Address":"Beaconsfield town hall","Time":"11:00","Date":"2019-09-20","Frequency":"Once only","Lat":51.602396,"Lon":-0.6442409},{"Country":"UK","Town":"Poole","Address":"Civic Centre, Poole","Time":"12:00","Date":"2019-09-20","Frequency":"Once only","Lat":50.71505,"Lon":-1.987248},{"Country":"UK","Town":"Fareham","Address":"West Street, Fareham","Time":"9:30","Date":"2019-09-20","Frequency":"Once only","Lat":50.8548464,"Lon":-1.1865868},{"Country":"UK","Town":"Taunton","Address":"High Street","Time":"11:00","Date":"2019-09-20","Frequency":"Once only","Lat":51.015344,"Lon":-3.106849},{"Country":"UK","Town":"Cardiff","Address":"King Edward VII Ave, Cardiff","Time":"11:00","Date":"2019-09-20","Frequency":"Once only","Lat":51.481581,"Lon":-3.17909},{"Country":"UK","Town":"Chesterfield","Address":"9 - 13 Market Place","Time":"12:00","Date":"2019-09-20","Frequency":"Once only","Lat":53.235048,"Lon":-1.421629},{"Country":"UK","Town":"Clacton-on-Sea","Address":"24/26 Pier Avenue","Time":"15:30","Date":"2019-09-20","Frequency":"Once only","Lat":51.789534,"Lon":1.153035},{"Country":"UK","Town":"Cockermouth CA13","Address":"Main Street","Time":"9:00","Date":"2019-09-20","Frequency":"Once only","Lat":54.663261,"Lon":-3.367985},{"Country":"UK","Town":"Conwy","Address":"Conwy Road, Colwyn Bay","Time":"10:00","Date":"2019-09-20","Frequency":"Once only","Lat":53.282872,"Lon":-3.82948},{"Country":"UK","Town":"Dundee","Address":"65 High Street","Time":"12:00","Date":"2019-09-20","Frequency":"Once only","Lat":56.462018,"Lon":-2.970721},{"Country":"UK","Town":"Elgin IV30","Address":"High Street","Time":"11:00","Date":"2019-09-20","Frequency":"Once only","Lat":57.649454,"Lon":-3.318485},{"Country":"UK","Town":"Fort William","Address":"Cameron Road","Time":"8:45","Date":"2019-09-20","Frequency":"Once only","Lat":56.819817,"Lon":-5.1052179},{"Country":"UK","Town":"Grantham","Address":"St. Peter's Hill","Time":"14:30","Date":"2019-09-20","Frequency":"Once only","Lat":52.912524,"Lon":-0.643582},{"Country":"UK","Town":"Hertford","Address":"Market Place","Time":"9:00","Date":"2019-09-20","Frequency":"Once only","Lat":51.795756,"Lon":-0.081157},{"Country":"UK","Town":"Inverness","Address":"11 Eastgate","Time":"12:00","Date":"2019-09-20","Frequency":"Once only","Lat":57.477773,"Lon":-4.224721},{"Country":"UK","Town":"Kendal LA9","Address":"9a Lowther Street","Time":"11:00","Date":"2019-09-20","Frequency":"Once only","Lat":54.328006,"Lon":-2.74629},{"Country":"UK","Town":"Royal Leamington Spa","Address":"Town Hall Parade","Time":"11:00","Date":"2019-09-20","Frequency":"Once only","Lat":52.2851905,"Lon":-1.5200789},{"Country":"UK","Town":"Lincoln","Address":"216 - 219 High Street","Time":"11:00","Date":"2019-09-20","Frequency":"Once only","Lat":53.230688,"Lon":-0.540579},{"Country":"UK","Town":"Liskeard PL14","Address":"The Parade","Time":"11:00","Date":"2019-09-20","Frequency":"Once only","Lat":50.45552,"Lon":-4.464719},{"Country":"UK","Town":"Matlock DE4","Address":"Snitterton Road","Time":"11:00","Date":"2019-09-20","Frequency":"Once only","Lat":53.137156,"Lon":-1.551774},{"Country":"UK","Town":"Chatham","Address":"High Street","Time":"16:00","Date":"2019-09-20","Frequency":"Once only","Lat":51.380952,"Lon":0.52213},{"Country":"UK","Town":"Middlesbrough","Address":"Centre Square","Time":"11:00","Date":"2019-09-20","Frequency":"Once only","Lat":54.574227,"Lon":-1.234956},{"Country":"UK","Town":"Nairn","Address":"High Street","Time":"11:00","Date":"2019-09-20","Frequency":"Once only","Lat":57.586422,"Lon":-3.8684751},{"Country":"UK","Town":"Isle of Portland, Portland","Address":"Queens Road","Time":"7:00","Date":"2019-09-20","Frequency":"Once only","Lat":50.5475363,"Lon":-2.4343209},{"Country":"UK","Town":"Portrush","Address":"West Strand Road","Time":"11:00","Date":"2019-09-20","Frequency":"Once only","Lat":55.2041945,"Lon":-6.6526708},{"Country":"UK","Town":"Preston","Address":"Fishergate","Time":"10:00","Date":"2019-09-20","Frequency":"Once only","Lat":53.763201,"Lon":-2.70309},{"Country":"UK","Town":"Rugby","Address":"Evreux Way","Time":"10:00","Date":"2019-09-20","Frequency":"Once only","Lat":52.370878,"Lon":-1.265032},{"Country":"UK","Town":"Skelmorlie","Address":"3 Toward View","Time":"11:00","Date":"2019-09-20","Frequency":"Once only","Lat":55.868522,"Lon":-4.88983},{"Country":"UK","Town":"Stafford","Address":"1 Stafford Place","Time":"10:00","Date":"2019-09-20","Frequency":"Once only","Lat":52.806693,"Lon":-2.12066},{"Country":"UK","Town":"Ulverston LA12","Address":"County Square","Time":"10:00","Date":"2019-09-20","Frequency":"Once only","Lat":54.195138,"Lon":-3.09267},{"Country":"UK","Town":"Winchester","Address":"9 The Cl","Time":"10:00","Date":"2019-09-20","Frequency":"Once only","Lat":51.059771,"Lon":-1.310142},{"Country":"UK","Town":"Worcester","Address":"College Street","Time":"11:00","Date":"2019-09-20","Frequency":"Once only","Lat":52.193636,"Lon":-2.221575},{"Country":"UK","Town":"Worthing","Address":"Chapel Road","Time":"11:00","Date":"2019-09-20","Frequency":"Once only","Lat":50.81787,"Lon":-0.372882},{"Country":"UK","Town":"York","Time":"11:30","Date":"2019-09-20","Frequency":"Once only","Lat":53.9599651,"Lon":-1.0872979},{"Country":"UK","Town":"Lydney","Address":"High Street","Time":"12:30","Date":"2019-09-20","Frequency":"Once only","Lat":51.72913,"Lon":-2.530504},{"Country":"UK","Town":"Northampton","Address":"Stratford road","Time":"8:30","Date":"2019-09-20","Frequency":"Once only","Lat":52.240477,"Lon":-0.902656},{"Country":"UK","Town":"Chichester","Address":"South Street","Time":"10:00","Date":"2019-09-20","Frequency":"Once only","Lat":50.83761,"Lon":-0.774936},{"Country":"UK","Town":"Kirkcudbright","Address":"Beaconsfield Place","Time":"11:30","Date":"2019-09-20","Frequency":"Once only","Lat":54.837569,"Lon":-4.04878},{"Country":"UK","Town":"Folkestone","Address":"1B Town Walk","Time":"12:30","Date":"2019-09-20","Frequency":"Once only","Lat":51.081397,"Lon":1.169456},{"Country":"UK","Town":"Livingston","Address":"Civic Centre","Time":"11:00","Date":"2019-09-20","Frequency":"Once only","Lat":55.900708,"Lon":-3.518068},{"Country":"UK","Town":"Whitby","Address":"Langborne Road","Time":"11:30","Date":"2019-09-20","Frequency":"Once only","Lat":54.486335,"Lon":-0.613347},{"Country":"UK","Town":"Pontypridd","Address":"Berw Road","Time":"10:30","Date":"2019-09-20","Frequency":"Once only","Lat":51.600774,"Lon":-3.342314},{"Country":"UK","Town":"Newbury","Address":"Market Place","Time":"11:30","Date":"2019-09-20","Frequency":"Once only","Lat":51.401409,"Lon":-1.3231139},{"Country":"UK","Town":"Yeovil","Address":"Middle Street","Time":"11:00","Date":"2019-09-20","Frequency":"Once only","Lat":50.942061,"Lon":-2.633308},{"Country":"UK","Town":"Tewkesbury GL20","Address":"Church Street","Time":"9:00","Date":"2019-09-20","Frequency":"Once only","Lat":51.992265,"Lon":-2.15796},{"Country":"UK","Town":"Ipswich","Address":"Cornhill","Time":"12:00","Date":"2019-09-20","Frequency":"Once only","Lat":52.056736,"Lon":1.14822},{"Country":"UK","Town":"Petersfield","Address":"The Square","Time":"11:00","Date":"2019-09-20","Frequency":"Once only","Lat":51.007591,"Lon":-0.93899},{"Country":"UK","Town":"Burnley","Address":"Princess Way","Time":"10:30","Date":"2019-09-20","Frequency":"Once only","Lat":53.7892877,"Lon":-2.2405035},{"Country":"UK","Town":"Newtown","Address":"Outside the council building, art gallery and gates into town","Time":"9:00","Date":"2019-09-20","Frequency":"Once only","Lat":52.512112,"Lon":-3.313106},{"Country":"UK","Town":"Grimsby","Address":"St James Square","Time":"12:30","Date":"2019-09-20","Frequency":"Once only","Lat":53.567471,"Lon":-0.080784},{"Country":"UK","Town":"Oban","Address":"3E Cawdor terrace","Time":"8:45","Date":"2019-09-20","Frequency":"Once only","Lat":56.415157,"Lon":-5.471047},{"Country":"UK","Town":"Henley-on-Thames RG9","Address":"Market Place","Time":"12:00","Date":"2019-09-20","Frequency":"Once only","Lat":51.535764,"Lon":-0.902894},{"Country":"UK","Town":"Shrewsbury","Address":"Shrewsbury Square","Time":"11:00","Date":"2019-09-20","Frequency":"Once only","Lat":52.7073029,"Lon":-2.7553268},{"Country":"UK","Town":"Sevenoaks","Address":"Sevenoaks","Time":"14:00","Date":"2019-09-20","Frequency":"Once only","Lat":51.27241,"Lon":0.190898},{"Country":"UK","Town":"Ullapool","Address":"Quay Street","Time":"8:30","Date":"2019-09-20","Frequency":"Once only","Lat":57.895418,"Lon":-5.161313},{"Country":"UK","Town":"Farnham","Address":"Weyside","Time":"9:30","Date":"2019-09-20","Frequency":"Once only","Lat":51.214321,"Lon":-0.798802},{"Country":"UK","Town":"Wolverhampton","Address":"Queen Square","Time":"16:00","Date":"2019-09-20","Frequency":"Once only","Lat":52.586973,"Lon":-2.12882},{"Country":"UK","Town":"Chelmsford","Address":"Tindal Square","Time":"12:00","Date":"2019-09-20","Frequency":"Once only","Lat":51.7355868,"Lon":0.4685497},{"Country":"UK","Town":"Maidenhead SL6","Address":"St Ives Rd","Time":"11:55","Date":"2019-09-20","Frequency":"Once only","Lat":51.522414,"Lon":-0.7219},{"Country":"UK","Town":"Horncastle LN9","Address":"Market Place","Time":"11:00","Date":"2019-09-20","Frequency":"Once only","Lat":53.207307,"Lon":-0.11245},{"Country":"UK","Town":"London","Address":"In front of townhall|In front of townhall|In front of townhall|Parliament Square","Time":"11-12|At 12.00-13.00 (noon to 1pm)|At 12.00-13.00 (noon to 1pm)|12:00-13:00","Date":"2019-09-20","Frequency":"Every Friday","Lat":51.5073509,"Lon":-0.1277583},{"Country":"Thailand","Address":"Climate Rally at Huntsville City Hall","Time":"10:00 Uhr","Date":"2019-09-26","Frequency":"Once only","Lat":15.870032,"Lon":100.992541},{"Country":"Norway","Town":"Oslo","Address":"Rådhuset|Eidsvolls plass","Time":"11:00-14:00|12:00-14:00","Date":"2019-09-20","Frequency":"Weekly","Lat":59.9138688,"Lon":10.7522454},{"Country":"USA","Town":"Whittier","Address":"Whittier Climate Strike","Date":"2019-09-21","Frequency":"Once only","Lat":33.9791793,"Lon":-118.032844},{"Country":"USA","Town":"La Jolla, San Diego","Address":"UCSD Climate Action March - SEPT 27","Date":"2019-09-27","Frequency":"Once only","Lat":32.8328112,"Lon":-117.2712717},{"Country":"USA","Town":"Ukiah","Address":"Ukiah Farmers Market","Date":"2019-09-21","Frequency":"Once only","Lat":39.1501709,"Lon":-123.2077831},{"Country":"USA","Town":"Walnut Creek","Address":"September 21 Community Climate Rally and Environmental Action Fair","Date":"2019-09-21","Frequency":"Once only","Lat":37.9100783,"Lon":-122.0651819},{"Country":"USA","Town":"San Francisco","Address":"San Francisco","Date":"2019-09-20","Frequency":"Once only","Lat":37.7749295,"Lon":-122.4194155},{"Country":"USA","Town":"Fort Collins","Address":"Fort Collins Climate Strike","Date":"2019-09-27","Frequency":"Once only","Lat":40.5852602,"Lon":-105.084423},{"Country":"USA","Address":"Washington State","Date":"2019-09-20","Frequency":"Once only","Lat":47.7510741,"Lon":-120.7401385},{"Country":"USA","Town":"Washington","Address":"Washington D.C.","Date":"2019-09-23","Frequency":"Once only","Lat":38.9071923,"Lon":-77.0368707},{"Country":"USA","Town":"Atlanta","Address":"Southeast Climate Strike & Rebellion","Date":"2019-09-27","Frequency":"Once only","Lat":33.7489954,"Lon":-84.3879824},{"Country":"USA","Town":"Savannah","Address":"Savannah Global Climate Strike","Date":"2019-09-21","Frequency":"Once only","Lat":32.0808989,"Lon":-81.091203},{"Country":"USA","Town":"Bettendorf","Address":"Global Strike for Climate, QC","Date":"2019-09-27","Frequency":"Once only","Lat":41.5262641,"Lon":-90.5072573},{"Country":"Colombia","Town":"Cra. 6 ## 26B-85, Bogotá, Cundinamarca","Address":"Plaza de Bolivar","Date":"2019-09-20","Frequency":"Weekly","Lat":4.6133379,"Lon":-74.0689959},{"Country":"USA","Town":"Greenville","Address":"Greenville NC Climate Strike","Date":"2019-09-22","Frequency":"Once only","Lat":34.8526176,"Lon":-82.3940104},{"Country":"USA","Town":"Lancaster","Address":"Awake for our Future","Date":"2019-09-27","Frequency":"Once only","Lat":40.0378755,"Lon":-76.3055144},{"Country":"USA","Town":"Knoxville","Address":"TN Valley Energy Democracy for the US","Date":"2019-09-27","Frequency":"Once only","Lat":35.9606384,"Lon":-83.9207392},{"Country":"USA","Town":"Dallas","Address":"Climate Change Walk through downtown Dallas","Date":"2019-09-23","Frequency":"Once only","Lat":32.7766642,"Lon":-96.7969879},{"Country":"USA","Town":"Salt Lake City","Address":"People's Energy Summit","Date":"2019-09-21","Frequency":"Once only","Lat":40.7607793,"Lon":-111.8910474},{"Country":"USA","Town":"Norfolk","Address":"Protect Your Mother","Date":"2019-09-24","Frequency":"Once only","Lat":36.8507689,"Lon":-76.2858726},{"Country":"USA","Town":"Roanoke","Address":"Climate Emergency: Tri-State Pipeline Strike","Date":"2019-09-23","Frequency":"Once only","Lat":37.2709704,"Lon":-79.9414266},{"Country":"USA","Town":"Lacey","Address":"Walk to Protect & Restore the Salish Sea- Lacey Stop","Date":"2019-09-23","Frequency":"Once only","Lat":47.0358969,"Lon":-122.8232553},{"Country":"USA","Town":"Richland","Address":"Climate Rally Tri-Cities","Date":"2019-09-23","Frequency":"Once only","Lat":46.28042,"Lon":-119.2751996},{"Country":"Colombia","Town":"Armenia, Quindio","Address":"Plaza de Bolivar","Date":"2019-09-20","Frequency":"Global","Lat":4.5350004,"Lon":-75.6756888},{"Country":"Denmark","Town":"Aalborg","Date":"2019-09-20","Frequency":"Once only","Lat":57.0488195,"Lon":9.921747},{"Country":"Denmark","Town":"Aarhus","Date":"2019-09-20","Frequency":"Once only","Lat":56.162939,"Lon":10.203921},{"Country":"Denmark","Town":"Esbjerg","Date":"2019-09-20","Frequency":"Once only","Lat":55.476466,"Lon":8.459405},{"Country":"Denmark","Town":"6100 Haderslev","Date":"2019-09-20","Frequency":"Once only","Lat":55.250072,"Lon":9.48911},{"Country":"Denmark","Town":"3400 Hillerød","Date":"2019-09-20","Frequency":"Once only","Lat":55.927909,"Lon":12.300806},{"Country":"Denmark","Town":"Copenhagen","Date":"2019-09-20","Frequency":"Once only","Lat":55.6760968,"Lon":12.5683372},{"Country":"Denmark","Town":"9240 Nibe","Date":"2019-09-20","Frequency":"Once only","Lat":56.982526,"Lon":9.63994},{"Country":"Denmark","Town":"Odense","Date":"2019-09-20","Frequency":"Once only","Lat":55.403756,"Lon":10.40237},{"Country":"Denmark","Town":"6760 Ribe","Date":"2019-09-20","Frequency":"Once only","Lat":55.326936,"Lon":8.774665},{"Country":"Denmark","Town":"4000 Roskilde","Date":"2019-09-20","Frequency":"Once only","Lat":55.64191,"Lon":12.087845},{"Country":"Denmark","Town":"3700 Ronne","Date":"2019-09-20","Frequency":"Once only","Lat":55.101017,"Lon":14.708329},{"Country":"Denmark","Town":"Denmark, Copenhagen University, Rolighedsvej 30, 1958 Frederiksberg","Date":"2019-09-20","Frequency":"Once only","Lat":55.683622,"Lon":12.544744},{"Country":"Denmark","Town":"8600 Silkeborg","Date":"2019-09-20","Frequency":"Once only","Lat":56.176362,"Lon":9.5549217},{"Country":"Denmark","Town":"8660 Skanderborg","Date":"2019-09-20","Frequency":"Once only","Lat":56.037247,"Lon":9.9297989},{"Country":"Denmark","Town":"5700 Svendborg","Date":"2019-09-20","Frequency":"Once only","Lat":55.067434,"Lon":10.607282},{"Country":"Denmark","Town":"Vejle","Date":"2019-09-20","Frequency":"Once only","Lat":55.7113112,"Lon":9.536354},{"Country":"Denmark","Town":"8800 Viborg","Date":"2019-09-20","Frequency":"Once only","Lat":56.452027,"Lon":9.3963471},{"Country":"Denmark","Town":"5500 Middelfart","Date":"2019-09-20","Frequency":"Once only","Lat":55.497204,"Lon":9.747172},{"Country":"Denmark","Town":"Aarhus","Date":"2019-09-27","Frequency":"Once only","Lat":56.162939,"Lon":10.203921},{"Country":"Denmark","Town":"Copenhagen","Date":"2019-09-27","Frequency":"Once only","Lat":55.6760968,"Lon":12.5683372},{"Country":"Denmark","Town":"Aalborg","Date":"2019-09-27","Frequency":"Once only","Lat":57.0488195,"Lon":9.921747},{"Country":"Denmark","Town":"4000 Roskilde","Date":"2019-09-27","Frequency":"Once only","Lat":55.64191,"Lon":12.087845},{"Country":"Denmark","Town":"5500 Middelfart","Date":"2019-09-27","Frequency":"Once only","Lat":55.497204,"Lon":9.747172},{"Country":"Denmark","Town":"Odense","Date":"2019-09-27","Frequency":"Once only","Lat":55.403756,"Lon":10.40237},{"Country":"Sweden","Town":"Stockholm","Address":"In front of townhall|Mynttorget |In front of townhall","Time":"16-17|8-15 (PFF 12-13)|Kl. 12.00-13.00","Date":"2019-09-20","Frequency":"Weekly","Lat":59.3293235,"Lon":18.0685808},{"Country":"Sweden","Town":"Linköping","Address":"In front of townhall","Time":"15-17","Date":"2019-09-20","Frequency":"Weekly","Lat":58.410807,"Lon":15.6213728},{"Country":"Germany","Town":"Düsseldorf","Address":"Landtag","Time":"Kl. 12.00-13.00","Date":"2019-09-20","Frequency":"Weekly","Lat":51.2277411,"Lon":6.7734556},{"Country":"USA","Town":"Arcata","Address":"Humboldt Arcata plaza","Time":"1-3:30pm","Date":"2019-09-20","Frequency":"Weekly","Lat":40.8665166,"Lon":-124.0828396},{"Country":"Turkey","Town":"Adıyaman, Adıyaman Merkez/Adıyaman Province","Address":"In front of townhall","Time":"Kl. 12.00-13.00","Date":"2019-09-20","Frequency":"Weekly","Lat":37.76365,"Lon":38.2772592},{"Country":"Uganda","Town":"Kampala","Address":"Bugolobi","Time":"Kl. 12.00-13.00","Date":"2019-09-22","Frequency":"Weekly","Lat":0.3475964,"Lon":32.5825197},{"Country":"Czechia","Town":"Prague","Address":"march thru city centre|Society here is not ready to strike, we need to build a community.","Time":"10-16|By collecting and sharing global know-how/tools.","Date":"2019-09-20","Frequency":"Weekly","Lat":50.0755381,"Lon":14.4378005},{"Country":"Germany","Town":"Stuttgart","Address":"In front of townhall","Time":"11.00-13.00","Date":"2019-09-20","Frequency":"Weekly","Lat":48.7758459,"Lon":9.1829321},{"Country":"Germany","Town":"Osnabrück","Address":"In front of townhall","Time":"08.00 - 14.00","Date":"2019-09-20","Frequency":"Weekly","Lat":52.2799112,"Lon":8.0471788},{"Country":"Sweden","Town":"Bollebygd","Address":"In front of townhall","Time":"Kl. 11:00-17:00","Date":"2019-09-20","Frequency":"Weekly","Lat":57.6689691,"Lon":12.5701433},{"Country":"UK","Town":"Fort William","Address":"On the footpath outside Lochaber High School","Time":"0845 - 0945","Date":"2019-09-20","Frequency":"Weekly","Lat":56.819817,"Lon":-5.1052179},{"Country":"Tanzania","Town":"Arusha","Address":"In front of townhall","Time":"Kl. 12.00-13.00","Date":"2019-09-26","Frequency":"Weekly","Lat":-3.3869254,"Lon":36.6829927},{"Country":"Germany","Town":"23795 Bad Segeberg","Address":"Marketplace , Bad Segeberg","Time":"8:30 - 12:00","Date":"2019-09-20","Frequency":"Weekly","Lat":53.9390528,"Lon":10.3053652},{"Country":"Sweden","Town":"Härnösand","Address":"In front of townhall","Time":"Kl. 12.00-13.00","Date":"2019-09-20","Frequency":"Weekly","Lat":62.6322698,"Lon":17.9408714},{"Country":"Sweden","Town":"Gislaved","Address":"In front of townhall","Time":"Torsdagar 14.30-15.30","Date":"2019-09-26","Frequency":"Weekly","Lat":57.2985,"Lon":13.54326},{"Country":"Italy","Town":"Milan, Metropolitan City of Milan","Address":"In front of townhall|In front of townhall","Time":"09.00-10.00|12:30-13:15","Date":"2019-09-20","Frequency":"Weekly","Lat":45.4642035,"Lon":9.189982},{"Country":"Sweden","Town":"Ånge","Address":"In front of townhall","Time":"Kl. 12.00-13.00","Date":"2019-09-20","Frequency":"Weekly","Lat":62.5228738,"Lon":15.6589419},{"Country":"Sweden","Town":"Ekerö Municipality","Address":"Ekerö Centrum & in front of town hall","Time":"16.00-17.30","Date":"2019-09-20","Frequency":"Weekly","Lat":59.359052,"Lon":17.6694942},{"Country":"Sweden","Town":"Kristianstad","Address":"In front of townhall","Time":"13.00-14.00","Date":"2019-09-20","Frequency":"Weekly","Lat":56.0293936,"Lon":14.1566779},{"Country":"Italy","Town":"Pisa, Province of Pisa","Address":"In front of townhall","Time":"9.00-11.00","Date":"2019-09-20","Frequency":"Weekly","Lat":43.7228386,"Lon":10.4016888},{"Country":"Canada","Town":"Vancouver, BC","Address":"Environment and Climate Change Canada Office, 401 Burrard Street, Vancouver, BC, V6C3S5","Time":"9am, Pacific Time","Date":"2019-09-20","Frequency":"Weekly","Lat":49.2827291,"Lon":-123.1207375},{"Country":"Sweden","Town":"Växjö","Address":"Växjö Kommunhus","Time":"15-16","Date":"2019-09-20","Frequency":"Weekly","Lat":56.8790044,"Lon":14.8058523},{"Country":"Sweden","Town":"Falkenberg","Address":"In front of townhall","Time":"16-17","Date":"2019-09-20","Frequency":"Weekly","Lat":56.9027333,"Lon":12.4888013},{"Country":"Finland","Town":"Jakobstad","Address":"invid rådhuset","Time":"15.00-16.00","Date":"2019-09-20","Frequency":"Weekly","Lat":63.6744036,"Lon":22.6966088},{"Country":"Finland","Town":"Salo","Address":"In front of townhall","Time":"10-12","Date":"2019-09-20","Frequency":"Weekly","Lat":60.3900183,"Lon":23.1171797},{"Country":"USA","Town":"New York","Address":"In front of the United Nations Headquarters at 1st Ave and 46th Street","Time":"varies - please contact directly","Date":"2019-09-20","Frequency":"Weekly","Lat":40.7127753,"Lon":-74.0059728},{"Country":"Sweden","Town":"Årsta, Enskede-Årsta-Vantör, Stockholm","Address":"In front of townhall","Time":"Kl. 12.00-13.00","Date":"2019-09-20","Frequency":"Weekly","Lat":59.2989205,"Lon":18.0508926},{"Country":"Sweden","Town":"Falun","Address":"In front of townhall","Time":"16.00-17.00","Date":"2019-09-20","Frequency":"Weekly","Lat":60.60646,"Lon":15.6355},{"Country":"USA","Town":"Pasadena","Address":"In front of townhall","Time":"8:15am local time","Date":"2019-09-20","Frequency":"Weekly","Lat":34.1477849,"Lon":-118.1445155},{"Country":"USA","Town":"Gettysburg","Address":"Gettysburg Square-York St. Crosswalk ","Time":"11AM-1PM","Date":"2019-09-20","Frequency":"Weekly","Lat":39.8309293,"Lon":-77.2310955},{"Country":"Italy","Town":"Turin, Metropolitan City of Turin","Address":"Turin, Piazza Castello","Time":"15:00-17:00","Date":"2019-09-20","Frequency":"Weekly","Lat":45.0703393,"Lon":7.686864},{"Country":"Sweden","Town":"Borås","Address":"In front of old townhall","Time":"Kl. 12.00-13.00","Date":"2019-09-20","Frequency":"Weekly","Lat":57.721035,"Lon":12.939819},{"Country":"Sweden","Town":"Mora","Address":"gågatan","Time":"16.00-17.00","Date":"2019-09-20","Frequency":"Weekly","Lat":61.004878,"Lon":14.537003},{"Country":"Finland","Town":"Tampere","Address":"In front of townhall","Time":"11-13","Date":"2019-09-20","Frequency":"Weekly","Lat":61.4977524,"Lon":23.7609535},{"Country":"Italy","Town":"Rome, Metropolitan City of Rome","Address":"In front of townhall|In front of Italian Parliament|In front of townhall|In front of Italian Parliament","Time":"At 12.00-13.00 (noon to 1pm)|14,30-15,30|Kl. 12.00-13.00|14,00-15,00","Date":"2019-09-20","Frequency":"Weekly","Lat":41.9027835,"Lon":12.4963655},{"Country":"UK","Town":"Ullapool","Address":"At the Primary School","Time":"08:45 - 09:45 GMT","Date":"2019-09-20","Frequency":"Weekly","Lat":57.895418,"Lon":-5.161313},{"Country":"Italy","Town":"22100 Como, Province of Como","Address":"Broletto Piazza Duomo","Time":"13:00-15:00","Date":"2019-09-21","Frequency":"Weekly","Lat":45.8080597,"Lon":9.0851765},{"Country":"Australia","Town":"Ocean Grove VIC 3226","Address":"In front of all electorate offices of the Australian Parliament","Time":"Any time  you are able","Date":"2019-09-20","Frequency":"Weekly","Lat":-38.25,"Lon":144.516667},{"Country":"Sweden","Town":"Trosa","Address":"Playground close to townhall","Time":"12.30 - 13.30","Date":"2019-09-20","Frequency":"Weekly","Lat":58.902655,"Lon":17.5494637},{"Country":"Sweden","Town":"Karlskrona","Address":"Klaipeda|Klaipedaplatsen ","Time":"Kl. 12.00-13.00|Kl. 12.00-13.00","Date":"2019-09-20","Frequency":"Weekly","Lat":56.161224,"Lon":15.5869001},{"Country":"New Zealand","Town":"Palmerston North","Address":"In the square, outside the Council Building","Time":"9am - 12noon","Date":"2019-09-23","Frequency":"Weekly","Lat":-40.3523065,"Lon":175.6082145},{"Country":"Australia","Town":"Geelong VIC 3220","Address":"Infront of representative of parliament","Time":"10-3","Date":"2019-09-20","Frequency":"Weekly","Lat":-38.1499181,"Lon":144.3617186},{"Country":"Turkey","Town":"Istanbul","Address":"Karaköy/Lycee Saint Benoit","Time":"14.40-15.30","Date":"2019-09-20","Frequency":"Weekly","Lat":41.0082376,"Lon":28.9783589},{"Country":"France","Town":"Paris","Address":"National Assembly (France)","Time":"All the day","Date":"2019-09-20","Frequency":"Weekly","Lat":48.856614,"Lon":2.3522219},{"Country":"Sweden","Town":"Helsingborg","Address":"In front of townhall","Time":"16.00-16.30","Date":"2019-09-24","Frequency":"Weekly","Lat":56.0464674,"Lon":12.6945121},{"Country":"Sweden","Town":"Landskrona","Address":"Rådhustorget","Time":"12.00-12.30","Date":"2019-09-20","Frequency":"Weekly","Lat":55.8703477,"Lon":12.8300802},{"Country":"Finland","Town":"Vaasa","Address":"In front of townhall","Time":"10-12","Date":"2019-09-20","Frequency":"Weekly","Lat":63.095089,"Lon":21.6164564},{"Country":"Ireland","Town":"Cork","Address":"In front of townhall","Time":"9:00-15:50","Date":"2019-09-20","Frequency":"Weekly","Lat":51.8985143,"Lon":-8.4756035},{"Country":"UK","Town":"Edinburgh","Address":"In front of Parliament","Time":"11-13","Date":"2019-09-20","Frequency":"Weekly","Lat":55.953252,"Lon":-3.188267},{"Country":"Sweden","Town":"Frescati Stockholm","Address":"Stockholm University (check exact location on facebook page)","Time":"Kl. 12.00-13.00","Date":"2019-09-20","Frequency":"Weekly","Lat":59.3657952,"Lon":18.0469621},{"Country":"France","Town":"38220 Vizille","Address":"Rally in the school and demonstration in front of the town hall","Time":"10am - 12am  13pm - 17pm","Date":"2019-09-20","Frequency":"Weekly","Lat":45.077318,"Lon":5.772412},{"Country":"Ireland","Town":"Dublin","Address":"In front of the Dàil (Irish parliament)","Time":"1pm - 2pm","Date":"2019-09-20","Frequency":"Weekly","Lat":53.3498053,"Lon":-6.2603097},{"Country":"USA","Town":"Orange","Address":"In front of townhall","Time":"07:30 - 10:30 AM","Date":"2019-09-20","Frequency":"Weekly","Lat":33.7879139,"Lon":-117.8531007},{"Country":"UK","Town":"London","Address":"In front of Westminster ","Time":"Kl. 12.00-13.00","Date":"2019-09-20","Frequency":"Weekly","Lat":51.5073509,"Lon":-0.1277583},{"Country":"Spain","Town":"Barcelona","Address":"In front of townhall","Time":"At 12.00-13.00 (noon to 1pm)","Date":"2019-09-24","Frequency":"Weekly","Lat":41.3850639,"Lon":2.1734035},{"Country":"Italy","Town":"Bari, Metropolitan City of Bari","Address":"Piazza Prefettura","Time":"At 12.00-13.00 (noon to 1pm)","Date":"2019-09-20","Frequency":"Every Friday","Lat":41.1171432,"Lon":16.8718715},{"Country":"Italy","Town":"Modena, Province of Modena","Address":"In front of townhall","Time":"At 14:30-15:30","Date":"2019-09-20","Frequency":"Weekly","Lat":44.647128,"Lon":10.9252269},{"Country":"Italy","Town":"33100 Udine, Province of Udine","Address":"school Tiepolo|Piazza Libertà |Piazza Libertà ","Time":"at 8.00-10.00|12:15-14:00|11:30-14:00","Date":"2019-09-20","Frequency":"Every Friday","Lat":46.0710668,"Lon":13.2345794},{"Country":"Italy","Town":"70029 Santeramo in Colle, Metropolitan City of Bari","Address":"In front of townhall","Time":"at 09,30 - 13,00","Date":"2019-09-20","Frequency":"Weekly","Lat":40.7918083,"Lon":16.7528602},{"Country":"Montenegro","Town":"Podgorica","Address":"In front of townhall","Time":"At 12.00-13.00 (noon to 1pm)","Date":"2019-09-22","Frequency":"Weekly","Lat":42.4304196,"Lon":19.2593642},{"Country":"Sweden","Town":"Kristianstad","Address":"In front of townhall","Time":"13.00-14.00","Date":"2019-09-20","Frequency":"Every Friday","Lat":56.0293936,"Lon":14.1566779},{"Country":"Sweden","Town":"Umeå","Address":"In front of townhall","Time":"11-14","Date":"2019-09-20","Frequency":"Every Friday","Lat":63.8258471,"Lon":20.2630354},{"Country":"USA","Town":"Eugene","Address":"Wayne Morse US Courthouse, 405 E. 8th Ave.","Time":"8 am - 5 pm","Date":"2019-09-20","Frequency":"Every Friday","Lat":44.0520691,"Lon":-123.0867536},{"Country":"France","Town":"40100 Dax","Address":"In front of townhall","Time":"08.00-18.00","Date":"2019-09-20","Frequency":"Every Friday","Lat":43.708608,"Lon":-1.051945},{"Country":"Canada","Town":"Belleville, ON","Address":"In front of townhall","Time":"08.00-11.00","Date":"2019-09-20","Frequency":"Every Friday","Lat":44.1627589,"Lon":-77.3832315},{"Country":"Norway","Town":"Gjerstad Municipality","Address":"municipalitihouse","Time":"15.30 - 16.30","Date":"2019-09-20","Frequency":"Every Friday","Lat":58.8801349,"Lon":9.0178169},{"Country":"Italy","Town":"Florence, Metropolitan City of Florence","Address":"In front of townhall","Time":"14-15","Date":"2019-09-20","Frequency":"Every Friday","Lat":43.7695604,"Lon":11.2558136},{"Country":"USA","Town":"Harahan","Address":"In front of townhall","Time":"2:00-6:00","Date":"2019-09-20","Frequency":"Every Friday","Lat":29.9404826,"Lon":-90.2031313},{"Country":"Italy","Town":"Parma, Province of Parma","Address":"In front of townhall","Time":"18.00 -19.00","Date":"2019-09-20","Frequency":"Every Friday","Lat":44.801485,"Lon":10.3279036},{"Country":"Italy","Town":"Trento, Province of Trento","Address":"Chini","Time":"At 12.00-13.00 (noon to 1pm)","Date":"2019-09-25","Frequency":"Weekly","Lat":46.0747793,"Lon":11.1217486},{"Country":"Italy","Town":"15033 Casale Monferrato, Province of Alessandria","Address":"In front of townhall","Time":"At 12.00-13.00 (noon to 1pm)","Date":"2019-09-25","Frequency":"Weekly","Lat":45.1316088,"Lon":8.450503},{"Country":"Germany","Town":"Böblingen","Address":"In front of townhall","Time":"At 12.00-13.00 (noon to 1pm)","Date":"2019-09-20","Frequency":"Weekly","Lat":48.6813312,"Lon":9.0088299},{"Country":"Germany","Town":"Berlin","Address":"In front of townhall|In front of townhall","Time":"from 10:00 to 12:00|At 12.00-13.00 (noon to 1pm)","Date":"2019-09-20","Frequency":"Every Friday","Lat":52.5200066,"Lon":13.404954},{"Country":"Germany","Town":"Hamburg","Address":"Rathaus|In front of townhall","Time":"8:00-11:00|8:00-11:00","Date":"2019-09-20","Frequency":"Every Friday","Lat":53.5510846,"Lon":9.9936819},{"Country":"Sweden","Town":"Borlänge","Address":"Utanför Turistbyrån i Borlänge centrum |Turistbyrån, Sveagatan 1, 784 33 Borlänge|Borälnge centrum","Time":"17.00-18.00|17:00-18:00|17.00--18.00","Date":"2019-09-20","Frequency":"Every Friday","Lat":60.484304,"Lon":15.433969},{"Country":"Canada","Town":"Langley, BC","Address":"In front of townhall","Time":"At 12.00-13.00 (noon to 1pm)","Date":"2019-09-20","Frequency":"Every Friday","Lat":49.1041779,"Lon":-122.6603519},{"Country":"Australia","Address":"in front of Politicians electoral office","Time":"10.00 - 15.00","Date":"2019-09-20","Frequency":"Every Friday","Lat":-25.274398,"Lon":133.775136},{"Country":"Ireland","Town":"Cork","Address":"In front of townhall","Time":"9:00-15:50","Date":"2019-09-20","Frequency":"Every Friday","Lat":51.8985143,"Lon":-8.4756035},{"Country":"Sweden","Town":"Trosa","Address":"Playground close to townhall","Time":"12.30-13.30","Date":"2019-09-20","Frequency":"Every Friday","Lat":58.902655,"Lon":17.5494637},{"Country":"USA","Town":"Boulder","Address":"Boulder Courthouse","Time":"12-3p MST ","Date":"2019-09-26","Frequency":"Weekly","Lat":40.0149856,"Lon":-105.2705456},{"Country":"Germany","Town":"Kassel","Address":"In front of townhall","Time":"In the one first and third Friday of the mounth at 11-13 am, the other Fridays at 3-5pm ","Date":"2019-09-20","Frequency":"Every Friday","Lat":51.3127114,"Lon":9.4797461},{"Country":"Italy","Town":"Turin, Metropolitan City of Turin","Address":"Piazza Castello","Time":"At 12.00-13.00 (noon to 1pm)","Date":"2019-09-20","Frequency":"Every Friday","Lat":45.0703393,"Lon":7.686864},{"Country":"Austria","Town":"Vienna","Address":"In front of Parliament","Time":"11:55-14:00","Date":"2019-09-20","Frequency":"Every Friday","Lat":48.2081743,"Lon":16.3738189},{"Country":"Sweden","Town":"Hudiksvall","Address":"In front of townhall","Time":"At 12.00-13.00 (noon to 1pm)","Date":"2019-09-20","Frequency":"Every Friday","Lat":61.7273909,"Lon":17.107401},{"Country":"Italy","Town":"22100 Como, Province of Como","Address":"In front of townhall|In front of townhall","Time":"8:00-13:00|08:00 - 13:00","Date":"2019-09-20","Frequency":"Every Friday","Lat":45.8080597,"Lon":9.0851765},{"Country":"USA","Address":"In front of townhall|Virtual ","Time":"At 12.00-13.00 (noon to 1pm)|At 12.00-13.00 (noon to 1pm)","Date":"2019-09-20","Frequency":"Every Friday","Lat":47.7510741,"Lon":-120.7401385},{"Country":"Italy","Town":"Perugia, Province of Perugia","Address":"Centro Storico Perugia","Time":"afternoon - evening (on 15/03 in the morning)","Date":"2019-09-20","Frequency":"Every Friday","Lat":43.1107168,"Lon":12.3908279},{"Country":"Finland","Town":"Oulu","Address":"In front of townhall","Time":"11.00-12.00","Date":"2019-09-20","Frequency":"Every Friday","Lat":65.0120888,"Lon":25.4650772},{"Country":"Italy","Town":"31033 Castelfranco Veneto, Province of Treviso","Address":"In front of townhall|From C6 to Piazza Giorgione ","Time":"At 12.00-13.00 (noon to 1pm)|At 8:00 ","Date":"2019-09-20","Frequency":"Every Friday","Lat":45.6716942,"Lon":11.9282388},{"Country":"Norway","Town":"Oslo","Address":"In front of the Parliament|In front of townhall","Time":"11.00-12.00|At 12.00-13.00 (noon to 1pm)","Date":"2019-09-20","Frequency":"Every Friday","Lat":59.9138688,"Lon":10.7522454},{"Country":"Sweden","Town":"Eskilstuna","Address":"In front of townhall","Time":"15-16","Date":"2019-09-20","Frequency":"Every Friday","Lat":59.3712486,"Lon":16.5098046},{"Country":"UK","Town":"Nottingham","Address":"In front of townhall","Time":"At 12.00-13.00 (noon to 1pm)","Date":"2019-09-24","Frequency":"Weekly","Lat":52.9547832,"Lon":-1.1581086},{"Country":"UK","Town":"Manchester","Address":"In front of townhall|Rear of Town Hall by the Peace Gardens","Time":"At 12.00-13.00 (noon to 1pm)|12-2pm","Date":"2019-09-20","Frequency":"Every Friday","Lat":53.4807593,"Lon":-2.2426305},{"Country":"Germany","Town":"Münster","Address":"In front of townhall","Time":"First Friday of the month: 10:00 big demonstration, other fridays: 14:00","Date":"2019-09-20","Frequency":"Every Friday","Lat":51.9606649,"Lon":7.6261347},{"Country":"Italy","Town":"33028 Tolmezzo, Province of Udine","Address":"In front of townhall","Time":"13.15-14.15","Date":"2019-09-20","Frequency":"Every Friday","Lat":46.403496,"Lon":13.0182123},{"Country":"Norway","Town":"Mandal Municipality","Address":"In front of townhall|In front of townhall|In front of townhall","Time":"At 12.00-13.00 (noon to 1pm)|14.30-15-30|14.00-15.00","Date":"2019-09-20","Frequency":"Every Friday","Lat":57.8806834,"Lon":7.4363914},{"Country":"Netherlands","Town":"Deventer","Address":"In front of townhall","Time":"At 09:00-10:00 AM","Date":"2019-09-20","Frequency":"Every Friday","Lat":52.2660751,"Lon":6.1552165},{"Country":"Sweden","Town":"Hörby","Address":"In front of townhall","Time":"12-12.30","Date":"2019-09-20","Frequency":"Every Friday","Lat":55.851716,"Lon":13.6619256},{"Country":"UK","Town":"Westcliff-on-Sea, Southend-on-Sea","Address":"In front of townhall","Time":"11:00 to 2:00","Date":"2019-09-20","Frequency":"Every Friday","Lat":51.535879,"Lon":0.696966},{"Country":"Norway","Town":"Bergen","Address":"Den blå steinen","Time":"12.00-14.00","Date":"2019-09-20","Frequency":"Every Friday","Lat":60.3912628,"Lon":5.3220544},{"Country":"Italy","Town":"72100 Brindisi, BR","Address":"Piazza Vittoria|Piazza Vittoria ","Time":"17.00 - 18.00|12:30-13,30","Date":"2019-09-20","Frequency":"Every Friday","Lat":40.6327278,"Lon":17.9417616},{"Country":"Sweden","Town":"Lund","Address":"In front of townhall","Time":"10-13","Date":"2019-09-20","Frequency":"Every Friday","Lat":55.7046601,"Lon":13.1910073},{"Country":"Italy","Town":"Brescia, Province of Brescia","Address":"In front of townhall","Time":"14:00-15:00","Date":"2019-09-21","Frequency":"Weekly","Lat":45.5415526,"Lon":10.2118019},{"Country":"Germany","Town":"Frankfurt","Address":"Jürgen Ponto Platz 1","Time":"11:00 - 12:00","Date":"2019-09-20","Frequency":"Every Friday","Lat":50.1109221,"Lon":8.6821267},{"Country":"Sweden","Town":"Täby","Address":"In front of townhall","Time":"12:10 - 13:00","Date":"2019-09-20","Frequency":"Every Friday","Lat":59.4419,"Lon":18.0703298},{"Country":"UK","Town":"Derby","Address":"In front of townhall","Time":"At 12.00-13.00 (noon to 1pm)","Date":"2019-09-20","Frequency":"Every Friday","Lat":52.9225301,"Lon":-1.4746186},{"Country":"Italy","Town":"33077 Sacile, Province of Pordenone","Address":"Viale Zancanaro 10","Time":19,"Date":"2019-09-20","Frequency":"Every Friday","Lat":45.9540534,"Lon":12.5089608},{"Country":"Sweden","Town":"Värnamo","Address":"In front of townhall","Time":"At 12.00-13.00 (noon to 1pm)","Date":"2019-09-20","Frequency":"Every Friday","Lat":57.1831605,"Lon":14.0478214},{"Country":"UK","Town":"Torfaen","Address":"In front of townhall","Time":"all day","Date":"2019-09-20","Frequency":"Weekly","Lat":51.7002253,"Lon":-3.0446015},{"Country":"Spain","Town":"Seville","Address":"In front of townhall","Time":"All work time","Date":"2019-09-20","Frequency":"Every Friday","Lat":37.3890924,"Lon":-5.9844589},{"Country":"France","Town":"Paris","Address":"20 rue de la nonette, 60500, Chantilly |Ministère de la transition écologique |Collège Lycée Montaigne Paris","Time":"8|At 12.00-13.00 (noon to 1pm)|At 12.00-13.00 (noon to 1pm)","Date":"2019-09-20","Frequency":"Every Friday","Lat":48.856614,"Lon":2.3522219},{"Country":"Spain","Town":"Girona","Address":"Generalitat Girona, Plaça Pompeu Fabra, 1.","Time":"At 12.30-14:00","Date":"2019-09-20","Frequency":"Every Friday","Lat":41.9794005,"Lon":2.8214264},{"Country":"Italy","Town":"Via Mario Giuntini, 13, 56023 Navacchio PI","Address":"via Mario Giuntini,57 - 56021  Cascina - Pisa","Time":"07:00 - 00,00","Date":"2019-09-20","Frequency":"Every Friday","Lat":43.685243,"Lon":10.486226},{"Country":"Sweden","Town":"Uppsala","Address":"Forumtorget","Time":"15.00-17.00","Date":"2019-09-20","Frequency":"Every Friday","Lat":59.8585638,"Lon":17.6389267},{"Country":"Finland","Town":"Helsinki","Address":"Mannerheimintie 30 , in front of parliament","Time":"9.00-12.00 (nine am to noon)","Date":"2019-09-20","Frequency":"Every Friday","Lat":60.1698557,"Lon":24.9383791},{"Country":"Spain","Town":"Barcelona","Address":"In front of townhall|In front of townhall","Time":"16:30|16.30-18.00","Date":"2019-09-20","Frequency":"Every Friday","Lat":41.3850639,"Lon":2.1734035},{"Country":"Austria","Town":"Innsbruck","Address":"Annasäule |Anna Säule","Time":"11-14|10:00-15:00","Date":"2019-09-20","Frequency":"Every Friday","Lat":47.2692124,"Lon":11.4041024},{"Country":"Sweden","Town":"Jönköping","Address":"In front of townhall","Time":"At 12.00-13.00 (noon to 1pm)","Date":"2019-09-20","Frequency":"Every Friday","Lat":57.7826137,"Lon":14.1617876},{"Country":"Italy","Town":"Genoa, Metropolitan City of Genoa","Address":"Piazza De Ferrari","Time":"17:00-18:00","Date":"2019-09-20","Frequency":"Every Friday","Lat":44.4056499,"Lon":8.946256},{"Country":"USA","Town":"St Paul","Address":"In front of townhall","Time":"At 12.00-13.00 (noon to 1pm)","Date":"2019-09-20","Frequency":"Every Friday","Lat":44.9537029,"Lon":-93.0899578},{"Country":"Norway","Town":"Oscars gate 57, 0258 Oslo","Address":"In front of townhall","Time":"At 12.00-13.00 (noon to 1pm)","Date":"2019-09-20","Frequency":"Every Friday","Lat":59.9194092,"Lon":10.7217383},{"Country":"Netherlands","Town":"Zeist","Address":"In front of townhall","Time":"0900-1000","Date":"2019-09-20","Frequency":"Every Friday","Lat":52.0906015,"Lon":5.2332526},{"Country":"Sweden","Town":"Malmö","Address":"In front of townhall","Time":"10.00-13.00","Date":"2019-09-20","Frequency":"Every Friday","Lat":55.604981,"Lon":13.003822},{"Country":"Spain","Town":"Girona","Address":"Generalitat de Catalunya at Girona","Time":"12.30 - 14.00","Date":"2019-09-20","Frequency":"Weekly","Lat":41.9794005,"Lon":2.8214264},{"Country":"Sweden","Town":"Örebro","Address":"In front of townhall","Time":"15.00 - 17.00","Date":"2019-09-20","Frequency":"Every Friday","Lat":59.2752626,"Lon":15.2134105},{"Country":"Spain","Town":"Madrid","Address":"Algete|In front of townhall|Frente al Congreso de los Diputados","Time":"At 12.00-13.00 (noon to 1pm)|At 12.00-13.00 (noon to 1pm)|At 12.00-13.00 (noon to 1pm)","Date":"2019-09-20","Frequency":"Every Friday","Lat":40.4167754,"Lon":-3.7037902},{"Country":"Lebanon","Town":"Beirut","Address":"In front of townhall","Time":"At 12.00-13.00 (noon to 1pm)","Date":"2019-09-20","Frequency":"Every Friday","Lat":33.8937913,"Lon":35.5017767},{"Country":"Sweden","Town":"Falköping","Address":"Utanför Resecentrum Falköping","Time":"16.00-17.00","Date":"2019-09-20","Frequency":"Every Friday","Lat":58.175029,"Lon":13.553217},{"Country":"Sweden","Town":"Luleå","Address":"In front of townhall","Time":"At 12.00-13.00 (noon to 1pm)","Date":"2019-09-20","Frequency":"Every Friday","Lat":65.584819,"Lon":22.1567026},{"Country":"Spain","Town":"Tarragona","Address":"In front of townhall","Time":"At 14.00-15.00","Date":"2019-09-20","Frequency":"Every Friday","Lat":41.1188827,"Lon":1.2444909},{"Country":"Germany","Town":"Dortmund","Address":"In front of townhall","Time":"10 - 12","Date":"2019-09-20","Frequency":"Weekly","Lat":51.5135872,"Lon":7.4652981},{"Country":"Ireland","Town":"Maynooth, Co. Kildare","Address":"Town Square","Time":"13:00 - 14:00","Date":"2019-09-20","Frequency":"Every Friday","Lat":53.3812896,"Lon":-6.5918499},{"Country":"Iceland","Town":"Reykjavík","Address":"In front of parliament (Austurvöllur)","Time":"At 12.00-13.00 (noon to 1pm)","Date":"2019-09-20","Frequency":"Every Friday","Lat":64.146582,"Lon":-21.9426354},{"Country":"Sweden","Town":"Järfälla Municipality","Address":"Vid fontänen på Riddarplatsen, Jakobsberg ","Time":"15.00-17.00","Date":"2019-09-20","Frequency":"Every Friday","Lat":59.4252654,"Lon":17.8238965},{"Country":"Sweden","Town":"Västerås","Address":"Torggatan, vid fontänen","Time":"At 15.00-17.00","Date":"2019-09-20","Frequency":"Every Friday","Lat":59.6099005,"Lon":16.5448092},{"Country":"Spain","Town":"O Porriño, Pontevedra","Address":" OUTSIDE SCHOOL","Time":"At 12.00-13.00 (noon to 1pm)","Date":"2019-09-20","Frequency":"Every Friday","Lat":42.1608459,"Lon":-8.6177291},{"Country":"Germany","Town":"Stuttgart","Address":"In front of townhall","Time":"At 12.00-13.00 (noon to 1pm)","Date":"2019-09-20","Frequency":"Every Friday","Lat":48.7758459,"Lon":9.1829321},{"Country":"Italy","Town":"Verona, VR","Address":"In front of townhall|In front of townhall","Time":"At 12.00-13.00 (noon to 1pm)|14","Date":"2019-09-20","Frequency":"Every Friday","Lat":45.4383842,"Lon":10.9916215},{"Country":"Sweden","Town":"Västervik","Address":"Spötorget","Time":"At 12.00-13.00 (noon to 1pm)","Date":"2019-09-20","Frequency":"Every Friday","Lat":57.7577156,"Lon":16.6369759},{"Country":"Bulgaria","Town":"Sofia","Address":"In front of townhall","Time":"At 12.00-13.00 (noon to 1pm)","Date":"2019-09-20","Frequency":"Every Friday","Lat":42.6977082,"Lon":23.3218675},{"Country":"USA","Town":"Pittsburgh","Address":"In front of townhall","Time":"At 12.00-13.00 (noon to 1pm)","Date":"2019-09-20","Frequency":"Every Friday","Lat":40.4406248,"Lon":-79.9958864},{"Country":"France","Town":"60000 Beauvais","Address":"In front of townhall","Time":"Toute la journée","Date":"2019-09-20","Frequency":"Every Friday","Lat":49.4295387,"Lon":2.0807123},{"Country":"Sweden","Town":"Mora","Address":"Gågatan (Kyrkogatan)","Time":"16.00-17.00","Date":"2019-09-20","Frequency":"Every Friday","Lat":61.004878,"Lon":14.537003},{"Country":"South Korea","Town":"Gimhae-si, Gyeongsangnam-do","Address":"In front of townhall","Time":"At 12.00-13.00 (noon to 1pm)","Date":"2019-09-20","Frequency":"Every Friday","Lat":35.2285451,"Lon":128.8893517},{"Country":"Sweden","Town":"Söderhamn","Address":"Gågatan/Tribunen|Gågatan/tribunen","Time":"11,00-13,00|11.00-13.00","Date":"2019-09-20","Frequency":"Every Friday","Lat":61.3055762,"Lon":17.0628102},{"Country":"USA","Town":"St Paul","Address":"State Capitol ","Time":"11:30am-1:30pm","Date":"2019-09-20","Frequency":"Weekly","Lat":44.9537029,"Lon":-93.0899578},{"Country":"Sweden","Town":"Karlsborg Municipality","Address":"In front of townhall","Time":"15-18","Date":"2019-09-20","Frequency":"Every Friday","Lat":58.5947122,"Lon":14.4080276},{"Country":"Peru","Town":"Lima","Address":"In front of townhall|In front of townhall","Time":"10:00 a.m.-2:00 p.m.|11.00-15.00","Date":"2019-09-20","Frequency":"Weekly","Lat":-12.0463731,"Lon":-77.042754},{"Country":"Germany","Town":"Kiel","Address":"Landtag Kiel, Düsternbrookerweg 70","Time":"8:30 - 11:30","Date":"2019-09-20","Frequency":"Every Friday","Lat":54.3232927,"Lon":10.1227651},{"Country":"Germany","Town":"Munich","Address":"Marienplatz","Time":"11:00 - 14:00","Date":"2019-09-20","Frequency":"Every Friday","Lat":48.1351253,"Lon":11.5819805},{"Country":"France","Town":"69700 Givors","Address":"In front of townhall","Time":"Toute la journée :) ","Date":"2019-09-20","Frequency":"Weekly","Lat":45.58329,"Lon":4.772829},{"Country":"Chile","Town":"Valparaíso, Valparaiso Region","Address":"Congress|In front of townhall","Time":"At 12.00-13.00 (noon to 1pm)|At 12.00-13.00 (noon to 1pm)","Date":"2019-09-20","Frequency":"Every Friday","Lat":-33.047238,"Lon":-71.6126885},{"Country":"Italy","Town":"10024 Moncalieri, Metropolitan City of Turin","Address":"In front of townhall","Time":"At 12.00-13.00 (noon to 1pm)","Date":"2019-09-20","Frequency":"Every Friday","Lat":44.9983525,"Lon":7.6802878},{"Country":"Sweden","Town":"Lysekil","Address":"In front of townhall","Time":"11:50-12:30","Date":"2019-09-20","Frequency":"Every Friday","Lat":58.275573,"Lon":11.435558},{"Country":"Sweden","Town":"Helsingborg","Address":"In front of townhall","Time":"16.00-16.30","Date":"2019-09-20","Frequency":"Every Friday","Lat":56.0464674,"Lon":12.6945121},{"Country":"Australia","Town":"Waurn Ponds VIC 3216","Address":"Sarah Henderson Member for Parliment’s office ","Time":"09:00-15:00","Date":"2019-09-20","Frequency":"Every Friday","Lat":-38.208813,"Lon":144.2709146},{"Country":"Spain","Town":"Bilbao, Biscay","Address":"In front of townhall","Time":"13:30","Date":"2019-09-20","Frequency":"Every Friday","Lat":43.2630126,"Lon":-2.9349852},{"Country":"Portugal","Town":"Lisbon","Address":"In front of townhall","Time":"At 12.00-13.00 (noon to 1pm)","Date":"2019-09-20","Frequency":"Every Friday","Lat":38.7222524,"Lon":-9.1393366},{"Country":"Italy","Town":"Naples, Metropolitan City of Naples","Address":"Piazza Municipio, in front of townhall","Time":"16:00 - 19:00","Date":"2019-09-20","Frequency":"Every Friday","Lat":40.8517983,"Lon":14.26812},{"Country":"Canada","Town":"Nanaimo, BC","Address":"In front of townhall","Time":"At 12.00-13.00 (noon to 1pm)","Date":"2019-09-20","Frequency":"Every Friday","Lat":49.1658836,"Lon":-123.9400648},{"Country":"Italy","Town":"27100 Pavia, Province of Pavia","Address":"In front of townhall","Time":"13.00-16.00","Date":"2019-09-20","Frequency":"Every Friday","Lat":45.1847248,"Lon":9.1582069},{"Country":"Chile","Town":"Calama, Antofagasta Region","Address":"In front of townhall","Time":"At 12.00-13.00 (noon to 1pm)","Date":"2019-09-20","Frequency":"Weekly","Lat":-22.4543923,"Lon":-68.9293819},{"Country":"Chile","Town":"Arica, Arica y Parinacota Region","Address":"In front of townhall","Time":"At 12.00-13.00 (noon to 1pm)","Date":"2019-09-20","Frequency":"Every Friday","Lat":-18.4782534,"Lon":-70.3125988},{"Country":"Chile","Town":"Valdivia, Los Ríos Region","Address":"In front of townhall","Time":"At 17.00-18.30","Date":"2019-09-20","Frequency":"Every Friday","Lat":-39.8195857,"Lon":-73.2452103},{"Country":"Chile","Town":"San Felipe de Aconcagua, Valparaiso Region","Address":"In front of townhall","Time":"At 18.00-19.00 ","Date":"2019-09-20","Frequency":"Every Friday","Lat":-32.7503912,"Lon":-70.9071236},{"Country":"Italy","Town":"Rimini, Province of Rimini","Address":"In front of townhall","Time":"At 12.00-13.00 (noon to 1pm)","Date":"2019-09-20","Frequency":"Weekly","Lat":44.0678288,"Lon":12.5695158},{"Country":"Sweden","Town":"Oskarshamn","Address":"Often more centrally in the town, sometimes at the townhall","Time":"At 12.00-13.00 (noon to 1pm)","Date":"2019-09-20","Frequency":"Every Friday","Lat":57.2656993,"Lon":16.4473984},{"Country":"Chile","Town":"Victoria, Araucania","Address":"In front of townhall","Time":"At 12.00-13.00 (noon to 1pm)","Date":"2019-09-20","Frequency":"Weekly","Lat":-38.2326538,"Lon":-72.3515084},{"Country":"USA","Town":"Jackson Heights, Queens","Address":"In front of City Hall at 10 AM ","Time":"10 AM- 1 PM","Date":"2019-09-20","Frequency":"Weekly","Lat":40.7556818,"Lon":-73.8830701},{"Country":"Italy","Town":"18100 Imperia, Province of Imperia","Address":"In front of townhall","Time":8.15,"Date":"2019-09-24","Frequency":"Weekly","Lat":43.8896857,"Lon":8.039517},{"Country":"Sweden","Town":"Lund","Address":"In front of townhall","Time":"16.00-17.00","Date":"2019-09-26","Frequency":"Weekly","Lat":55.7046601,"Lon":13.1910073},{"Country":"Paraguay","Town":"Asuncion","Address":"In front of townhall","Time":"15:30","Date":"2019-09-20","Frequency":"Every Friday","Lat":-25.2637399,"Lon":-57.575926},{"Country":"Italy","Town":"60019 Senigallia, Province of Ancona","Address":"In front of townhall","Time":"At 12.00-13.00 (noon to 1pm)","Date":"2019-09-20","Frequency":"Every Friday","Lat":43.7197926,"Lon":13.2152224},{"Country":"Sweden","Town":"Rättvik","Address":"In front of townhall","Time":"16.00-17.00","Date":"2019-09-20","Frequency":"Every Friday","Lat":60.889025,"Lon":15.1233731},{"Country":"Czechia","Town":"747 23 Bolatice","Address":"In front of townhall","Time":"At 12.00-13.00 (noon to 1pm)","Date":"2019-09-22","Frequency":"Weekly","Lat":49.9517194,"Lon":18.0835904},{"Country":"Spain","Town":"Castellón de la Plana, Castellón","Address":"In front of townhall","Time":"At 12.00-13.00 (noon to 1pm)","Date":"2019-09-20","Frequency":"Every Friday","Lat":39.9863563,"Lon":-0.0513246},{"Country":"Sweden","Town":"Höganäs","Address":"In front of townhall","Time":"15.00-1600","Date":"2019-09-20","Frequency":"Every Friday","Lat":56.2006388,"Lon":12.5553287},{"Country":"Germany","Town":"Magdeburg","Address":"Domplatz","Time":"15:30","Date":"2019-09-20","Frequency":"Every Friday","Lat":52.1205333,"Lon":11.6276237},{"Country":"Spain","Town":"48960 Galdakao, Bizkaia","Address":"In front of townhall","Time":"At 12.00-13.00 (noon to 1pm)","Date":"2019-09-20","Frequency":"Every Friday","Lat":43.2313783,"Lon":-2.8447524},{"Country":"Canada","Town":"Whitehorse, YT","Address":"In front of townhall","Time":"At 12.00-13.00 (noon to 1pm)","Date":"2019-09-20","Frequency":"Every Friday","Lat":60.7211871,"Lon":-135.0568448},{"Country":"Spain","Town":"19119 Escopete, Guadalajara","Address":"In front of townhall","Time":"At 12.00-13.00 (noon to 1pm)","Date":"2019-09-20","Frequency":"Every Friday","Lat":40.4155196,"Lon":-3.0072515},{"Country":"Malaysia","Town":"Kuala Lumpur, Federal Territory of Kuala Lumpur","Address":"In front of UTMKL","Time":"At 12.00-13.00 (noon to 1pm)","Date":"2019-09-20","Frequency":"Every Friday","Lat":3.139003,"Lon":101.686855},{"Country":"Chile","Town":"Santiago, Santiago Metropolitan Region","Address":"In front of townhall|In front of townhall","Time":"6 pm|18","Date":"2019-09-20","Frequency":"Every Friday","Lat":-33.4488897,"Lon":-70.6692655},{"Country":"Germany","Town":"Altdöbern","Address":"In front of townhall","Time":"At 12.00-13.00 (noon to 1pm)","Date":"2019-09-20","Frequency":"Every Friday","Lat":51.6499651,"Lon":14.0239559},{"Country":"Spain","Town":"Alicante","Address":"In front of townhall","Time":"At 12.00-13.00 (noon to 1pm)","Date":"2019-09-20","Frequency":"Weekly","Lat":38.3459963,"Lon":-0.4906855},{"Country":"USA","Town":"Salt Lake City","Address":"Utah State Capitol Building - East Entrance","Time":"At 12.00-13.00 (noon to 1pm)","Date":"2019-09-20","Frequency":"Every Friday","Lat":40.7607793,"Lon":-111.8910474},{"Country":"Italy","Town":"82100 Benevento, Province of Benevento","Address":"Piazza Risorgimento","Time":"09.00-13.00","Date":"2019-09-20","Frequency":"Every Friday","Lat":41.1297613,"Lon":14.7826208},{"Country":"Sweden","Town":"Karlstad","Address":"Stora Torget","Time":"11:55-15:00","Date":"2019-09-20","Frequency":"Every Friday","Lat":59.4021806,"Lon":13.5114978},{"Country":"Sweden","Town":"Tanumshede","Address":"In front of largest grocery store, ICA Hedemyrs, Tanumshede","Time":"At 15.00-17.00","Date":"2019-09-20","Frequency":"Every Friday","Lat":58.7239941,"Lon":11.3252391},{"Country":"India","Town":"Ambikapur","Address":"In front of townhall","Time":"At 12.00-13.00 (noon to 1pm)","Date":"2019-09-21","Frequency":"Weekly","Lat":23.1354921,"Lon":83.1817856},{"Country":"France","Town":"39100 Dole","Address":"In town","Time":"At 12.00-13.00 (noon to 1pm)","Date":"2019-09-20","Frequency":"Every Friday","Lat":47.09534,"Lon":5.49081},{"Country":"Norway","Town":"Haugesund","Address":"In front of townhall","Time":"11.00-13.00","Date":"2019-09-20","Frequency":"Weekly","Lat":59.413581,"Lon":5.2679869},{"Country":"Belgium","Town":"Brussels","Address":"Start strike & demonstration at Brussels North railway station","Time":"10:30 AM","Date":"2019-09-20","Frequency":"Weekly","Lat":50.8503463,"Lon":4.3517211},{"Country":"Nigeria","Town":"Lagos","Address":"In front of townhall","Time":"At 12.00-13.00 (noon to 1pm)","Date":"2019-09-20","Frequency":"Every Friday","Lat":6.5243793,"Lon":3.3792057},{"Country":"Italy","Town":"46100 Mantua, Province of Mantua","Address":"Piazza Sordello","Time":"10am to 12pm","Date":"2019-09-20","Frequency":"Weekly","Lat":45.1564168,"Lon":10.7913751},{"Country":"Sweden","Town":"Kramfors","Address":"In front of townhall","Time":"At 14.00-16.00","Date":"2019-09-20","Frequency":"Every Friday","Lat":62.9284332,"Lon":17.7862946},{"Country":"Sweden","Town":"Norrköping","Address":" Fleminggatan 9, 602 24 Norrköping","Time":"12.00 - 14.00 ","Date":"2019-09-20","Frequency":"Every Friday","Lat":58.587745,"Lon":16.192421},{"Country":"Chile","Town":"Osorno, Los Lagos Region","Address":"In front of townhall","Time":"At 12.00-13.00 (noon to 1pm)","Date":"2019-09-20","Frequency":"Every Friday","Lat":-40.5761897,"Lon":-73.1149469},{"Country":"Denmark","Town":"6400 Sønderborg","Address":"In front of townhall","Time":"09-14","Date":"2019-09-20","Frequency":"Every Friday","Lat":54.913811,"Lon":9.792178},{"Country":"Spain","Town":"Huesca","Address":"In front of townhall","Time":"At 12.00-13.00 (noon to 1pm)","Date":"2019-09-20","Frequency":"Every Friday","Lat":42.131845,"Lon":-0.4078058},{"Country":"Mexico","Town":"Guadalajara, Jalisco","Address":"In front of townhall","Time":"At 12.00-13.00 (noon to 1pm)","Date":"2019-09-20","Frequency":"Every Friday","Lat":20.6596988,"Lon":-103.3496092},{"Country":"Turkey","Town":"Istanbul","Address":"Bebek Park","Time":"At 12.00-13.00 (noon to 1pm)","Date":"2019-09-20","Frequency":"Every Friday","Lat":41.0082376,"Lon":28.9783589},{"Country":"France","Town":"Bordeaux","Address":"path through the city","Time":"10.30-17.00","Date":"2019-09-20","Frequency":"Every Friday","Lat":44.837789,"Lon":-0.57918},{"Country":"Sweden","Town":"Gävle","Address":"Rådhustorget vid gudinnan ","Time":"15-17","Date":"2019-09-20","Frequency":"Every Friday","Lat":60.6748796,"Lon":17.1412726},{"Country":"Sweden","Town":"Strängnäs","Address":"In front of townhall|In front of townhall","Time":"At 12.00-13.00 (noon to 1pm)|14-16","Date":"2019-09-20","Frequency":"Every Friday","Lat":59.3774523,"Lon":17.0321193},{"Country":"USA","Town":"Oklahoma City","Address":"6400 NW EXPRESSWAY ","Time":"At 12.00-13.00 (noon to 1pm)","Date":"2019-09-20","Frequency":"Every Friday","Lat":35.4675602,"Lon":-97.5164276},{"Country":"UK","Town":"Croydon","Address":"In front of townhall","Time":"8-9am","Date":"2019-09-20","Frequency":"Every Friday","Lat":51.376165,"Lon":-0.098234},{"Country":"Canada","Town":"London, ON","Address":"MPP Office Peter Fragiskatos 885 Adelaide St N, London, On","Time":"3:00 -5:00 pm","Date":"2019-09-20","Frequency":"Every Friday","Lat":42.9849233,"Lon":-81.2452768},{"Country":"Peru","Town":"Puno","Address":"In front of townhall","Time":"10:00 - 12:00","Date":"2019-09-20","Frequency":"Weekly","Lat":-15.8402218,"Lon":-70.0218805},{"Country":"Colombia","Town":"Pandi, Cundinamarca","Address":"In front of townhall","Time":"At 12.00-13.00 (noon to 1pm)","Date":"2019-09-20","Frequency":"Every Friday","Lat":4.19065,"Lon":-74.486751},{"Country":"Denmark","Town":"6950 Ringkobing","Address":"At Mys Hjemmeskole next to the Town Square","Time":"All friday, every friday as long as it takes","Date":"2019-09-20","Frequency":"Every Friday","Lat":56.088054,"Lon":8.2576329},{"Country":"India","Town":"Bengaluru","Address":"St. Anthony's Church, Munnekolala","Time":"17:50 - 18:30","Date":"2019-09-21","Frequency":"Weekly","Lat":12.9715987,"Lon":77.5945627},{"Country":"Spain","Town":"Las Palmas de Gran Canaria, Las Palmas","Address":"Las Palmas de Gran Canaria, calle Aguadulce número 2 ","Time":"14:00-16:00","Date":"2019-09-20","Frequency":"Every Friday","Lat":28.1235459,"Lon":-15.4362574},{"Country":"France","Town":"Lille","Address":"Grand Place de Lille","Time":14,"Date":"2019-09-20","Frequency":"Weekly","Lat":50.62925,"Lon":3.057256},{"Country":"France","Town":"St-Malo","Address":"In front of townhall","Time":10,"Date":"2019-09-20","Frequency":"Every Friday","Lat":48.649337,"Lon":-2.025674},{"Country":"Czechia","Town":"Ostrava","Address":"march thru the city","Time":"9AM","Date":"2019-09-20","Frequency":"Weekly","Lat":49.8209226,"Lon":18.2625243},{"Country":"Czechia","Town":"Liberec","Address":"march thru the city","Time":"8AM","Date":"2019-09-20","Frequency":"Weekly","Lat":50.76628,"Lon":15.0543387},{"Country":"Czechia","Town":"Ceske Budejovice","Address":"march thru the city","Time":"8AM","Date":"2019-09-20","Frequency":"Weekly","Lat":48.9756578,"Lon":14.480255},{"Country":"Czechia","Town":"Pilsen","Address":"march thru the city","Time":"8AM","Date":"2019-09-20","Frequency":"Weekly","Lat":49.7384314,"Lon":13.3736371},{"Country":"Czechia","Town":"Brno","Address":"march thru the city","Time":"9AM","Date":"2019-09-20","Frequency":"Weekly","Lat":49.1950602,"Lon":16.6068371},{"Country":"Czechia","Town":"Olomouc","Address":"march thru the city","Time":"8AM","Date":"2019-09-20","Frequency":"Weekly","Lat":49.593778,"Lon":17.2508787},{"Country":"Czechia","Town":"293 01 Mlada Boleslav","Address":"march thru the city","Time":"3PM","Date":"2019-09-20","Frequency":"Weekly","Lat":50.4134249,"Lon":14.908438},{"Country":"Czechia","Town":"Rakovnik","Address":"march thru the city","Time":"10AM","Date":"2019-09-20","Frequency":"Weekly","Lat":50.106123,"Lon":13.7396623},{"Country":"Belgium","Town":"Antwerp","Address":"Theaterplein","Time":"13-15","Date":"2019-09-26","Frequency":"Weekly","Lat":51.2194475,"Lon":4.4024643},{"Country":"France","Town":"33390 Blaye","Address":"In front of townhall","Time":"14h00","Date":"2019-09-20","Frequency":"Every Friday","Lat":45.126841,"Lon":-0.662941},{"Country":"France","Town":"Nantes","Address":"Place royale|In front of townhall","Time":"At 12.00-13.00 (noon to 1pm)|At 12.00-13.00 (noon to 1pm)","Date":"2019-09-20","Frequency":"Every Friday","Lat":47.218371,"Lon":-1.553621},{"Country":"Peru","Town":"Lima","Address":"In front of townhall","Time":"5pm","Date":"2019-09-20","Frequency":"Every Friday","Lat":-12.0463731,"Lon":-77.042754},{"Country":"Mauritania","Address":"In front of townhall","Time":"At 12.00-13.00 (noon to 1pm)","Date":"2019-09-20","Frequency":"Weekly","Lat":21.00789,"Lon":-10.940835},{"Country":"India","Town":"Mumbai","Address":"In front of townhall","Time":"At 12.00-13.00 (noon to 1pm)","Date":"2019-09-20","Frequency":"Every Friday","Lat":19.0759837,"Lon":72.8776559},