{
    "title":"FFF Github Global Map WFF",
    "generated":"2019-09-14 01:35",
    "encoding":"utf-8",
    "keys":["Country","Town","Address","Time","Date","Frequency","Lat","Lon"],
    "data":[{"Country":"Sweden","Town":"Alingsås","Address":"På rådhustrapporna vid Stora torget","Time":"17-18","Date":"2019-09-20","Frequency":"Weekly","Lat":57.9300205,"Lon":12.5362113},{"Country":"Sweden","Town":"Gothenburg","Address":"In front of townhall|Göteborg, Gustav Adolfs Torg. kl 15-17 kontakt Kerstin Hamberger","Time":"Kl. 12.00-13.00|15-17","Date":"2019-09-20","Frequency":"Weekly","Lat":57.70887,"Lon":11.97456},{"Country":"Sweden","Town":"Halmstad","Address":"Halmstad, Rädhuset. kl12-14, kontakt Suzanne Näckdal och Anne-Marie Bruno","Time":"12-14","Date":"2019-09-20","Frequency":"Weekly","Lat":56.6743748,"Lon":12.8577885},{"Country":"Sweden","Town":"Karlstad","Address":"Stora Torget Karlstad|Stora Torget |Stora Torget","Time":"12.00 - 15.00|12.00-15.00|12-15","Date":"2019-09-20","Frequency":"Weekly","Lat":59.4021806,"Lon":13.5114978},{"Country":"Sweden","Town":"Luleå","Address":"Luleå, stadshuset, kl12-13 kontakt Elsa Rensfeldt o Emma Westerberg","Time":"12-13","Date":"2019-09-20","Frequency":"Weekly","Lat":65.584819,"Lon":22.1567026},{"Country":"Sweden","Town":"Örebro","Address":"Örebro. kl 15.-17. Kontakt: @Klimatfredag Instagram","Time":"15-17","Date":"2019-09-20","Frequency":"Weekly","Lat":59.2752626,"Lon":15.2134105},{"Country":"Sweden","Town":"Östersund","Address":"In front of Rådhuset|ÖSTERSUND, Östersunds Rådhus, kl14-17 kontakt Joakim Karlsson o Lina Strömgren https://www.facebook.com/events/277411122918641/","Time":"14.00-17.00|14-17","Date":"2019-09-20","Frequency":"Weekly","Lat":63.1766832,"Lon":14.6360681},{"Country":"Sweden","Town":"Simrishamn","Address":"Simrishamn på fredag framför stadshuset 10.30-13.30","Time":"10.30-13.30","Date":"2019-09-20","Frequency":"Weekly","Lat":55.5573959,"Lon":14.3489651},{"Country":"Sweden","Town":"Skövde","Address":"Skövde, stadshuset, kl15-17, kontakt Maj-Lis Lindholm","Time":"15-17","Date":"2019-09-20","Frequency":"Weekly","Lat":58.3902782,"Lon":13.8461208},{"Country":"Sweden","Town":"Uppsala","Address":"Uppsala, Forumtorget. kl 15-17. Kontakt: Karin Holmstrand Jordensvänner, Klimatstudenterna - SLU","Time":"15-17","Date":"2019-09-20","Frequency":"Weekly","Lat":59.8585638,"Lon":17.6389267},{"Country":"Sweden","Town":"Västerås","Address":"Torggatan i centrum","Date":"2019-09-20","Frequency":"Weekly","Lat":59.6099005,"Lon":16.5448092},{"Country":"Sweden","Town":"Stockholm","Time":"kl8-13|kl8-13","Date":"2019-09-20","Frequency":"weekly","Lat":59.3293235,"Lon":18.0685808},{"Country":"Sweden","Town":"Växjö","Time":"kl15-16","Date":"2019-09-20","Frequency":"weekly","Lat":56.8790044,"Lon":14.8058523},{"Country":"Sweden","Town":"Vimmerby","Address":"VIMMERBY Contact: Ingvar Edlund o Laurent Mertz https://www.facebook.com/events/187531722140345/ https://www.facebook.com/groups/288419755103990/permalink/291860014759964/","Date":"2019-09-20","Frequency":"Weekly","Lat":57.6690339,"Lon":15.858857},{"Country":"Sweden","Town":"Visby","Address":"Östercentrum|Östercentrum|Visby Östercentrum|VISBY Ostercentrum kl11:30-14 kontakt Alfred Westh https://www.facebook.com/events/346676762763537/?ti=cl","Time":"16-17|17-18|17.00-18.00|11.30-14","Date":"2019-09-20","Frequency":"Weekly","Lat":57.6348,"Lon":18.29484},{"Country":"Germany","Town":"Aachen (NRW)","Address":"Elisenbrunnen","Time":"10:00 Uhr","Date":"2019-09-20","Frequency":"Once only","Lat":50.776351,"Lon":6.083862},{"Country":"Germany","Town":"Achim (NDS)","Address":"Rathaus","Time":"10:00 Uhr","Date":"2019-09-20","Frequency":"Once only","Lat":53.012139,"Lon":9.036208},{"Country":"Germany","Town":"Adelsdorf (BY)","Address":"Marktplatz","Time":"11:00 Uhr","Date":"2019-09-20","Frequency":"Once only","Lat":49.7097619,"Lon":10.8908195},{"Country":"Germany","Town":"Alsfeld (HE)","Address":"Marktplatz","Time":"14:00 Uhr","Date":"2019-09-20","Frequency":"Once only","Lat":50.7523545,"Lon":9.268355},{"Country":"Germany","Town":"Alzey (RLP)","Address":"Rossmarkt","Time":"10:00 Uhr","Date":"2019-09-20","Frequency":"Once only","Lat":49.7455695,"Lon":8.1150946},{"Country":"Germany","Town":"Amberg (BY)","Date":"2019-09-20","Frequency":"Once only","Lat":49.4454211,"Lon":11.858728},{"Country":"Germany","Town":"Anröchte (NRW)","Address":"Bürgerhausvorplatz","Time":"15:30 Uhr","Date":"2019-09-20","Frequency":"Once only","Lat":51.5597886,"Lon":8.3247323},{"Country":"Germany","Town":"Ansbach (BY)","Address":"Martin-Luther-Platz","Time":"13:00 Uhr","Date":"2019-09-20","Frequency":"Once only","Lat":49.3028611,"Lon":10.5722288},{"Country":"Germany","Town":"Aschaffenburg (BY)","Address":"Theaterplatz","Time":"12:00 Uhr","Date":"2019-09-20","Frequency":"Once only","Lat":49.9706701,"Lon":9.138485731},{"Country":"Germany","Town":"Aschersleben (ST)","Address":"Herrenbreite","Time":"13:00 Uhr","Date":"2019-09-20","Frequency":"Once only","Lat":51.7591297,"Lon":11.4619062},{"Country":"Germany","Town":"Augsburg (BY)","Address":"Rathausplatz","Time":"11:00 Uhr","Date":"2019-09-20","Frequency":"Once only","Lat":48.3668041,"Lon":10.8986971},{"Country":"Germany","Town":"Aurich (NDS)","Address":"Sparkassen-Arena","Time":"11:30 Uhr","Date":"2019-09-20","Frequency":"Once only","Lat":53.4695604,"Lon":7.4823808},{"Country":"Germany","Town":"Bad Berleburg (NRW)","Address":"Rathausplatz","Time":"17:00 Uhr","Date":"2019-09-20","Frequency":"Once only","Lat":51.0478493,"Lon":8.3917759},{"Country":"Germany","Town":"Bad Camberg (HE)","Address":"Marktplatz","Time":"17:00 Uhr","Date":"2019-09-20","Frequency":"Once only","Lat":50.299603,"Lon":8.2673122},{"Country":"Germany","Town":"Bad Grönenbach (BY)","Address":"Marktplatz","Time":"10:00 Uhr","Date":"2019-09-20","Frequency":"Once only","Lat":47.8774446,"Lon":10.2217265},{"Country":"Germany","Town":"Bad Kreuznach (RLP)","Address":".","Time":"11:30 Uhr","Date":"2019-09-20","Frequency":"Once only","Lat":49.8489566,"Lon":7.8628083},{"Country":"Germany","Town":"Bad Mergentheim(BW)","Address":"neues Rathaus","Time":"10:30 Uhr","Date":"2019-09-20","Frequency":"Once only","Lat":49.490532,"Lon":9.7730692},{"Country":"Germany","Town":"Bad Neustadt an der Saale(BY)","Address":"Bahnhof","Time":"09:45 Uhr","Date":"2019-09-20","Frequency":"Once only","Lat":50.32329335,"Lon":10.20086554},{"Country":"Germany","Town":"Bad Oldesloe (SH)","Address":"Vom Rathaus mit dem Fahrrad nach Bargteheide","Time":"8:30 Uhr","Date":"2019-09-20","Frequency":"Once only","Lat":53.8096562,"Lon":10.3733692},{"Country":"Germany","Town":"Bad Segeberg (SH)","Address":"Marktplatz","Time":"12:00 Uhr","Date":"2019-09-20","Frequency":"Once only","Lat":53.9366878,"Lon":10.3042377},{"Country":"Germany","Town":"Bad Tölz (BY)","Address":"Rathaus","Time":"11:00 Uhr","Date":"2019-09-20","Frequency":"Once only","Lat":47.7610641,"Lon":11.5582933},{"Country":"Germany","Town":"Bad-Homburg (Hochtaunuskreis) (HE)","Address":"Bahnhof","Time":"12:00 Uhr","Date":"2019-09-20","Frequency":"Once only","Lat":50.2373164,"Lon":8.568604363},{"Country":"Germany","Town":"Bamberg (BY)","Address":"Bahnhofsvorplatz","Time":"11:30 Uhr","Date":"2019-09-20","Frequency":"Once only","Lat":49.8926723,"Lon":10.8876149},{"Country":"Germany","Town":"Bargteheide (SH)","Address":"Bahnhof Bargteheide","Time":"10:30 Uhr","Date":"2019-09-20","Frequency":"Once only","Lat":53.7279671,"Lon":10.2618075},{"Country":"Germany","Town":"Bayreuth (BY)","Address":"Rathaus","Time":"10:00 Uhr","Date":"2019-09-20","Frequency":"Once only","Lat":49.9427202,"Lon":11.5763079},{"Country":"Germany","Town":"Bensheim (HE)","Address":"Rathaus","Time":"12:00 Uhr","Date":"2019-09-20","Frequency":"Once only","Lat":49.6810158,"Lon":8.6227577},{"Country":"Germany","Town":"Bergen auf Rügen (MVP)","Address":"Markt 2","Time":"10:00 Uhr","Date":"2019-09-20","Frequency":"Once only","Lat":0,"Lon":0},{"Country":"Germany","Town":"Bergisch Gladbach (NRW)","Address":"Marktplatz","Time":"10:00 Uhr","Date":"2019-09-20","Frequency":"Once only","Lat":50.9929303,"Lon":7.1277379},{"Country":"Germany","Town":"Berlin","Address":"Brandenburger Tor","Time":"12:00 Uhr","Date":"2019-09-20","Frequency":"Once only","Lat":52.5170365,"Lon":13.3888599},{"Country":"Germany","Town":"Bernau (BB)","Address":"Marktplatz","Time":"12:15 Uhr","Date":"2019-09-20","Frequency":"Once only","Lat":52.6826757,"Lon":13.58764685},{"Country":"Germany","Town":"Bernkastel-Kues (RLP)","Address":"Busparkplatz","Time":"13:15 Uhr","Date":"2019-09-20","Frequency":"Once only","Lat":49.9157398,"Lon":7.0708181},{"Country":"Germany","Town":"Bielefeld (NRW)","Address":"HBF","Time":"12:05 Uhr","Date":"2019-09-20","Frequency":"Once only","Lat":52.0191005,"Lon":8.531007},{"Country":"Germany","Town":"Bischofsheim (HE)","Address":"Seniorenpark","Time":"16:00 Uhr","Date":"2019-09-20","Frequency":"Once only","Lat":49.9895565,"Lon":8.3550358},{"Country":"Germany","Town":"Bitburg (RLP)","Address":"Am Spittel","Time":"9:00 Uhr","Date":"2019-09-20","Frequency":"Once only","Lat":49.9732762,"Lon":6.524947},{"Country":"Germany","Town":"Bochum (NRW)","Address":"Dr. Ruer Platz","Time":"11:45 Uhr","Date":"2019-09-20","Frequency":"Once only","Lat":51.4818111,"Lon":7.2196635},{"Country":"Germany","Town":"Bonn (NRW)","Address":"Hofgarten","Time":"11:00 Uhr","Date":"2019-09-20","Frequency":"Once only","Lat":50.735851,"Lon":7.10066},{"Country":"Germany","Town":"Borken (NRW)","Address":"Marktplatz","Time":"13:00 Uhr","Date":"2019-09-20","Frequency":"Once only","Lat":51.8443183,"Lon":6.8582247},{"Country":"Germany","Town":"Brandenburg an der Havel (BB)","Address":"Neustädtischer Markt","Time":"16:00 Uhr","Date":"2019-09-20","Frequency":"Once only","Lat":52.4108261,"Lon":12.5497933},{"Country":"Germany","Town":"Braunschweig (NDS)","Address":"Schlossplatz","Time":"10:00 Uhr","Date":"2019-09-20","Frequency":"Once only","Lat":52.2646577,"Lon":10.5236066},{"Country":"Germany","Town":"Bremen","Address":"Bahnhofsvorplatz","Time":"10:00 Uhr","Date":"2019-09-20","Frequency":"Once only","Lat":53.0758196,"Lon":8.8071646},{"Country":"Germany","Town":"Bremerhaven","Address":"Klimahaus","Time":"10:00 Uhr","Date":"2019-09-20","Frequency":"Once only","Lat":53.5522264,"Lon":8.5865509},{"Country":"Germany","Town":"Bremervörde (NDS)","Address":"Rathausmarkt","Time":"10:00 Uhr","Date":"2019-09-20","Frequency":"Once only","Lat":53.4850249,"Lon":9.1362085},{"Country":"Germany","Town":"Brueggen (NRW)","Address":"Rathaus","Time":"15:30 uhr","Date":"2019-09-20","Frequency":"Once only","Lat":51.2430813,"Lon":6.1812296},{"Country":"Germany","Town":"Buchholz in der Nordheide (NDS)","Address":"Vor der St. Pauluskirche","Time":"12:00 Uhr","Date":"2019-09-20","Frequency":"Once only","Lat":53.3333021,"Lon":9.8666653},{"Country":"Germany","Town":"Büdingen (HE)","Address":"Willi-Zinnkann-Halle - Eberhard-Bauner-Allee","Time":"12:00 Uhr","Date":"2019-09-20","Frequency":"Once only","Lat":50.291621,"Lon":9.144913994},{"Country":"Germany","Town":"Bünde (NRW)","Address":"Bünde Marktplatz","Time":"10:30 Uhr","Date":"2019-09-20","Frequency":"Once only","Lat":52.2003644,"Lon":8.5827558},{"Country":"Germany","Town":"Burghausen(BY)","Address":"Bahnhof","Time":"14:00 Uhr","Date":"2019-09-20","Frequency":"Once only","Lat":48.1689863,"Lon":12.8304816},{"Country":"Germany","Town":"Burgkunstadt (BY)","Address":"Lange Gasse","Time":"12:00 Uhr","Date":"2019-09-20","Frequency":"Once only","Lat":50.1428821,"Lon":11.2515508},{"Country":"Germany","Town":"21614 Buxtehude","Address":"Schafmarktplatz|Schafmarktplatz","Time":"10:00 - 13:00|10:00 Uhr","Date":"2019-09-20","Frequency":"Once only","Lat":53.4674857,"Lon":9.6915741},{"Country":"Germany","Town":"Calw (BW)","Address":"Marktplatz","Time":"11:00 Uhr","Date":"2019-09-20","Frequency":"Once only","Lat":48.7153344,"Lon":8.7381796},{"Country":"Germany","Town":"Castrop-Rauxel (NRW)","Address":"Marktplatz/Rathaus","Time":"13:00 Uhr","Date":"2019-09-20","Frequency":"Once only","Lat":51.5646195,"Lon":7.3106175},{"Country":"Germany","Town":"Celle (NDS)","Address":"Celle","Time":"11:30 Uhr","Date":"2019-09-20","Frequency":"Once only","Lat":52.624056,"Lon":10.081052},{"Country":"Germany","Town":"Chemnitz (SN)","Address":"Neumarkt","Time":"12:30 Uhr","Date":"2019-09-20","Frequency":"Once only","Lat":50.8322608,"Lon":12.9252977},{"Country":"Germany","Town":"Cloppenburg (NDS)","Address":"Bahnhof","Time":"10:00 Uhr","Date":"2019-09-20","Frequency":"Once only","Lat":52.8461339,"Lon":8.0438783},{"Country":"Germany","Town":"Coburg (BY)","Address":"Marktplatz","Time":"12:00 Uhr","Date":"2019-09-20","Frequency":"Once only","Lat":50.258112,"Lon":10.964463},{"Country":"Germany","Town":"Cuxhaven (SH)","Address":"Wochnmarktplatz","Time":"12:00 Uhr","Date":"2019-09-20","Frequency":"Once only","Lat":53.86878,"Lon":8.698286},{"Country":"Germany","Town":"Dachau (BY)","Address":"Start Dachau Bahnhof","Time":"10:30 Uhr","Date":"2019-09-20","Frequency":"Once only","Lat":48.2592477,"Lon":11.4354419},{"Country":"Germany","Town":"Darmstadt (HE)","Address":"Hauptbahnhof","Time":"12:00 Uhr","Date":"2019-09-20","Frequency":"Once only","Lat":49.872775,"Lon":8.651177},{"Country":"Germany","Town":"Datteln (NRW)","Address":"Neumarkt","Time":"12:00 Uhr","Date":"2019-09-20","Frequency":"Once only","Lat":51.6512192,"Lon":7.3393014},{"Country":"Germany","Town":"Deggendorf (BY)","Date":"2019-09-20","Frequency":"Once only","Lat":48.8333535,"Lon":12.96205},{"Country":"Germany","Town":"Delmenhorst (NDS)","Address":"Marktplatz","Time":"11:30 Uhr","Date":"2019-09-20","Frequency":"Once only","Lat":53.0528092,"Lon":8.6294626},{"Country":"Germany","Town":"Dessau-Roßlau (ST)","Date":"2019-09-20","Frequency":"Once only","Lat":51.8311104,"Lon":12.2429261},{"Country":"Germany","Town":"Detmold","Address":"In front of townhall| Marktplatz in Detmold,  Marktpl. 5, 32756 Detmold|Marktplatz","Time":"13:30|13.30 (1.30pm)|13:30 Uhr","Date":"2019-09-20","Frequency":"Once only","Lat":51.9384783,"Lon":8.8686381},{"Country":"Germany","Town":"Diepholz (NDS)","Address":"Schulzentrum Diepholz","Time":"10:00 Uhr","Date":"2019-09-20","Frequency":"Once only","Lat":52.6113677,"Lon":8.372661},{"Country":"Germany","Town":"Dillingen (BY)","Address":"Vor dem Stadtsaal","Time":"12:00 Uhr","Date":"2019-09-20","Frequency":"Once only","Lat":48.5812458,"Lon":10.4952243},{"Country":"Germany","Town":"Dingolfing (BY)","Address":"Caprimaparkplatz","Time":"13:15 Uhr","Date":"2019-09-20","Frequency":"Once only","Lat":48.6300801,"Lon":12.4977434},{"Country":"Germany","Town":"Dinkelsbühl (BY)","Address":"TSV-Parkplatz","Time":"13:00 Uhr","Date":"2019-09-20","Frequency":"Once only","Lat":49.0692306,"Lon":10.3223475},{"Country":"Germany","Town":"Dinslaken (NRW)","Address":"Rathaus","Time":"12:00 Uhr","Date":"2019-09-20","Frequency":"Once only","Lat":51.567365,"Lon":6.7382029},{"Country":"Germany","Town":"Donauwörth (BY)","Address":"Donaumeile","Time":"15:00 Uhr","Date":"2019-09-20","Frequency":"Once only","Lat":48.7180364,"Lon":10.7807299},{"Country":"Germany","Town":"Dorfen (BY)","Address":"Friedhofsparkplatz","Time":"10:00 Uhr","Date":"2019-09-20","Frequency":"Once only","Lat":48.2746357,"Lon":12.1530097},{"Country":"Germany","Town":"Dorsten (NRW)","Address":"Marktplatz","Time":"10:30 Uhr","Date":"2019-09-20","Frequency":"Once only","Lat":51.6604071,"Lon":6.9647431},{"Country":"Germany","Town":"Dortmund (NRW)","Address":"Friedensplatz","Time":"12:00 Uhr","Date":"2019-09-20","Frequency":"Once only","Lat":51.5142273,"Lon":7.4652789},{"Country":"Germany","Town":"Dresden (SN)","Address":"Hauptbahnhof & Alaunpark","Time":"11:55 Uhr","Date":"2019-09-20","Frequency":"Once only","Lat":51.0493286,"Lon":13.7381437},{"Country":"Germany","Town":"Duisburg (NRW)","Address":"Hauptbahnhof","Time":"12:30 Uhr","Date":"2019-09-20","Frequency":"Once only","Lat":51.434999,"Lon":6.759562},{"Country":"Germany","Town":"Dülmen (NRW)","Address":"Marktplatz","Time":"10:00 Uhr","Date":"2019-09-20","Frequency":"Once only","Lat":51.8283677,"Lon":7.2791406},{"Country":"Germany","Town":"Düren (NRW)","Address":"Vor dem Leopold-Hoesch Museum","Time":"10:00 Uhr","Date":"2019-09-20","Frequency":"Once only","Lat":50.8031684,"Lon":6.4820806},{"Country":"Germany","Town":"Düsseldorf (NRW)","Address":"Corneliusplatz","Time":"11:00 Uhr","Date":"2019-09-20","Frequency":"Once only","Lat":51.2254018,"Lon":6.7763137},{"Country":"Germany","Town":"Eberswalde (BB)","Address":"Bahnhof","Time":"13:30 Uhr","Date":"2019-09-20","Frequency":"Once only","Lat":52.8351496,"Lon":13.7997011},{"Country":"Germany","Town":"Eckernförde (SH)","Address":"Hafenspitze","Time":"9:00 Uhr","Date":"2019-09-20","Frequency":"Once only","Lat":54.4716456,"Lon":9.8374947},{"Country":"Germany","Town":"Edingen-Neckarhausen (BW)","Address":"Bürgermeister-Reinle-Platz","Time":"10:00 Uhr","Date":"2019-09-20","Frequency":"Once only","Lat":49.4571949,"Lon":8.6053654},{"Country":"Germany","Town":"Eggenfelden (BY)","Address":"Gymnasium","Time":"13:30 Uhr","Date":"2019-09-20","Frequency":"Once only","Lat":48.4031909,"Lon":12.7626208},{"Country":"Germany","Town":"Eichstätt (BY)","Address":"Marktplatz","Time":"11:00 Uhr","Date":"2019-09-20","Frequency":"Once only","Lat":48.8933417,"Lon":11.1838965},{"Country":"Germany","Town":"Einbeck (NDS)","Address":"Start am Marktplatz","Time":"11:30 Uhr","Date":"2019-09-20","Frequency":"Once only","Lat":51.8185067,"Lon":9.8678465},{"Country":"Germany","Town":"Elmshorn(SH)","Address":"St-Nikolai-Kirche","Time":"12:00 Uhr","Date":"2019-09-20","Frequency":"Once only","Lat":53.7532486,"Lon":9.6524559},{"Country":"Germany","Town":"Enger","Address":"Widukind-Gymnasium Enger","Time":"12:05 Uhr","Date":"2019-09-20","Frequency":"Once only","Lat":52.1394015,"Lon":8.5588818},{"Country":"Germany","Town":"Erfurt (TH)","Address":"Angerdreieck","Time":"12:00 Uhr","Date":"2019-09-20","Frequency":"Once only","Lat":50.9777974,"Lon":11.0287364},{"Country":"Germany","Town":"Erkelenz (NRW)","Address":"Cusanus Gymnasium","Time":"16:00 uhr","Date":"2019-09-20","Frequency":"Once only","Lat":51.080992,"Lon":6.3160684},{"Country":"Germany","Town":"Erlangen (BY)","Address":"Schlossplatz","Time":"11:00 Uhr","Date":"2019-09-20","Frequency":"Once only","Lat":49.5981187,"Lon":11.003645},{"Country":"Germany","Town":"Essen (NRW)","Address":"Burgplatz","Time":"10:00 Uhr","Date":"2019-09-20","Frequency":"Once only","Lat":51.457087,"Lon":7.011429},{"Country":"Germany","Town":"Esslingen (BW)","Address":"Marktplatz","Time":"9:00 Uhr","Date":"2019-09-20","Frequency":"Once only","Lat":48.7427584,"Lon":9.3071685},{"Country":"Germany","Town":"23701 Eutin","Address":"meet up at the water tower, march, program in front of townhall|Wasserturm > Demozug > Programm vorm Rathaus","Time":"10:30-14:00|10:30 Uhr","Date":"2019-09-20","Frequency":"Once only","Lat":54.1330282,"Lon":10.6095048},{"Country":"Germany","Town":"Feldkirchen-Westerham (BY)","Address":"Dorfplatz","Time":"13:00 Uhr und 18:00 Uhr","Date":"2019-09-20","Frequency":"Once only","Lat":47.9016078,"Lon":11.8396394},{"Country":"Germany","Town":"Feuchtwangen (BY)","Address":"Schulzentrum","Time":"13:15 Uhr","Date":"2019-09-20","Frequency":"Once only","Lat":49.1678603,"Lon":10.3313268},{"Country":"Germany","Town":"Filderstadt","Address":"Bahnhof Bernhausen","Time":"13:30 Uhr","Date":"2019-09-20","Frequency":"Once only","Lat":48.6616311,"Lon":9.2236805},{"Country":"Germany","Town":"Flensburg (SH)","Address":"Hafenspitze","Time":"10:00 Uhr","Date":"2019-09-20","Frequency":"Once only","Lat":54.7833021,"Lon":9.4333264},{"Country":"Germany","Town":"Forchheim (BY)","Address":"Le Perreux Park","Time":"12:00 Uhr","Date":"2019-09-20","Frequency":"Once only","Lat":49.7187128,"Lon":11.059642},{"Country":"Germany","Town":"Frankenthal (RLP)","Address":"Röntgenplatz","Time":"11:00 Uhr","Date":"2019-09-20","Frequency":"Once only","Lat":49.5445804,"Lon":8.3540061},{"Country":"Germany","Town":"Frankfurt am Main (HE)","Address":"Alte Oper","Time":"12:00 Uhr","Date":"2019-09-20","Frequency":"Once only","Lat":50.0989479,"Lon":8.6858546},{"Country":"Germany","Town":"Frankfurt am Main Architects 4 Future (HE)","Address":"Deutsches Architekturmuseum Auditorium","Time":"15:00 Uhr","Date":"2019-09-20","Frequency":"Once only","Lat":50.1050329,"Lon":8.6772338},{"Country":"Germany","Town":"Freiberg (SN)","Address":"Obermarkt","Time":"16:00 Uhr","Date":"2019-09-20","Frequency":"Once only","Lat":50.9169415,"Lon":13.3428889},{"Country":"Germany","Town":"Freiburg (BW)","Address":"Platz der alten Synagoge","Time":"10:00 Uhr","Date":"2019-09-20","Frequency":"Once only","Lat":47.9960901,"Lon":7.8494005},{"Country":"Germany","Town":"Freising (BY)","Date":"2019-09-20","Frequency":"Once only","Lat":48.4008273,"Lon":11.7439565},{"Country":"Germany","Town":"Friedberg (HE)","Address":"Bahnhofsvorplatz","Time":"11:30 Uhr","Date":"2019-09-20","Frequency":"Once only","Lat":50.335268,"Lon":8.753931},{"Country":"Germany","Town":"Friedrichshafen","Address":"Stadtbahnhof (Seeseite)","Time":"11:30 Uhr","Date":"2019-09-20","Frequency":"Once only","Lat":47.6505715,"Lon":9.4797531},{"Country":"Germany","Town":"Fulda (HE)","Address":"Gellingshalle","Time":"11:00 Uhr","Date":"2019-09-20","Frequency":"Once only","Lat":50.5521486,"Lon":9.676511},{"Country":"Germany","Town":"Fürth (BY)","Address":"Dreiherrenbrunnen","Time":"16:00 Uhr","Date":"2019-09-20","Frequency":"Once only","Lat":49.477263,"Lon":10.989616},{"Country":"Germany","Town":"Geldern (NRW)","Address":"Bahnhof Geldern","Time":"08:45 Uhr","Date":"2019-09-20","Frequency":"Once only","Lat":51.5169736,"Lon":6.3228189},{"Country":"Germany","Town":"Gelnhausen(HE)","Address":"Müllerwiese","Time":"11:00 Uhr","Date":"2019-09-20","Frequency":"Once only","Lat":50.2028622,"Lon":9.190486},{"Country":"Germany","Town":"Gelsenkirchen (NRW)","Address":"Heinrich König Platz","Time":"12:00 Uhr","Date":"2019-09-20","Frequency":"Once only","Lat":51.5110321,"Lon":7.0960124},{"Country":"Germany","Town":"Gera (TH)","Address":"Kuk","Time":"12:00 Uhr","Date":"2019-09-20","Frequency":"Once only","Lat":50.8772301,"Lon":12.0796208},{"Country":"Germany","Town":"Gerlingen (BW)","Address":"Rathausplatz","Time":"11:00 Uhr","Date":"2019-09-20","Frequency":"Once only","Lat":48.7983947,"Lon":9.0624386},{"Country":"Germany","Town":"Germering (BY)","Address":"Therese-Giehse-Platz","Time":"11:55 Uhr","Date":"2019-09-20","Frequency":"Once only","Lat":48.1340035,"Lon":11.3657306},{"Country":"Germany","Town":"Gerolstein (RLP)","Address":"Parkplatz am Heimatmuseum","Time":"07:30 Uhr","Date":"2019-09-20","Frequency":"Once only","Lat":50.2234404,"Lon":6.6618586},{"Country":"Germany","Town":"Gießen (HE)","Address":"Kirchplatz","Time":"11:00 Uhr","Date":"2019-09-20","Frequency":"Once only","Lat":50.5862066,"Lon":8.6742306},{"Country":"Germany","Town":"Gifhorn (NDS)","Address":"Schillerplatz","Time":"10:30 Uhr","Date":"2019-09-20","Frequency":"Once only","Lat":52.4827905,"Lon":10.5445691},{"Country":"Germany","Town":"Göppingen (BW)","Address":"Schillerplatz Göppingen","Time":"11:30 Uhr","Date":"2019-09-20","Frequency":"Once only","Lat":48.7031377,"Lon":9.6541116},{"Country":"Germany","Town":"Goslar (NDS)","Address":"Goslar Bahnhof","Time":"13:30 Uhr","Date":"2019-09-20","Frequency":"Once only","Lat":51.9059936,"Lon":10.4266284},{"Country":"Germany","Town":"Gotha (TH)","Address":"Unterer Hauptmarkt","Time":"12:00 Uhr","Date":"2019-09-20","Frequency":"Once only","Lat":50.9462725,"Lon":10.6945265},{"Country":"Germany","Town":"Göttingen (NDS)","Address":"Neues Rathaus","Time":"12:00 Uhr","Date":"2019-09-20","Frequency":"Once only","Lat":51.5327604,"Lon":9.9352051},{"Country":"Germany","Town":"Grafing bei München (BY)","Address":"Stadtpark","Time":"13:00 Uhr","Date":"2019-09-20","Frequency":"Once only","Lat":48.0502855,"Lon":11.9661337},{"Country":"Germany","Town":"Greifswald (MV)","Address":"Mühlentor","Time":"10:00 Uhr","Date":"2019-09-20","Frequency":"Once only","Lat":54.095791,"Lon":13.3815238},{"Country":"Germany","Town":"Greiz (TH)","Address":"Kirchplatz","Time":"14:00 Uhr","Date":"2019-09-20","Frequency":"Once only","Lat":50.6477963,"Lon":12.1734848},{"Country":"Germany","Town":"Groß-Bieberau (HE)","Address":"Großsporthalle Groß-Bieberau","Time":"9:15 Uhr","Date":"2019-09-20","Frequency":"Once only","Lat":49.7982384,"Lon":8.822842},{"Country":"Germany","Town":"Groß-Gerau (HE)","Address":"Marktplatz","Time":"11:00 Uhr","Date":"2019-09-20","Frequency":"Once only","Lat":49.9194456,"Lon":8.4852426},{"Country":"Germany","Town":"Günzburg(BY)","Address":"Marktplatz","Time":"13:00 Uhr","Date":"2019-09-20","Frequency":"Once only","Lat":48.4539028,"Lon":10.2785509},{"Country":"Germany","Town":"Gütersloh (NRW)","Address":"Vor dem Rathaus","Time":"12:00 Uhr","Date":"2019-09-20","Frequency":"Once only","Lat":51.9063997,"Lon":8.3782078},{"Country":"Germany","Town":"Haan (NRW)","Address":"Park Ville d Eu","Time":"12:00 Uhr","Date":"2019-09-20","Frequency":"Once only","Lat":51.1954956,"Lon":7.0085328},{"Country":"Germany","Town":"Hagen (NRW)","Address":"Johanniskirche","Time":"12:00 Uhr","Date":"2019-09-20","Frequency":"Once only","Lat":51.3582945,"Lon":7.473296},{"Country":"Germany","Town":"Halle (Saale) (ST)","Address":"Hallmarkt","Time":"12:00 Uhr","Date":"2019-09-20","Frequency":"Once only","Lat":51.48251,"Lon":11.9696},{"Country":"Germany","Town":"Halstenbek (SH)","Address":"Rathausplatz","Time":"14:00 Uhr","Date":"2019-09-20","Frequency":"Once only","Lat":53.6332984,"Lon":9.8499933},{"Country":"Germany","Town":"Hamburg","Address":"Jungfernstieg","Time":"12:00 Uhr","Date":"2019-09-20","Frequency":"Once only","Lat":53.550341,"Lon":10.000654},{"Country":"Germany","Town":"Hameln (NDS)","Date":"2019-09-20","Frequency":"Once only","Lat":52.1039941,"Lon":9.3561569},{"Country":"Germany","Town":"Hamm (NRW)","Address":"Beibder Stadtbücherei","Time":"10:00 Uhr","Date":"2019-09-20","Frequency":"Once only","Lat":51.6616271,"Lon":7.821683125},{"Country":"Germany","Town":"Hanau (HE)","Address":"Freiheitsplatz","Time":"13:00 Uhr","Date":"2019-09-20","Frequency":"Once only","Lat":50.1335542,"Lon":8.9168179},{"Country":"Germany","Town":"Hann. Münden (NDS)","Address":"Rathaus","Time":"16:00 Uhr","Date":"2019-09-20","Frequency":"Once only","Lat":51.4161908,"Lon":9.6550096},{"Country":"Germany","Town":"Hannover (NDS)","Address":"Unterschiedliche","Time":"12:30 Uhr","Date":"2019-09-20","Frequency":"Once only","Lat":52.3744779,"Lon":9.7385532},{"Country":"Germany","Town":"Haßfurt (BY)","Address":"Hauptstraße/Unteres Tor","Time":"11:30 Uhr","Date":"2019-09-20","Frequency":"Once only","Lat":50.0318698,"Lon":10.5065562},{"Country":"Germany","Town":"Heide (SH)","Address":"Marktplatz vor der St. Jürgen Kirche","Time":"13:00 Uhr","Date":"2019-09-20","Frequency":"Once only","Lat":54.1948456,"Lon":9.0929015},{"Country":"Germany","Town":"Heidelberg (BW)","Address":"Stadtbücherei","Time":"11:00 Uhr","Date":"2019-09-20","Frequency":"Once only","Lat":49.4093582,"Lon":8.694724},{"Country":"Germany","Town":"Heidenheim an der Brenz(BW)","Address":"Bahnhof","Time":"11:00 Uhr","Date":"2019-09-20","Frequency":"Once only","Lat":48.6767637,"Lon":10.152923},{"Country":"Germany","Town":"Heilbronn (BW)","Address":"Bollwerksturm","Time":"11:30 Uhr","Date":"2019-09-20","Frequency":"Once only","Lat":49.142291,"Lon":9.218655},{"Country":"Germany","Town":"Hemsbach an der Bergstraße (BW)","Address":"Parkplatz an Bahnhof","Time":"11:30 Uhr","Date":"2019-09-20","Frequency":"Once only","Lat":49.641772,"Lon":8.634476},{"Country":"Germany","Town":"Herne (NRW)","Address":"Europaplatz","Time":"10:00 Uhr","Date":"2019-09-20","Frequency":"Once only","Lat":51.5380394,"Lon":7.219985},{"Country":"Germany","Town":"Hildesheim (NDS)","Address":"Hauptbahnhof","Time":"14:00 Uhr","Date":"2019-09-20","Frequency":"Once only","Lat":52.1521636,"Lon":9.9513046},{"Country":"Germany","Town":"Hochneukirch (NRW)","Address":"Aussichtspunkt Garzweiler Nord","Time":"14:00 Uhr","Date":"2019-09-20","Frequency":"Once only","Lat":51.0878039,"Lon":6.463636582},{"Country":"Germany","Town":"Hockenheim (BW)","Address":"Gauß Gymnasium","Time":"13:00 Uhr","Date":"2019-09-20","Frequency":"Once only","Lat":49.3196046,"Lon":8.5499903},{"Country":"Germany","Town":"Holzminden (NDS)","Address":"Marktplatz","Time":"13:30 Uhr","Date":"2019-09-20","Frequency":"Once only","Lat":51.828835,"Lon":9.4466591},{"Country":"Germany","Town":"Husum (SH)","Date":"2019-09-20","Frequency":"Once only","Lat":54.4853638,"Lon":9.0538156},{"Country":"Germany","Town":"Idar-Oberstein (RLP)","Address":"Bahnhofsvorplatz","Time":"12:00 Uhr","Date":"2019-09-20","Frequency":"Once only","Lat":49.7106197,"Lon":7.313321},{"Country":"Germany","Town":"Idstein (HE)","Address":"Idsteiner Bahnhof","Time":"17:00 Uhr","Date":"2019-09-20","Frequency":"Once only","Lat":50.2212764,"Lon":8.269554},{"Country":"Germany","Town":"Ingelheim am Rhein (RLP)","Address":"Bahnhof","Time":"10:00 Uhr","Date":"2019-09-20","Frequency":"Once only","Lat":49.9752749,"Lon":8.0547274},{"Country":"Germany","Town":"Ingolstadt (BY)","Address":"Rathausplatz","Time":"13:00 Uhr","Date":"2019-09-20","Frequency":"Once only","Lat":48.7630165,"Lon":11.4250395},{"Country":"Germany","Town":"Iserlohn","Address":"Hemberg Parkplatz |Hemberg Parkplatz","Time":"10.00-13.00|10:00 Uhr","Date":"2019-09-20","Frequency":"Once only","Lat":51.3765096,"Lon":7.6960842},{"Country":"Germany","Town":"Isny (BW)","Address":"Rathaus isny","Time":"11:00 Uhr","Date":"2019-09-20","Frequency":"Once only","Lat":47.69168495,"Lon":10.03366921},{"Country":"Germany","Town":"Itzehoe (SH)","Address":"Zob","Time":"10:00 Uhr","Date":"2019-09-20","Frequency":"Once only","Lat":53.9250316,"Lon":9.5155854},{"Country":"Germany","Town":"Jena (TH)","Address":"Stadtkirche","Time":"14:00 Uhr","Date":"2019-09-20","Frequency":"Once only","Lat":50.9281717,"Lon":11.5879359},{"Country":"Germany","Town":"Jülich (NRW)","Address":"Schlossplatz Jülich","Time":"16:00 Uhr","Date":"2019-09-20","Frequency":"Once only","Lat":50.9220931,"Lon":6.3611015},{"Country":"Germany","Town":"Kaarst (NRW)","Address":"Neumarkt","Time":"12:00 Uhr","Date":"2019-09-20","Frequency":"Once only","Lat":51.226675,"Lon":6.6193924},{"Country":"Germany","Town":"Kaiserslautern (RLP)","Address":"Hauptbahnhof","Time":"11:30 Uhr","Date":"2019-09-20","Frequency":"Once only","Lat":49.4432174,"Lon":7.7689951},{"Country":"Germany","Town":"Kaltenkirchen (SH)","Date":"2019-09-20","Frequency":"Once only","Lat":53.8371714,"Lon":9.9614889},{"Country":"Germany","Town":"Karlsruhe (BW)","Address":"Friedrichsplatz","Time":"11:00 Uhr","Date":"2019-09-20","Frequency":"Once only","Lat":49.0068705,"Lon":8.4034195},{"Country":"Germany","Town":"Kassel (HE)","Address":"Hauptbahnhof","Time":"12:00 Uhr","Date":"2019-09-20","Frequency":"Once only","Lat":51.3076867,"Lon":9.4624705},{"Country":"Germany","Town":"Kaufungen (HE)","Address":"Brauplatz Oberkaufungen","Time":"10:30 Uhr","Date":"2019-09-20","Frequency":"Once only","Lat":51.2817974,"Lon":9.6185407},{"Country":"Germany","Town":"Kempen (NRW)","Address":"Gymnasium Thomaeum","Time":"11:30 Uhr","Date":"2019-09-20","Frequency":"Once only","Lat":51.0933769,"Lon":6.1005432},{"Country":"Germany","Town":"Kempten (BY)","Address":"Forum Allgäu","Time":"12:30 Uhr","Date":"2019-09-20","Frequency":"Once only","Lat":47.736061,"Lon":10.3452095},{"Country":"Germany","Town":"Kerpen (NRW)","Address":"Kerpen","Time":"16:30 Uhr","Date":"2019-09-20","Frequency":"Once only","Lat":50.8696345,"Lon":6.694734},{"Country":"Germany","Town":"Kiel (SH)","Address":"Rathausplatz","Time":"11:55 Uhr","Date":"2019-09-20","Frequency":"Once only","Lat":54.3227085,"Lon":10.135555},{"Country":"Germany","Town":"Kleve (NRW)","Address":"Parkplatz Ludwig-Jahn-Straße","Time":"10:15 Uhr","Date":"2019-09-20","Frequency":"Once only","Lat":51.7854839,"Lon":6.131367415},{"Country":"Germany","Town":"Koblenz (RLP)","Address":"Hauptbahnhof Reichensbergerplatz","Time":"11:55 Uhr","Date":"2019-09-20","Frequency":"Once only","Lat":50.3533278,"Lon":7.5943951},{"Country":"Germany","Town":"Köln (NRW)","Address":"Hans Böckler Platz DGB Haus","Time":"11:00 Uhr","Date":"2019-09-20","Frequency":"Once only","Lat":50.938361,"Lon":6.959974},{"Country":"Germany","Town":"Konstanz (BW)","Address":"Herosé","Time":"11:30 Uhr","Date":"2019-09-20","Frequency":"Once only","Lat":47.659216,"Lon":9.1750718},{"Country":"Germany","Town":"Krefeld (NRW)","Address":"Hauptbahnhof","Time":"12:00 Uhr","Date":"2019-09-20","Frequency":"Once only","Lat":51.3331205,"Lon":6.5623343},{"Country":"Germany","Town":"Kreis Pinneberg (SH)","Date":"2019-09-20","Frequency":"Once only","Lat":53.7278939,"Lon":9.6979598},{"Country":"Germany","Town":"Kulmbach (BY)","Address":"Marktplatz","Time":"11:30 Uhr","Date":"2019-09-20","Frequency":"Once only","Lat":50.1008448,"Lon":11.4479149},{"Country":"Germany","Town":"Künzelsau (BW)","Address":"Rathaus","Time":"12:00 Uhr","Date":"2019-09-20","Frequency":"Once only","Lat":49.2803765,"Lon":9.6901512},{"Country":"Germany","Town":"Landau (RLP)","Date":"2019-09-20","Frequency":"Once only","Lat":49.1982825,"Lon":8.1123441},{"Country":"Germany","Town":"Landau an der Isar(BY)","Address":"Volksfestplatz","Time":"13:00 Uhr","Date":"2019-09-20","Frequency":"Once only","Lat":48.6727908,"Lon":12.6941754},{"Country":"Germany","Town":"Landau in der Pfalz (RLP)","Address":"Stadtbibliothek","Time":"12:05 Uhr","Date":"2019-09-20","Frequency":"Once only","Lat":49.1982825,"Lon":8.1123441},{"Country":"Germany","Town":"Landsberg (BY)","Address":"Hauptplatz mit anschließendem Demozug","Time":"14:00 Uhr","Date":"2019-09-20","Frequency":"Once only","Lat":48.0514973,"Lon":10.8737728},{"Country":"Germany","Town":"Landshut (BY)","Address":"Rathaus","Time":"12:30 Uhr","Date":"2019-09-20","Frequency":"Once only","Lat":48.5457171,"Lon":12.2081029},{"Country":"Germany","Town":"Laupheim (BW)","Address":"Marktplatz","Time":"12:30 Uhr","Date":"2019-09-20","Frequency":"Once only","Lat":48.2305342,"Lon":9.8771587},{"Country":"Germany","Town":"Leer (NDS)","Address":"Mühlenplatz","Time":"13:30 Uhr","Date":"2019-09-20","Frequency":"Once only","Lat":53.2473626,"Lon":7.463146804},{"Country":"Germany","Town":"Lehrte (NDS)","Address":"Neues Zentrum","Time":"11:30 Uhr","Date":"2019-09-20","Frequency":"Once only","Lat":52.3749334,"Lon":9.9748557},{"Country":"Germany","Town":"Leipzig (SN)","Address":"Augustusplatz","Time":"15:00 Uhr","Date":"2019-09-20","Frequency":"Once only","Lat":51.3406321,"Lon":12.3747329},{"Country":"Germany","Town":"32657 Lemgo","Address":"In front of townhall|Marktplatz","Time":"13|12:30 Uhr","Date":"2019-09-20","Frequency":"Once only","Lat":52.0266732,"Lon":8.9018625},{"Country":"Germany","Town":"Leutkirch im Allgäu (BW)","Address":"Bahnhof und Marktplatz","Time":"11:00 Uhr","Date":"2019-09-20","Frequency":"Once only","Lat":47.81012285,"Lon":10.03551838},{"Country":"Germany","Town":"Leverkusen (NRW)","Address":"Rathausvorplatz","Time":"11:30 Uhr","Date":"2019-09-20","Frequency":"Once only","Lat":51.0324743,"Lon":6.9881194},{"Country":"Germany","Town":"Lindau (B) (BY)","Address":"Altes Rathaus","Time":"11:55 Uhr","Date":"2019-09-20","Frequency":"Once only","Lat":47.550753,"Lon":9.6926624},{"Country":"Germany","Town":"Lindenberg (BY)","Address":"Stadtplatz Lindenberg","Time":"12:30 Uhr","Date":"2019-09-20","Frequency":"Once only","Lat":47.6015641,"Lon":9.8863905},{"Country":"Germany","Town":"Lingen (NDS)","Address":"Bahnhof","Time":"8:00 Uhr","Date":"2019-09-20","Frequency":"Once only","Lat":52.5224659,"Lon":7.316584},{"Country":"Germany","Town":"Lippstadt (NRW)","Address":"Rathausplatz","Time":"11:55 Uhr","Date":"2019-09-20","Frequency":"Once only","Lat":51.6747074,"Lon":8.347194},{"Country":"Germany","Town":"Löhne (NRW)","Address":"Findeisenplatz","Time":"14:00 Uhr","Date":"2019-09-20","Frequency":"Once only","Lat":52.1990346,"Lon":8.7141587},{"Country":"Germany","Town":"Lohr am Main (BY)","Address":"Seewegparkplatz","Time":"15:00 Uhr","Date":"2019-09-20","Frequency":"Once only","Lat":49.9954978,"Lon":9.5733619},{"Country":"Germany","Town":"Lörrach (BW)","Address":"Lörrach","Time":"12:00 Uhr","Date":"2019-09-20","Frequency":"Once only","Lat":47.6120896,"Lon":7.6607218},{"Country":"Germany","Town":"Lübeck (SH)","Address":"MuK Vorplatz","Time":"11:15 Uhr","Date":"2019-09-20","Frequency":"Once only","Lat":53.866444,"Lon":10.684738},{"Country":"Germany","Town":"Luckenwalde (BB)","Address":"Kreishaus","Time":"10:00 Uhr","Date":"2019-09-20","Frequency":"Once only","Lat":52.0897398,"Lon":13.162872},{"Country":"Germany","Town":"Lüdenscheid (NRW)","Address":"Sternplatz","Time":"10:00 Uhr","Date":"2019-09-20","Frequency":"Once only","Lat":51.218116,"Lon":7.6395513},{"Country":"Germany","Town":"Ludwigsburg (BW)","Address":"ZOB","Time":"12:00 Uhr","Date":"2019-09-20","Frequency":"Once only","Lat":48.8953937,"Lon":9.1895147},{"Country":"Germany","Town":"Ludwigsfelde (BB)","Address":"Bhf. Ludwigsfelde","Time":"10:30 Uhr","Date":"2019-09-20","Frequency":"Once only","Lat":52.3016096,"Lon":13.2610163},{"Country":"Germany","Town":"Lüneburg (NDS)","Address":"Marktplatz","Time":"12:00 Uhr","Date":"2019-09-20","Frequency":"Once only","Lat":53.248706,"Lon":10.407855},{"Country":"Germany","Town":"Lünen (NRW)","Address":"Europaplatz","Time":"12:00 Uhr","Date":"2019-09-20","Frequency":"Once only","Lat":51.6142482,"Lon":7.5228088},{"Country":"Germany","Town":"Magdeburg (ST)","Address":"Domplatz","Time":"12:00 Uhr","Date":"2019-09-20","Frequency":"Once only","Lat":52.126207,"Lon":11.635136},{"Country":"Germany","Town":"Mainz 3 (RLP)","Address":"Kastel Bahnhof","Time":"12:30 Uhr","Date":"2019-09-20","Frequency":"Once only","Lat":50.0069286,"Lon":8.2832075},{"Country":"Germany","Town":"Mannheim (BW)","Date":"2019-09-20","Frequency":"Once only","Lat":49.489591,"Lon":8.467236},{"Country":"Germany","Town":"Marburg (HE)","Address":"Hauptbahnhof und Marktplatz","Time":"12:00 Uhr","Date":"2019-09-20","Frequency":"Once only","Lat":50.8117327,"Lon":8.7757742},{"Country":"Germany","Town":"Marienberg (SN)","Address":"Marktplatz","Time":"14.30 Uhr","Date":"2019-09-20","Frequency":"Once only","Lat":50.6507279,"Lon":13.163188},{"Country":"Germany","Town":"Markdorf (BW)","Address":"Hauptstrasse","Time":"11:00 Uhr","Date":"2019-09-20","Frequency":"Once only","Lat":47.7206084,"Lon":9.3917257},{"Country":"Germany","Town":"Marktbreit (BY)","Address":"Bahnhof Marktbreit","Time":"9:40 Uhr","Date":"2019-09-20","Frequency":"Once only","Lat":49.6668574,"Lon":10.144153},{"Country":"Germany","Town":"Marktoberdorf (BY)","Address":"Realschule","Time":"13:00 Uhr","Date":"2019-09-20","Frequency":"Once only","Lat":47.7750654,"Lon":10.6170847},{"Country":"Germany","Town":"Marquartstein (BY)","Address":"Rathausplatz","Time":"14:00 Uhr","Date":"2019-09-20","Frequency":"Once only","Lat":47.7608226,"Lon":12.4604809},{"Country":"Germany","Town":"Meerbusch (NRW)","Address":"Dr. Franz Schütz Platz","Time":"17:00 Uhr","Date":"2019-09-20","Frequency":"Once only","Lat":51.2652237,"Lon":6.6760958},{"Country":"Faroe Islands","Town":"Tórshavn","Date":"2019-09-20","Frequency":"Weekly","Lat":62.0107248,"Lon":-6.7740852},{"Country":"Germany","Town":"Meersburg (BW)","Address":"Marktplatz","Time":"14:00 Uhr","Date":"2019-09-20","Frequency":"Once only","Lat":47.6955538,"Lon":9.2719656},{"Country":"Germany","Town":"Memmingen (BY)","Address":"Marktplatz","Time":"12:00 Uhr","Date":"2019-09-20","Frequency":"Once only","Lat":47.9867696,"Lon":10.181319},{"Country":"Germany","Town":"Metelen (NRW)","Address":"Parkplatz Netto Markendisk","Time":"8:00 Uhr","Date":"2019-09-20","Frequency":"Once only","Lat":52.147557,"Lon":7.2153939},{"Country":"Germany","Town":"Michelstadt (HE)","Address":"Odenwaldhalle","Time":"11:45 Uhr","Date":"2019-09-20","Frequency":"Once only","Lat":49.68239005,"Lon":9.034072902},{"Country":"Germany","Town":"Miltenberg(BY)","Address":"Engelplatz/Landratsamt","Time":"12:30 Uhr","Date":"2019-09-20","Frequency":"Once only","Lat":49.7017584,"Lon":9.2559718},{"Country":"Germany","Town":"Mindelheim (BY)","Address":"Marienplatz","Time":"13:00 Uhr","Date":"2019-09-20","Frequency":"Once only","Lat":48.0464164,"Lon":10.4882504},{"Country":"Germany","Town":"Minden (NRW)","Address":"Marktplatz","Time":"11:30 Uhr","Date":"2019-09-20","Frequency":"Once only","Lat":52.2881045,"Lon":8.9168852},{"Country":"Germany","Town":"Möckmühl (BW)","Address":"Sportheimparkplatz","Time":"11:00 Uhr","Date":"2019-09-20","Frequency":"Once only","Lat":49.3233013,"Lon":9.3611411},{"Country":"Germany","Town":"Mönchengladbach (NRW)","Address":"Brucknerallee (Am Fischerturm/Amtsgericht)","Time":"11:55 Uhr","Date":"2019-09-20","Frequency":"Once only","Lat":51.1946983,"Lon":6.4353641},{"Country":"Germany","Town":"74821 Mosbach","Address":"Bahnhof Mosbach Baden|Bahnhof","Time":"11:55|11:55 Uhr","Date":"2019-09-20","Frequency":"Once only","Lat":49.3489153,"Lon":9.1293829},{"Country":"Germany","Town":"Mühlhausen(TH)","Address":"Blobach","Time":"12:00 Uhr","Date":"2019-09-20","Frequency":"Once only","Lat":51.2090628,"Lon":10.4739006},{"Country":"Germany","Town":"Mülheim an der Ruhr (NRW)","Address":"Kurt-Schumacher-Platz","Time":"14:00 Uhr","Date":"2019-09-20","Frequency":"Once only","Lat":51.4272925,"Lon":6.8829192},{"Country":"Germany","Town":"München (BY)","Address":"Königsplatz","Time":"12:00 Uhr","Date":"2019-09-20","Frequency":"Once only","Lat":48.1371079,"Lon":11.5753822},{"Country":"Germany","Town":"Münster (NRW)","Address":"Prinzipalmarkt","Time":"10:00 Uhr","Date":"2019-09-20","Frequency":"Once only","Lat":51.9501317,"Lon":7.61330165},{"Country":"Germany","Town":"Murnau (BY)","Address":"Staffelsee Gymnasium","Time":"13:00 Uhr","Date":"2019-09-20","Frequency":"Once only","Lat":47.6778816,"Lon":11.2011903},{"Country":"Germany","Town":"Naumburg (ST)","Address":"Domgymnasium","Time":"12:30 Uhr","Date":"2019-09-20","Frequency":"Once only","Lat":51.1520283,"Lon":11.8142454},{"Country":"Germany","Town":"Neuburg a.d. Donau (BY)","Date":"2019-09-20","Frequency":"Once only","Lat":48.7371951,"Lon":11.1795268},{"Country":"Germany","Town":"Neukirchen Vluyn (NRW)","Address":"Vluyner Platz","Time":"16:00 Uhr","Date":"2019-09-20","Frequency":"Once only","Lat":51.4413742,"Lon":6.5467641},{"Country":"Germany","Town":"Neumarkt(BY)","Address":"Rathaus","Time":"14:00 Uhr","Date":"2019-09-20","Frequency":"Once only","Lat":49.27806195,"Lon":11.4874279},{"Country":"Germany","Town":"Neumünster (SH)","Address":"Bahnhof","Time":"12:00 Uhr","Date":"2019-09-20","Frequency":"Once only","Lat":54.0715956,"Lon":9.9865296},{"Country":"Germany","Town":"Neuruppin (BB)","Address":"Fontaneschule","Time":"11:57 Uhr","Date":"2019-09-20","Frequency":"Once only","Lat":52.9243859,"Lon":12.8092919},{"Country":"Germany","Town":"Neuss (NRW)","Address":"Marienkirchplatz","Time":"12:15 Uhr","Date":"2019-09-20","Frequency":"Once only","Lat":51.1981778,"Lon":6.6916476},{"Country":"Germany","Town":"Neustadt an der Aisch (BY)","Address":"Marktplatz","Time":"13:00 Uhr","Date":"2019-09-20","Frequency":"Once only","Lat":49.5818862,"Lon":10.6083702},{"Country":"Germany","Town":"Neustadt an der Weinstraße (RLP)","Address":"Marktplatz","Time":"10:00 Uhr","Date":"2019-09-20","Frequency":"Once only","Lat":49.3539802,"Lon":8.1350021},{"Country":"Germany","Town":"Niebüll (SH)","Date":"2019-09-20","Frequency":"Once only","Lat":54.7868097,"Lon":8.8258359},{"Country":"Germany","Town":"Nienburg (Weser) (NDS)","Address":"Bushaltestelle Im Meerbachbogen","Time":"11:00 Uhr","Date":"2019-09-20","Frequency":"Once only","Lat":52.6410849,"Lon":9.2181918},{"Country":"Germany","Town":"Nordhorn (NDS)","Address":"Alte Kirche am Markt","Time":"12:00 Uhr","Date":"2019-09-20","Frequency":"Once only","Lat":52.4359731,"Lon":7.0707659},{"Country":"Germany","Town":"Northeim (NDS)","Address":"Mühlenanger","Time":"12:05 Uhr","Date":"2019-09-20","Frequency":"Once only","Lat":51.705401,"Lon":9.9972782},{"Country":"Germany","Town":"Nürnberg (BY)","Address":"Lorenzerplatz","Time":"12:05 Uhr","Date":"2019-09-20","Frequency":"Once only","Lat":49.453872,"Lon":11.077298},{"Country":"Germany","Town":"Nürtingen (BW)","Address":"Stadthalle K3N","Time":"12:00 Uhr","Date":"2019-09-20","Frequency":"Once only","Lat":48.6265854,"Lon":9.3365463},{"Country":"Germany","Town":"Oberbergischer Kreis (NRW)","Address":"Bahnhof","Time":"11:00 Uhr","Date":"2019-09-20","Frequency":"Once only","Lat":51.0128184,"Lon":7.5179457},{"Country":"Germany","Town":"Oberhausen (NRW)","Address":"Rathaus Schwartzstraße","Time":"11:30 Uhr","Date":"2019-09-20","Frequency":"Once only","Lat":51.51399325,"Lon":6.849322761},{"Country":"Germany","Town":"Odenwaldkreis (HE)","Address":"Odenwaldhalle","Time":"11:45 Uhr","Date":"2019-09-20","Frequency":"Once only","Lat":49.6841067,"Lon":8.973222},{"Country":"Germany","Town":"Offenburg (BW)","Address":"Fischmarkt","Time":"11:00 Uhr","Date":"2019-09-20","Frequency":"Once only","Lat":48.4716556,"Lon":7.944378},{"Country":"Germany","Town":"Oldenburg (NDS)","Address":"Bahnhof - Schloss","Time":"12:00 Uhr","Date":"2019-09-20","Frequency":"Once only","Lat":53.1389753,"Lon":8.2146017},{"Country":"Germany","Town":"Olpe (NRW)","Address":"ZOB Olpe","Time":"15:00 Uhr","Date":"2019-09-20","Frequency":"Once only","Lat":51.0297603,"Lon":7.8424193},{"Country":"Germany","Town":"Oranienburg (BB)","Address":"Bahnhof Oranienburg","Time":"12:00 Uhr","Date":"2019-09-20","Frequency":"Once only","Lat":52.7529379,"Lon":13.2457591},{"Country":"Germany","Town":"Osnabrück (NDS)","Address":"Theatervorplatz","Time":"10:30 Uhr","Date":"2019-09-20","Frequency":"Once only","Lat":52.266837,"Lon":8.049741},{"Country":"Germany","Town":"Ostalbkreis (BW)","Date":"2019-09-20","Frequency":"Once only","Lat":48.8777738,"Lon":10.0337317},{"Country":"Germany","Town":"Osterholz-Scharmbeck (NDS)","Address":"Bahnhof","Time":"10:00 Uhr","Date":"2019-09-20","Frequency":"Once only","Lat":53.2281763,"Lon":8.7948239},{"Country":"Germany","Town":"Paderborn (NRW)","Date":"2019-09-20","Frequency":"Once only","Lat":51.71895955,"Lon":8.764869778},{"Country":"Germany","Town":"Passau (BY)","Address":"Cagnes-sur-Mer-Promenade","Time":"12:00 Uhr","Date":"2019-09-20","Frequency":"Once only","Lat":48.5748229,"Lon":13.4609744},{"Country":"Germany","Town":"Peine (NDS)","Address":"Peine","Time":"12:00 Uhr","Date":"2019-09-20","Frequency":"Once only","Lat":52.3217849,"Lon":10.2349489},{"Country":"Germany","Town":"Penzberg (BY)","Address":"Penzberg Stadtplatz","Time":"11:30 Uhr","Date":"2019-09-20","Frequency":"Once only","Lat":47.7518502,"Lon":11.3763014},{"Country":"Germany","Town":"Pfaffenhofen an der Ilm (BY)","Address":"Hauptplatz","Time":"11:00 Uhr","Date":"2019-09-20","Frequency":"Once only","Lat":48.6046333,"Lon":11.5185333},{"Country":"Germany","Town":"Pforzheim (BW)","Address":"Marktplatz","Time":"11:00 Uhr","Date":"2019-09-20","Frequency":"Once only","Lat":48.8908846,"Lon":8.7029532},{"Country":"Germany","Town":"Plauen (SN)","Address":"Theaterplatz","Time":"16:00 Uhr","Date":"2019-09-20","Frequency":"Once only","Lat":50.4950632,"Lon":12.1346523},{"Country":"Germany","Town":"Potsdam (BB)","Address":"Alter Markt","Time":"11:58 Uhr","Date":"2019-09-20","Frequency":"Once only","Lat":52.4009309,"Lon":13.0591397},{"Country":"Germany","Town":"Quedlinburg (ST)","Address":"Marktplatz","Time":"11:00 Uhr","Date":"2019-09-20","Frequency":"Once only","Lat":52.5970529,"Lon":10.0242487},{"Country":"Germany","Town":"Rastatt (BW)","Address":"vor dem Landratsamt","Time":"11:00 Uhr","Date":"2019-09-20","Frequency":"Once only","Lat":48.8574209,"Lon":8.2088088},{"Country":"Germany","Town":"Rastede (NDS)","Address":"KGS Wilhelmstraße Schulhof","Time":"10:00 Uhr","Date":"2019-09-20","Frequency":"Once only","Lat":53.2467081,"Lon":8.201904},{"Country":"Germany","Town":"Recklinghausen (NRW)","Address":"Bahnhof","Time":"12:00 Uhr","Date":"2019-09-20","Frequency":"Once only","Lat":51.6143815,"Lon":7.1978546},{"Country":"Germany","Town":"Regensburg (BY)","Address":"Ernst-Reuter Platz","Time":"15:00 Uhr","Date":"2019-09-20","Frequency":"Once only","Lat":49.0195333,"Lon":12.0974869},{"Country":"Germany","Town":"Reichelsheim/Odenwald (HE)","Address":"Parkplatz Reichenberg-Schule","Time":"11:00 Uhr","Date":"2019-09-20","Frequency":"Once only","Lat":49.70052405,"Lon":8.847770067},{"Country":"Germany","Town":"Rendsburg (SH)","Address":"Theatervorplatz","Time":"8:00 Uhr","Date":"2019-09-20","Frequency":"Once only","Lat":54.3046701,"Lon":9.6645115},{"Country":"Germany","Town":"Reutlingen (BW)","Address":"Bahnhof","Time":"11:00 Uhr","Date":"2019-09-20","Frequency":"Once only","Lat":48.4919508,"Lon":9.2114144},{"Country":"Germany","Town":"Rhein-Sieg-Kreis (NRW)","Address":"Siegburg Markt","Time":"9:30 Uhr","Date":"2019-09-20","Frequency":"Once only","Lat":50.752824,"Lon":7.381380572},{"Country":"Germany","Town":"Rosenheim (BY)","Address":"Max-Josefs-Platz","Time":"14:00 Uhr","Date":"2019-09-20","Frequency":"Once only","Lat":47.8539273,"Lon":12.127262},{"Country":"Germany","Town":"Rostock (MV)","Address":"Hauptbahnhof","Time":"13:00 Uhr","Date":"2019-09-20","Frequency":"Once only","Lat":54.0924445,"Lon":12.1286127},{"Country":"Germany","Town":"Rötenberg (BW)","Address":"Kirchplatz Rötenberg","Time":"17:00 Uhr","Date":"2019-09-20","Frequency":"Once only","Lat":48.30484,"Lon":8.42229},{"Country":"Germany","Town":"Rothenburg o.d.T. (BY)","Address":"Marktplatz","Time":"13:00 Uhr","Date":"2019-09-20","Frequency":"Once only","Lat":49.3771899,"Lon":10.1788809},{"Country":"Germany","Town":"Rottenburg am Neckar (BW)","Address":"Marktplatz","Time":"12:00 Uhr","Date":"2019-09-20","Frequency":"Once only","Lat":48.47696,"Lon":8.9336788},{"Country":"Germany","Town":"Rottweil (BW)","Address":"Rathaus","Time":"11:30 Uhr","Date":"2019-09-20","Frequency":"Once only","Lat":48.165531,"Lon":8.6251283},{"Country":"Germany","Town":"Rüsselsheim am Main (HE)","Address":"Bahnhofsplatz","Time":"12:00 Uhr","Date":"2019-09-20","Frequency":"Once only","Lat":49.9948956,"Lon":8.4118279},{"Country":"Germany","Town":"Saarbrücken (SL)","Address":"Landwehrplatz","Time":"14:30 Uhr","Date":"2019-09-20","Frequency":"Once only","Lat":49.234362,"Lon":6.996379},{"Country":"Germany","Town":"Salzwedel (ST)","Address":"Am Rathausturmplatz","Time":"11:30 Uhr","Date":"2019-09-20","Frequency":"Once only","Lat":52.8528456,"Lon":11.1539699},{"Country":"Germany","Town":"Schöneiche bei Berlin (BB)","Address":"Dorfaue 1","Time":"17:00 Uhr","Date":"2019-09-20","Frequency":"Once only","Lat":52.4782043,"Lon":13.6958749},{"Country":"Germany","Town":"Schramberg (BW)","Address":"Rathaus","Time":"13:30 Uhr","Date":"2019-09-20","Frequency":"Once only","Lat":48.225478,"Lon":8.3852168},{"Country":"Germany","Town":"Schwäbisch Gmünd (BW)","Address":"Marktplatz","Time":"11:00 Uhr","Date":"2019-09-20","Frequency":"Once only","Lat":48.8001179,"Lon":9.7963529},{"Country":"Germany","Town":"Schwäbisch Hall (BW)","Date":"2019-09-20","Frequency":"Once only","Lat":49.1123963,"Lon":9.7369047},{"Country":"Germany","Town":"Schweinfurt (BY)","Date":"2019-09-20","Frequency":"Once only","Lat":50.0499945,"Lon":10.233302},{"Country":"Germany","Town":"Schwerin (MV)","Address":"Südufer Pfaffenteich","Time":"11:30 Uhr","Date":"2019-09-20","Frequency":"Once only","Lat":53.6288297,"Lon":11.4148038},{"Country":"Germany","Town":"Schwetzingen (BW)","Address":"Hebelgymnasium Schwetzingen","Time":"13:15 Uhr","Date":"2019-09-20","Frequency":"Once only","Lat":49.3832919,"Lon":8.5735135},{"Country":"Germany","Town":"Selb (BY)","Address":"Marktplatz","Time":"13:30 Uhr","Date":"2019-09-20","Frequency":"Once only","Lat":50.169121,"Lon":12.1297769},{"Country":"Germany","Town":"Selm (NRW)","Address":"Freibad/Bürgerhaus","Time":"13:00 Uhr","Date":"2019-09-20","Frequency":"Once only","Lat":51.7005549,"Lon":7.468614},{"Country":"Germany","Town":"Siegburg (NRW)","Address":"Marktplatz","Time":"9:30 Uhr","Date":"2019-09-20","Frequency":"Once only","Lat":50.7928332,"Lon":7.2070774},{"Country":"Germany","Town":"Siegen (NRW)","Address":"Bismarckplatz","Time":"10:30 Uhr","Date":"2019-09-20","Frequency":"Once only","Lat":50.8749804,"Lon":8.0227233},{"Country":"Germany","Town":"Sinsheim (BW)","Address":"Burgplatz","Time":"11:00 Uhr","Date":"2019-09-20","Frequency":"Once only","Lat":49.2553,"Lon":8.87722},{"Country":"Germany","Town":"Sinzig (RLP)","Address":"Jahnwiese","Time":"16:00 Uhr","Date":"2019-09-20","Frequency":"Once only","Lat":50.5452042,"Lon":7.2490828},{"Country":"Germany","Town":"Soest (NRW)","Address":"Marktplatz","Time":"11:30 Uhr","Date":"2019-09-20","Frequency":"Once only","Lat":51.5784166,"Lon":8.1043635},{"Country":"Germany","Town":"Solingen (NRW)","Address":"Rathaus","Time":"10:00 Uhr","Date":"2019-09-20","Frequency":"Once only","Lat":51.1712468,"Lon":7.0838996},{"Country":"Germany","Town":"Sonthofen (BY)","Address":"Vor dem Rathaus","Time":"9:40 Uhr","Date":"2019-09-20","Frequency":"Once only","Lat":47.5135363,"Lon":10.281931},{"Country":"Germany","Town":"Speyer (RLP)","Address":"Eingang Adenauerpark","Time":"11:00 Uhr","Date":"2019-09-20","Frequency":"Once only","Lat":49.3165553,"Lon":8.433615},{"Country":"Germany","Town":"Stade (NS)","Address":"Bürgerpark Stade","Time":"16:00 Uhr","Date":"2019-09-20","Frequency":"Once only","Lat":53.599794,"Lon":9.475438},{"Country":"Germany","Town":"Stadthagen (NDS)","Address":"Festplatz","Time":"13:30 Uhr","Date":"2019-09-20","Frequency":"Once only","Lat":52.3289688,"Lon":9.2053496},{"Country":"Germany","Town":"Stendal (ST)","Address":"Marktplatz","Time":"14:00 Uhr","Date":"2019-09-20","Frequency":"Once only","Lat":52.6051341,"Lon":11.8593217},{"Country":"Germany","Town":"Stuttgart (BW)","Address":"Kernerplatz","Time":"11:30 Uhr","Date":"2019-09-20","Frequency":"Once only","Lat":48.7784485,"Lon":9.1800132},{"Country":"Germany","Town":"Sulingen (NDS)","Address":"Neuer Markt","Time":"15:00 Uhr","Date":"2019-09-20","Frequency":"Once only","Lat":52.6828374,"Lon":8.8018923},{"Country":"Germany","Town":"Sylt (SH)","Address":"Sylt","Time":"12:00 Uhr","Date":"2019-09-20","Frequency":"Once only","Lat":54.9014315,"Lon":8.331455292},{"Country":"Germany","Town":"Templin (BB)","Address":"Kurmeile","Time":"11:00 Uhr","Date":"2019-09-20","Frequency":"Once only","Lat":53.1193496,"Lon":13.5005559},{"Country":"Germany","Town":"Traunstein (BY)","Address":"Bahnhofsplatz","Time":"10:45 Uhr","Date":"2019-09-20","Frequency":"Once only","Lat":47.8701474,"Lon":12.6423403},{"Country":"Germany","Town":"Trier (RLP)","Address":"Domfreihof","Time":"10:00 Uhr","Date":"2019-09-20","Frequency":"Only once","Lat":49.7596208,"Lon":6.6441878},{"Country":"Germany","Town":"Tübingen (BW)","Address":"Uhlandstraße - Zwischenkundgebung: Vor der neuen Aula - Abschlusskundgebung: Anlagenpark","Time":"11:00 Uhr","Date":"2019-09-20","Frequency":"Only once","Lat":48.5236164,"Lon":9.0535531},{"Country":"Germany","Town":"Uelzen (NDS)","Address":"Bahnhof","Time":"11:00 Uhr","Date":"2019-09-20","Frequency":"Only once","Lat":52.966838,"Lon":10.558615},{"Country":"Germany","Town":"Ulm (BW)","Address":"Marktplatz","Time":"15:00 Uhr","Date":"2019-09-20","Frequency":"Only once","Lat":48.3974003,"Lon":9.9934336},{"Country":"Germany","Town":"Vechta (NDS)","Address":"Europaplatz","Time":"12:00 Uhr","Date":"2019-09-20","Frequency":"Only once","Lat":52.7310691,"Lon":8.2873162},{"Country":"Germany","Town":"Verden (Aller) (NDS)","Address":"Bahnhof","Time":"11:00 Uhr","Date":"2019-09-20","Frequency":"Only once","Lat":52.94106755,"Lon":9.235471627},{"Country":"Germany","Town":"Villingen-Schwenningen (BW)","Address":"Villingen Bahnhofsvorplatz","Time":"11:30 Uhr","Date":"2019-09-20","Frequency":"Only once","Lat":48.0632739,"Lon":8.494588},{"Country":"Germany","Town":"Waldkraiburg (BY)","Address":"vor Haus der Kultur","Time":"13:45 Uhr","Date":"2019-09-20","Frequency":"Only once","Lat":48.2058812,"Lon":12.4044209},{"Country":"Germany","Town":"Waldshut-Tiengen (BW)","Address":"Rathaus","Time":"18:00 Uhr","Date":"2019-09-20","Frequency":"Only once","Lat":47.6281754,"Lon":8.2408579},{"Country":"Germany","Town":"Walsrode (NDS)","Address":"Sportplatz Gymnasium Walsrode","Time":"11:30 Uhr","Date":"2019-09-20","Frequency":"Only once","Lat":52.8625395,"Lon":9.5883023},{"Country":"Germany","Town":"Wangen im Allgäu (BW)","Address":"Wiesenstreifen beim BSW","Time":"12:15 Uhr","Date":"2019-09-20","Frequency":"Only once","Lat":47.6856552,"Lon":9.8342247},{"Country":"Germany","Town":"Waren (Müritz) (MV)","Address":"Neuer Markt","Time":"10:00 Uhr","Date":"2019-09-20","Frequency":"Only once","Lat":53.5156249,"Lon":12.6850606},{"Country":"Germany","Town":"Warendorf (NRW)","Address":"Schulviertel dann Richtung Marktplatz","Time":"9:30 Uhr","Date":"2019-09-20","Frequency":"Only once","Lat":51.9532449,"Lon":7.9912335},{"Country":"Germany","Town":"Weiden Oberpfalz (BY)","Address":"Weiden i.d.O","Time":"13:00 Uhr","Date":"2019-09-20","Frequency":"Only once","Lat":49.6752749,"Lon":12.1631636},{"Country":"Germany","Town":"Weilheim (BY)","Address":"Kirchplatz","Time":"11:00 Uhr","Date":"2019-09-20","Frequency":"Only once","Lat":47.8395072,"Lon":11.1416355},{"Country":"Germany","Town":"Wendland (NDS)","Address":"Lüchow Marktplatz","Time":"10:00 Uhr","Date":"2019-09-20","Frequency":"Only once","Lat":52.0741231,"Lon":9.7234452},{"Country":"Germany","Town":"Werl (NRW)","Address":"Platz vor der Basilika","Time":"11:00 Uhr","Date":"2019-09-20","Frequency":"Only once","Lat":51.5533457,"Lon":7.9155558},{"Country":"Germany","Town":"Werne (an der Lippe) (NRW)","Address":"Solebadparkplatz","Time":"12:00 Uhr","Date":"2019-09-20","Frequency":"Only once","Lat":51.6694333,"Lon":7.6228658},{"Country":"Germany","Town":"Wernigerode (ST)","Address":"Nicolaiplatz","Time":"13:00 Uhr","Date":"2019-09-20","Frequency":"Only once","Lat":51.4023777,"Lon":7.1920706},{"Country":"Germany","Town":"Wertheim (BW)","Address":"Marktplatz","Time":"10:00 Uhr","Date":"2019-09-20","Frequency":"Only once","Lat":49.7571696,"Lon":9.5134313},{"Country":"Germany","Town":"Wesel (NRW)","Address":"Rathaus","Time":"16:00 Uhr","Date":"2019-09-20","Frequency":"Only once","Lat":51.6561632,"Lon":6.6271721},{"Country":"Germany","Town":"Westerland (SH)","Address":"Rathausvorplatz","Time":"12:30 Uhr","Date":"2019-09-20","Frequency":"Only once","Lat":54.9064856,"Lon":8.3071734},{"Country":"Germany","Town":"Wetzlar (HE)","Address":"Bahnhof","Time":"14:30 Uhr","Date":"2019-09-20","Frequency":"Only once","Lat":50.5525346,"Lon":8.5074406},{"Country":"Germany","Town":"Weyhe (NDS)","Address":"Marktplatz und Umgebung","Time":"11:00 Uhr","Date":"2019-09-20","Frequency":"Only once","Lat":52.9821257,"Lon":8.8495643},{"Country":"Germany","Town":"Wiesbaden (HE)","Address":"Luisenplatz","Time":"10:00 Uhr","Date":"2019-09-20","Frequency":"Only once","Lat":50.0820384,"Lon":8.2416556},{"Country":"Germany","Town":"Wilhelmshaven (NDS)","Address":"Rambla in der Bahnhofstraße","Time":"12:00 Uhr","Date":"2019-09-20","Frequency":"Only once","Lat":53.5701325,"Lon":8.094737711},{"Country":"Germany","Town":"Willich (NRW)","Address":"Kaiserplatz","Time":"17:00 Uhr","Date":"2019-09-20","Frequency":"Only once","Lat":51.2641433,"Lon":6.5446958},{"Country":"Germany","Town":"Winsen (Luhe) (NDS)","Address":"Bahnhof","Time":"10:00 Uhr","Date":"2019-09-20","Frequency":"Only once","Lat":53.3636474,"Lon":10.2059206},{"Country":"Germany","Town":"Witzenhausen (HE)","Address":"BS Witzuenhausen","Time":"13:30 Uhr","Date":"2019-09-20","Frequency":"Only once","Lat":51.3424772,"Lon":9.8578217},{"Country":"Germany","Town":"Wolfenbüttel (NDS)","Address":"Stadtmarkt","Time":"10:00 Uhr","Date":"2019-09-20","Frequency":"Only once","Lat":52.1625283,"Lon":10.5348215},{"Country":"Germany","Town":"Wolfsburg (NDS)","Address":"Bahnhof","Time":"12:00 Uhr","Date":"2019-09-20","Frequency":"Only once","Lat":52.4205588,"Lon":10.7861682},{"Country":"Germany","Town":"Worms (RLP)","Address":"Bahnhof","Time":"10:00 Uhr","Date":"2019-09-20","Frequency":"Only once","Lat":49.6352685,"Lon":8.3603088},{"Country":"Germany","Town":"Worpswede (NDS)","Address":"Wiese gegenüber vom EDEKA","Time":"14:00 Uhr","Date":"2019-09-20","Frequency":"Only once","Lat":53.2230018,"Lon":8.9283482},{"Country":"Germany","Town":"Wülfrath (NRW)","Address":"Sparkasse Wülfrath","Time":"11:15 Uhr","Date":"2019-09-20","Frequency":"Only once","Lat":51.2818569,"Lon":7.0328063},{"Country":"Germany","Town":"Wunstorf (NDS)","Address":"Rath3","Time":"12:00 Uhr","Date":"2019-09-20","Frequency":"Only once","Lat":52.4257979,"Lon":9.4294425},{"Country":"Germany","Town":"Wuppertal (NRW)","Address":"Hauptbahnhof","Time":"11:00 Uhr","Date":"2019-09-20","Frequency":"Only once","Lat":51.264018,"Lon":7.1780374},{"Country":"Germany","Town":"Würzburg (BY)","Address":"Bahnhofsplatz","Time":"11:00 Uhr","Date":"2019-09-20","Frequency":"Only once","Lat":49.79245,"Lon":9.932966},{"Country":"Germany","Town":"Wyk auf Föhr (SH)","Address":"Rathausplatz Wyk","Time":"10:00 Uhr","Date":"2019-09-20","Frequency":"Only once","Lat":54.6892888,"Lon":8.5561518},{"Country":"Germany","Town":"Xanten (NRW)","Address":"Markt","Time":"11:55 Uhr","Date":"2019-09-20","Frequency":"Only once","Lat":51.661519,"Lon":6.4543203},{"Country":"Germany","Town":"Zehdenick (BB)","Address":"Rathaus","Time":"12:00 Uhr","Date":"2019-09-20","Frequency":"Only once","Lat":52.9794838,"Lon":13.3348959},{"Country":"Germany","Town":"Zittau (SN)","Address":"Postplatz","Time":"14:00 Uhr","Date":"2019-09-20","Frequency":"Only once","Lat":50.8959142,"Lon":14.8064417},{"Country":"Germany","Town":"Zorneding (BY)","Address":"Birkenstraße","Time":"15:00 Uhr","Date":"2019-09-20","Frequency":"Only once","Lat":48.0848806,"Lon":11.8276735},{"Country":"Germany","Town":"Zülpich (NRW)","Address":"Adenauerplatz","Time":"11:30 Uhr","Date":"2019-09-20","Frequency":"Only once","Lat":50.6922278,"Lon":6.6472694},{"Country":"Germany","Town":"Zweibrücken (RLP)","Address":"Alexanderplatz","Time":"11:30 Uhr","Date":"2019-09-20","Frequency":"Only once","Lat":49.2535955,"Lon":7.370627437},{"Country":"Germany","Town":"Zwickau (SN)","Address":"Hauptmarkt","Time":"13:00 Uhr","Date":"2019-09-20","Frequency":"Only once","Lat":50.7185043,"Lon":12.4939267},{"Country":"Sweden","Town":"Mynttorget, Stockholm","Time":"strike","Date":"2019-09-20","Frequency":"every friday","Lat":59.3267464,"Lon":18.0692843},{"Country":"Germany","Town":"Aachen","Address":"Elisenbrunnen|Elisenbrunnen","Time":"10.00-13.00|10:00 Uhr","Date":"2019-09-20","Frequency":"Every Friday","Lat":50.7753455,"Lon":6.0838868},{"Country":"Germany","Town":"Krefeld","Address":"HBF|HBF|Neumarkt|Krefeld HBF|HBF","Time":"11.00-14.00|15|16.3|11|11:00 Uhr","Date":"2019-09-20","Frequency":"Weekly","Lat":51.3387609,"Lon":6.5853417},{"Country":"Germany","Town":"Osnabrück","Address":"Theatervorplatz|Theatervorplatz","Time":"10|10:00 Uhr","Date":"2019-09-20","Frequency":"Every Friday","Lat":52.2799112,"Lon":8.0471788},{"Country":"Australia","Town":"Bega NSW 2550","Date":"2019-09-20","Frequency":"Every Friday","Lat":-36.6889097,"Lon":149.8416404},{"Country":"Australia","Town":"Melbourne VIC","Date":"2019-09-20","Frequency":"Once only","Lat":-37.8136276,"Lon":144.9630576},{"Country":"UK","Town":"Fort William","Address":"Fort William on footpath outside Lochaber High School","Time":"8.45-9.45","Date":"2019-09-20","Frequency":"weekly","Lat":56.819817,"Lon":-5.1052179},{"Country":"Australia","Town":"Albury–Wodonga","Date":"2019-09-20","Frequency":"Once only","Lat":-36.1583417,"Lon":146.8985944},{"Country":"Australia","Town":"Bairnsdale VIC 3875","Address":"Main Street rotunda.|","Time":"At 12.00-13.00 (noon to 1pm)|","Date":"2019-09-20","Frequency":"Once only","Lat":-37.833333,"Lon":147.616667},{"Country":"Australia","Town":"Ballarat VIC","Date":"2019-09-20","Frequency":"Once only","Lat":-37.5621587,"Lon":143.8502556},{"Country":"Australia","Town":"Bendigo VIC 3550","Date":"2019-09-20","Frequency":"Once only","Lat":-36.7570157,"Lon":144.2793906},{"Country":"Australia","Town":"Bright VIC 3741","Date":"2019-09-20","Frequency":"Once only","Lat":-36.7321521,"Lon":146.9836221},{"Country":"Australia","Town":"Echuca VIC 3564","Date":"2019-09-20","Frequency":"Once only","Lat":-36.1459548,"Lon":144.7448007},{"Country":"Australia","Town":"Fish Creek VIC 3959","Date":"2019-09-20","Frequency":"Once only","Lat":-38.7043519,"Lon":146.087727},{"Country":"Australia","Town":"Geelong VIC 3220","Date":"2019-09-20","Frequency":"Once only","Lat":-38.1499181,"Lon":144.3617186},{"Country":"Australia","Town":"Mildura VIC 3500","Date":"2019-09-20","Frequency":"Once only","Lat":-34.2080167,"Lon":142.1245535},{"Country":"Australia","Town":"Olinda VIC 3788","Date":"2019-09-20","Frequency":"Once only","Lat":-37.85599,"Lon":145.364357},{"Country":"Australia","Town":"Sale VIC 3850","Date":"2019-09-20","Frequency":"Once only","Lat":-38.1026004,"Lon":147.073027},{"Country":"Australia","Town":"Traralgon VIC 3844","Date":"2019-09-20","Frequency":"Once only","Lat":-38.2033531,"Lon":146.519786},{"Country":"UK","Town":"London","Address":"Parliament Square","Time":"11.00-14.00","Date":"2019-09-20","Frequency":"weekly","Lat":51.5073509,"Lon":-0.1277583},{"Country":"Australia","Town":"Warrnambool VIC 3280","Date":"2019-09-20","Frequency":"Once only","Lat":-38.3686779,"Lon":142.4982086},{"Country":"Australia","Town":"Shepparton VIC 3630","Date":"2019-09-20","Frequency":"Once only","Lat":-36.383333,"Lon":145.4},{"Country":"Australia","Town":"Sydney NSW","Address":"Pennant Hills Station|","Time":"15:30-17:00|","Date":"2019-09-20","Frequency":"Once only","Lat":-33.8688197,"Lon":151.2092955},{"Country":"Australia","Town":"Armidale NSW 2350","Date":"2019-09-20","Frequency":"Once only","Lat":-30.5015616,"Lon":151.6661993},{"Country":"Australia","Town":"Bathurst NSW 2795","Date":"2019-09-20","Frequency":"Once only","Lat":-33.4192822,"Lon":149.5775008},{"Country":"Australia","Town":"Bega NSW 2550","Date":"2019-09-20","Frequency":"Once only","Lat":-36.6889097,"Lon":149.8416404},{"Country":"Australia","Town":"Blue Mountains, New South Wales","Date":"2019-09-20","Frequency":"Once only","Lat":-33.409983,"Lon":150.3037323},{"Country":"Australia","Town":"Bowral NSW 2576","Date":"2019-09-20","Frequency":"Once only","Lat":-34.479167,"Lon":150.418056},{"Country":"Australia","Town":"Bowraville NSW 2449","Date":"2019-09-20","Frequency":"Once only","Lat":-30.633333,"Lon":152.85},{"Country":"Australia","Town":"Byron Bay NSW 2481","Address":"Byron Rec Grounds |","Time":"10:00-12:00|","Date":"2019-09-20","Frequency":"Once only","Lat":-28.6473671,"Lon":153.601977},{"Country":"Australia","Town":"Cessnock NSW 2325","Date":"2019-09-20","Frequency":"Once only","Lat":-32.8345098,"Lon":151.3624266},{"Country":"Australia","Town":"Coffs Harbour NSW 2450","Date":"2019-09-20","Frequency":"Once only","Lat":-30.298612,"Lon":153.1093922},{"Country":"Australia","Town":"Dubbo NSW 2830","Date":"2019-09-20","Frequency":"Once only","Lat":-32.2315018,"Lon":148.6329645},{"Country":"Australia","Town":"Eden NSW 2551","Date":"2019-09-20","Frequency":"Once only","Lat":-37.066667,"Lon":149.9},{"Country":"Australia","Town":"Forster NSW 2428","Date":"2019-09-20","Frequency":"Once only","Lat":-32.180556,"Lon":152.511667},{"Country":"Australia","Town":"Gosford NSW 2250","Date":"2019-09-20","Frequency":"Once only","Lat":-33.426667,"Lon":151.341667},{"Country":"Australia","Town":"Grafton NSW 2460","Date":"2019-09-20","Frequency":"Once only","Lat":-29.6816894,"Lon":152.9336547},{"Country":"Australia","Town":"Gulgong NSW 2852","Date":"2019-09-20","Frequency":"Once only","Lat":-32.35,"Lon":149.533333},{"Country":"Australia","Town":"Gunnedah NSW 2380","Date":"2019-09-20","Frequency":"Once only","Lat":-30.9922968,"Lon":150.2368919},{"Country":"Australia","Town":"Katoomba NSW 2780","Date":"2019-09-20","Frequency":"Once only","Lat":-33.7125,"Lon":150.311944},{"Country":"Australia","Town":"Kempsey NSW 2440","Address":"Services Club Park|","Time":"1:00 - 2:00|","Date":"2019-09-20","Frequency":"Once only","Lat":-31.0604769,"Lon":152.8481977},{"Country":"Australia","Town":"Leeton NSW 2705","Date":"2019-09-20","Frequency":"Once only","Lat":-34.566667,"Lon":146.4},{"Country":"Australia","Town":"Lismore NSW 2480","Date":"2019-09-20","Frequency":"Once only","Lat":-28.8093154,"Lon":153.2882876},{"Country":"UK","Town":"Ullapool","Address":"Ullapool Primary School","Time":"11.00-14.00","Date":"2019-09-20","Frequency":"weekly","Lat":57.895418,"Lon":-5.161313},{"Country":"Australia","Town":"Mudgee NSW 2850","Date":"2019-09-20","Frequency":"Once only","Lat":-32.6144566,"Lon":149.5733291},{"Country":"Australia","Town":"Nambucca Heads NSW 2448","Date":"2019-09-20","Frequency":"Once only","Lat":-30.6419702,"Lon":152.9978834},{"Country":"Australia","Town":"Narooma NSW 2546","Date":"2019-09-20","Frequency":"Once only","Lat":-36.2419463,"Lon":150.1081935},{"Country":"Australia","Town":"Newcastle NSW","Date":"2019-09-20","Frequency":"Once only","Lat":-32.9282712,"Lon":151.7816802},{"Country":"Australia","Town":"Nowra NSW 2541","Date":"2019-09-20","Frequency":"Once only","Lat":-34.883333,"Lon":150.6},{"Country":"Australia","Town":"Orange NSW 2800","Date":"2019-09-20","Frequency":"Once only","Lat":-33.283333,"Lon":149.1},{"Country":"Australia","Town":"Pennant Hills NSW 2120","Date":"2019-09-20","Frequency":"Once only","Lat":-33.738881,"Lon":151.0723841},{"Country":"Australia","Town":"Port Macquarie NSW 2444","Date":"2019-09-20","Frequency":"Once only","Lat":-31.433333,"Lon":152.9},{"Country":"Australia","Town":"Moruya NSW 2537","Date":"2019-09-20","Frequency":"Once only","Lat":-35.9073095,"Lon":150.0928052},{"Country":"Australia","Town":"Pottsville NSW 2489","Date":"2019-09-20","Frequency":"Once only","Lat":-28.3877489,"Lon":153.5580894},{"Country":"Australia","Town":"Wollar NSW 2850","Date":"2019-09-20","Frequency":"Once only","Lat":-32.3425728,"Lon":149.9527765},{"Country":"Australia","Town":"Tamworth NSW 2340","Date":"2019-09-20","Frequency":"Once only","Lat":-31.092748,"Lon":150.9320334},{"Country":"Australia","Town":"Taree NSW 2430","Address":"Fotheringham Park. Taree NSW|","Time":"9am - 11am|","Date":"2019-09-20","Frequency":"Once only","Lat":-31.8894897,"Lon":152.4444453},{"Country":"Australia","Town":"Tweed Heads NSW","Date":"2019-09-20","Frequency":"Once only","Lat":-28.1786656,"Lon":153.5370011},{"Country":"Australia","Town":"Ulladulla NSW 2539","Date":"2019-09-20","Frequency":"Once only","Lat":-35.3572426,"Lon":150.4613249},{"Country":"Australia","Town":"Wagga Wagga NSW 2650","Date":"2019-09-20","Frequency":"Once only","Lat":-35.1081689,"Lon":147.3598323},{"Country":"Australia","Town":"Wollongong NSW 2500","Date":"2019-09-20","Frequency":"Once only","Lat":-34.4278121,"Lon":150.8930607},{"Country":"Australia","Town":"Brisbane QLD","Date":"2019-09-20","Frequency":"Once only","Lat":-27.4697707,"Lon":153.0251235},{"Country":"Australia","Town":"Atherton QLD 4883","Date":"2019-09-20","Frequency":"Once only","Lat":-17.2660801,"Lon":145.4858599},{"Country":"Australia","Town":"Beaudesert QLD 4285","Date":"2019-09-20","Frequency":"Once only","Lat":-27.9881559,"Lon":153.0018911},{"Country":"Australia","Town":"Bundaberg Central QLD 4670","Date":"2019-09-20","Frequency":"Once only","Lat":-24.8669736,"Lon":152.3509714},{"Country":"Australia","Town":"Cairns QLD","Date":"2019-09-20","Frequency":"Once only","Lat":-16.9185514,"Lon":145.7780548},{"Country":"Australia","Town":"Gladstone Central QLD 4680","Date":"2019-09-20","Frequency":"Once only","Lat":-23.8415948,"Lon":151.2497708},{"Country":"Australia","Town":"Gold Coast QLD","Date":"2019-09-20","Frequency":"Once only","Lat":-28.016667,"Lon":153.4},{"Country":"Australia","Town":"Hervey Bay QLD 4655","Date":"2019-09-20","Frequency":"Once only","Lat":-25.2881539,"Lon":152.7676633},{"Country":"Australia","Town":"Kingaroy QLD 4610","Date":"2019-09-20","Frequency":"Once only","Lat":-26.5309478,"Lon":151.8399968},{"Country":"Australia","Town":"Mackay QLD 4740","Date":"2019-09-20","Frequency":"Once only","Lat":-21.1424956,"Lon":149.1821469},{"Country":"Australia","Town":"Mossman QLD 4873","Date":"2019-09-20","Frequency":"Once only","Lat":-16.45,"Lon":145.373333},{"Country":"Australia","Town":"Rockhampton QLD 4700","Date":"2019-09-20","Frequency":"Once only","Lat":-23.3790772,"Lon":150.510016},{"Country":"Australia","Town":"Sunshine Coast QLD","Date":"2019-09-20","Frequency":"Once only","Lat":-26.65,"Lon":153.066667},{"Country":"Australia","Town":"Toowoomba QLD","Date":"2019-09-20","Frequency":"Once only","Lat":-27.5598212,"Lon":151.9506696},{"Country":"Australia","Town":"Townsville QLD 4810","Date":"2019-09-20","Frequency":"Once only","Lat":-19.2589635,"Lon":146.8169483},{"Country":"Australia","Town":"Whitsunday Islands, Queensland","Date":"2019-09-20","Frequency":"Once only","Lat":-20.1862425,"Lon":148.7268546},{"Country":"Australia","Town":"Yeppoon QLD 4703","Date":"2019-09-20","Frequency":"Once only","Lat":-23.133333,"Lon":150.733333},{"Country":"Australia","Town":"Albany WA 6330","Date":"2019-09-20","Frequency":"Once only","Lat":-35.0269344,"Lon":117.8837206},{"Country":"Australia","Town":"Broome WA 6725","Address":"outside Melissa Price (local MP) office","Time":"11:45-14:00","Date":"2019-09-20","Frequency":"Once only","Lat":-17.9644291,"Lon":122.2303657},{"Country":"Australia","Town":"Bunbury WA 6230","Date":"2019-09-20","Frequency":"Once only","Lat":-33.3209971,"Lon":115.6383482},{"Country":"Australia","Town":"Esperance WA 6450","Date":"2019-09-20","Frequency":"Once only","Lat":-33.8613103,"Lon":121.8914238},{"Country":"Australia","Town":"Geraldton WA 6530","Date":"2019-09-20","Frequency":"Once only","Lat":-28.7796535,"Lon":114.6144452},{"Country":"Australia","Town":"Margaret River WA 6285","Date":"2019-09-20","Frequency":"Once only","Lat":-33.9610465,"Lon":115.0767388},{"Country":"Australia","Town":"Nannup WA 6275","Date":"2019-09-20","Frequency":"Once only","Lat":-33.9821434,"Lon":115.7680471},{"Country":"Australia","Town":"Perth WA","Date":"2019-09-20","Frequency":"Once only","Lat":-31.9505269,"Lon":115.8604572},{"Country":"Australia","Town":"Vasse WA 6280","Date":"2019-09-20","Frequency":"Once only","Lat":-33.6741502,"Lon":115.2529009},{"Country":"Australia","Town":"Burnie TAS 7320","Date":"2019-09-20","Frequency":"Once only","Lat":-41.0528583,"Lon":145.9052168},{"Country":"Australia","Town":"Devonport TAS 7310","Date":"2019-09-20","Frequency":"Once only","Lat":-41.1770585,"Lon":146.3451775},{"Country":"Australia","Town":"Hobart TAS 7000","Address":"In front of townhall|","Time":"At 12.00-13.00 (noon to 1pm)|","Date":"2019-09-20","Frequency":"Once only","Lat":-42.8821377,"Lon":147.3271949},{"Country":"Australia","Town":"Launceston TAS 7250","Date":"2019-09-20","Frequency":"Once only","Lat":-41.4332215,"Lon":147.1440875},{"Country":"Australia","Town":"Alice Springs NT 0870","Date":"2019-09-20","Frequency":"Once only","Lat":-23.698042,"Lon":133.8807471},{"Country":"Australia","Town":"Darwin NT","Date":"2019-09-20","Frequency":"Once only","Lat":-12.4634403,"Lon":130.8456418},{"Country":"Australia","Town":"Jabiru NT 0886","Date":"2019-09-20","Frequency":"Once only","Lat":-12.666667,"Lon":132.833333},{"Country":"Australia","Town":"Katherine NT 0850","Date":"2019-09-20","Frequency":"Once only","Lat":-14.4521139,"Lon":132.2715145},{"Country":"Australia","Town":"Naracoorte SA 5271","Date":"2019-09-20","Frequency":"Once only","Lat":-36.9602102,"Lon":140.7413243},{"Country":"Australia","Town":"Adelaide SA","Date":"2019-09-20","Frequency":"Once only","Lat":-34.9284989,"Lon":138.6007456},{"Country":"Australia","Town":"Canberra ACT 2601","Date":"2019-09-20","Frequency":"Once only","Lat":-35.2809368,"Lon":149.1300092},{"Country":"Australia","Town":"Clare SA 5453","Date":"2019-09-20","Frequency":"Once only","Lat":-33.8397986,"Lon":138.6127513},{"Country":"Australia","Town":"Port Lincoln SA 5606","Date":"2019-09-20","Frequency":"Once only","Lat":-34.7239963,"Lon":135.8611498},{"Country":"Australia","Address":"House-bound","Date":"2019-09-20","Frequency":"Once only","Lat":-25.274398,"Lon":133.775136},{"Country":"Australia","Town":"Springwood NSW 2777","Address":"In front of townhall|","Time":"11.00 - 13.00|","Date":"2019-09-20","Frequency":"Once only","Lat":-33.7,"Lon":150.55},{"Country":"UK","Town":"London","Address":"In front of townhall|In front of townhall|Parliament Square|Parliament Square|Parliament Square|In front of townhall|In front of townhall|In front of townhall|In front of townhall|Parliament Square","Time":"11am|At 12.00-13.00 (noon to 1pm)|At 12.00-13.00 (noon to 1pm)|At 12.00-13.00 (noon to 1pm)|At 12.00-13.00 (noon to 1pm)|At 12.00-13.00 (noon to 1pm)|11-12|At 12.00-13.00 (noon to 1pm)|At 12.00-13.00 (noon to 1pm)|12:00-13:00","Date":"2019-09-20","Frequency":"Every Friday","Lat":51.5073509,"Lon":-0.1277583},{"Country":"Thailand","Address":"Esthercita Forero","Time":"10:00 Uhr","Date":"2019-09-27","Frequency":"Once only","Lat":15.870032,"Lon":100.992541},{"Country":"Norway","Town":"Oslo","Address":"In front of townhall|Rådhuset|Eidsvolls plass","Time":"At 12.00-13.00 (noon to 1pm)|11:00-14:00|12:00-14:00","Date":"2019-09-20","Frequency":"Weekly","Lat":59.9138688,"Lon":10.7522454},{"Country":"Canada","Address":"Plaza de la Aduana","Date":"2019-09-27","Frequency":"Once only","Lat":56.130366,"Lon":-106.346771},{"Country":"Colombia","Town":"Santa Marta, Magdalena","Address":"Parque Santander","Date":"2019-09-20","Frequency":"Global","Lat":11.2403547,"Lon":-74.2110227},{"Country":"Colombia","Town":"Minca, Santa Marta, Magdalena","Address":"Plaza Central","Date":"2019-09-20","Frequency":"Global","Lat":11.142812,"Lon":-74.116677},{"Country":"Colombia","Town":"Palomino, Dibulla, La Guajira","Address":"Playas","Date":"2019-09-20","Frequency":"Global","Lat":11.2451212,"Lon":-73.5593968},{"Country":"Colombia","Town":"San Andrés, San Andrés and Providencia","Address":"Gobernación","Date":"2019-09-20","Frequency":"Weekly","Lat":12.5450153,"Lon":-81.7075787},{"Country":"Colombia","Town":"Medellin, Antioquia","Address":"Alcaldía.","Date":"2019-09-20","Frequency":"Weekly","Lat":6.244203,"Lon":-75.5812119},{"Country":"Colombia","Town":"Copacabana, Antioquia","Address":"Plaza.","Date":"2019-09-20","Frequency":"Weekly","Lat":6.357621,"Lon":-75.505078},{"Country":"Colombia","Town":"Bello, Antioquia","Address":"Plaza.","Date":"2019-09-20","Frequency":"Weekly","Lat":6.3367288,"Lon":-75.5595887},{"Country":"Colombia","Town":"Cali, Valle del Cauca","Address":"Bulevar del Río","Date":"2019-09-20","Frequency":"Weekly","Lat":3.4516467,"Lon":-76.5319854},{"Country":"Colombia","Town":"Yumbo, Valle del Cauca","Address":"Parque Belalcazar","Date":"2019-09-20","Frequency":"Weekly","Lat":3.545337,"Lon":-76.495026},{"Country":"Colombia","Town":"Cra. 6 ## 26B-85, Bogotá, Cundinamarca","Address":"Plaza de Bolivar","Date":"2019-09-20","Frequency":"Weekly","Lat":4.6133379,"Lon":-74.0689959},{"Country":"Colombia","Town":"Cachipay, Caparrapí, Cundinamarca","Address":"Parque Principal.","Date":"2019-09-20","Frequency":"Global","Lat":5.26674,"Lon":-74.56672},{"Country":"Colombia","Town":"Mosquera, Cundinamarca","Address":"Parque Principal.","Date":"2019-09-20","Frequency":"Global","Lat":4.706035,"Lon":-74.230101},{"Country":"Colombia","Town":"Chía, Cundinamarca","Address":"Parque Principal.","Date":"2019-09-20","Frequency":"Global","Lat":4.8615787,"Lon":-74.0325368},{"Country":"Colombia","Town":"Chiquinquirá, Boyaca","Address":"Plaza de Bolívar.","Date":"2019-09-20","Frequency":"Global","Lat":5.614775,"Lon":-73.819571},{"Country":"Colombia","Town":"Yopal, Casanare","Address":"Parque Santander","Date":"2019-09-20","Frequency":"Global","Lat":5.348903,"Lon":-72.400523},{"Country":"Colombia","Town":"Calamar, Guaviare","Address":"Parque Principal.","Date":"2019-09-20","Frequency":"Global","Lat":1.920614,"Lon":-72.554237},{"Country":"Colombia","Town":"Florencia, Caquetá","Address":"Plaza Principal","Date":"2019-09-20","Frequency":"Global","Lat":1.6153858,"Lon":-75.6042364},{"Country":"Colombia","Town":"Bucaramanga, Santander","Address":"Plaza Luis Carlos Galan","Date":"2019-09-20","Frequency":"Global","Lat":7.119349,"Lon":-73.1227416},{"Country":"Colombia","Town":"Cúcuta, Cucuta, North Santander","Address":"Parque Santander","Date":"2019-09-20","Frequency":"Weekly","Lat":7.8890971,"Lon":-72.4966896},{"Country":"Colombia","Town":"Meta","Address":"Parque Central","Date":"2019-09-20","Frequency":"Weekly","Lat":3.2719904,"Lon":-73.087749},{"Country":"Colombia","Town":"Leticia, Amazonas Department","Address":"Parque Santander","Date":"2019-09-20","Frequency":"Weekly","Lat":-4.203165,"Lon":-69.935907},{"Country":"Colombia","Town":"Neiva, Huila","Address":"Parque Central Santander","Date":"2019-09-20","Frequency":"Global","Lat":2.9344837,"Lon":-75.2809001},{"Country":"Colombia","Town":"Ibagué, Ibague, Tolima","Address":"Alcadia Municipal.","Date":"2019-09-20","Frequency":"Weekly","Lat":4.444676,"Lon":-75.242438},{"Country":"Colombia","Town":"Valledupar, Cesar","Address":"Plaza Alfondo Lopez","Date":"2019-09-20","Frequency":"Global","Lat":10.4742449,"Lon":-73.2436335},{"Country":"Colombia","Town":"Cl. 14 #numero, 23-156, Pereira, Risaralda","Address":"Plaza de Bolivar","Date":"2019-09-20","Frequency":"Global","Lat":4.7995471,"Lon":-75.6917841},{"Country":"Colombia","Town":"Armenia, Quindio","Address":"Plaza de Bolivar","Date":"2019-09-20","Frequency":"Global","Lat":4.5350004,"Lon":-75.6756888},{"Country":"Denmark","Town":"Aalborg","Date":"2019-09-20","Frequency":"Once only","Lat":57.0488195,"Lon":9.921747},{"Country":"Denmark","Town":"Aarhus","Date":"2019-09-20","Frequency":"Once only","Lat":56.162939,"Lon":10.203921},{"Country":"Denmark","Town":"Esbjerg","Date":"2019-09-20","Frequency":"Once only","Lat":55.476466,"Lon":8.459405},{"Country":"Denmark","Town":"6100 Haderslev","Date":"2019-09-20","Frequency":"Once only","Lat":55.250072,"Lon":9.48911},{"Country":"Denmark","Town":"3400 Hillerød","Date":"2019-09-20","Frequency":"Once only","Lat":55.927909,"Lon":12.300806},{"Country":"Denmark","Town":"Copenhagen","Date":"2019-09-20","Frequency":"Once only","Lat":55.6760968,"Lon":12.5683372},{"Country":"Denmark","Town":"9240 Nibe","Date":"2019-09-20","Frequency":"Once only","Lat":56.982526,"Lon":9.63994},{"Country":"Denmark","Town":"Odense","Date":"2019-09-20","Frequency":"Once only","Lat":55.403756,"Lon":10.40237},{"Country":"Denmark","Town":"6760 Ribe","Date":"2019-09-20","Frequency":"Once only","Lat":55.326936,"Lon":8.774665},{"Country":"Denmark","Town":"4000 Roskilde","Date":"2019-09-20","Frequency":"Once only","Lat":55.64191,"Lon":12.087845},{"Country":"Denmark","Town":"3700 Ronne","Address":"Store Torv i Rønne|","Time":"11.00-13.00|","Date":"2019-09-20","Frequency":"Once only","Lat":55.101017,"Lon":14.708329},{"Country":"Denmark","Town":"Denmark, Copenhagen University, Rolighedsvej 30, 1958 Frederiksberg","Date":"2019-09-20","Frequency":"Once only","Lat":55.683622,"Lon":12.544744},{"Country":"Denmark","Town":"8600 Silkeborg","Address":"Torvet, 8600 Silkeborg|","Time":"9.30-13|","Date":"2019-09-20","Frequency":"Once only","Lat":56.176362,"Lon":9.5549217},{"Country":"Denmark","Town":"8660 Skanderborg","Address":"In front of townhall|","Time":"10-13|","Date":"2019-09-20","Frequency":"Once only","Lat":56.037247,"Lon":9.9297989},{"Country":"Denmark","Town":"5700 Svendborg","Date":"2019-09-20","Frequency":"Once only","Lat":55.067434,"Lon":10.607282},{"Country":"Denmark","Town":"Vejle","Date":"2019-09-20","Frequency":"Once only","Lat":55.7113112,"Lon":9.536354},{"Country":"Denmark","Town":"8800 Viborg","Date":"2019-09-20","Frequency":"Once only","Lat":56.452027,"Lon":9.3963471},{"Country":"Denmark","Town":"5500 Middelfart","Date":"2019-09-20","Frequency":"Once only","Lat":55.497204,"Lon":9.747172},{"Country":"Denmark","Town":"Aarhus","Date":"2019-09-27","Frequency":"Once only","Lat":56.162939,"Lon":10.203921},{"Country":"Denmark","Town":"Copenhagen","Date":"2019-09-27","Frequency":"Once only","Lat":55.6760968,"Lon":12.5683372},{"Country":"Denmark","Town":"Aalborg","Date":"2019-09-27","Frequency":"Once only","Lat":57.0488195,"Lon":9.921747},{"Country":"Denmark","Town":"4000 Roskilde","Date":"2019-09-27","Frequency":"Once only","Lat":55.64191,"Lon":12.087845},{"Country":"Denmark","Town":"5500 Middelfart","Date":"2019-09-27","Frequency":"Once only","Lat":55.497204,"Lon":9.747172},{"Country":"Denmark","Town":"Odense","Date":"2019-09-27","Frequency":"Once only","Lat":55.403756,"Lon":10.40237},{"Country":"Sweden","Town":"Stockholm","Address":"In front of townhall|In front of townhall|Mynttorget |In front of townhall","Time":"At 12.00-13.00 (noon to 1pm)|16-17|8-15 (PFF 12-13)|Kl. 12.00-13.00","Date":"2019-09-20","Frequency":"Weekly","Lat":59.3293235,"Lon":18.0685808},{"Country":"Sweden","Town":"Linköping","Address":"In front of townhall","Time":"15-17","Date":"2019-09-20","Frequency":"Weekly","Lat":58.410807,"Lon":15.6213728},{"Country":"Germany","Town":"Düsseldorf","Address":"Landtag","Time":"Kl. 12.00-13.00","Date":"2019-09-20","Frequency":"Weekly","Lat":51.2277411,"Lon":6.7734556},{"Country":"USA","Town":"Arcata","Address":"Humboldt Arcata plaza","Time":"1-3:30pm","Date":"2019-09-20","Frequency":"Weekly","Lat":40.8665166,"Lon":-124.0828396},{"Country":"Turkey","Town":"Adıyaman, Adıyaman Merkez/Adıyaman Province","Address":"In front of townhall","Time":"Kl. 12.00-13.00","Date":"2019-09-20","Frequency":"Weekly","Lat":37.76365,"Lon":38.2772592},{"Country":"Uganda","Town":"Kampala","Address":"Bugolobi","Time":"Kl. 12.00-13.00","Date":"2019-09-22","Frequency":"Weekly","Lat":0.3475964,"Lon":32.5825197},{"Country":"Czechia","Town":"Prague","Address":"march thru city centre|Society here is not ready to strike, we need to build a community.","Time":"10-16|By collecting and sharing global know-how/tools.","Date":"2019-09-20","Frequency":"Weekly","Lat":50.0755381,"Lon":14.4378005},{"Country":"Germany","Town":"Stuttgart","Address":"In front of townhall","Time":"11.00-13.00","Date":"2019-09-20","Frequency":"Weekly","Lat":48.7758459,"Lon":9.1829321},{"Country":"Germany","Town":"Osnabrück","Address":"In front of townhall","Time":"08.00 - 14.00","Date":"2019-09-20","Frequency":"Weekly","Lat":52.2799112,"Lon":8.0471788},{"Country":"Sweden","Town":"Bollebygd","Address":"In front of townhall","Time":"Kl. 11:00-17:00","Date":"2019-09-20","Frequency":"Weekly","Lat":57.6689691,"Lon":12.5701433},{"Country":"UK","Town":"Fort William","Address":"On the footpath outside Lochaber High School","Time":"0845 - 0945","Date":"2019-09-20","Frequency":"Weekly","Lat":56.819817,"Lon":-5.1052179},{"Country":"Tanzania","Town":"Arusha","Address":"In front of townhall","Time":"Kl. 12.00-13.00","Date":"2019-09-26","Frequency":"Weekly","Lat":-3.3869254,"Lon":36.6829927},{"Country":"Germany","Town":"23795 Bad Segeberg","Address":"Marketplace , Bad Segeberg","Time":"8:30 - 12:00","Date":"2019-09-20","Frequency":"Weekly","Lat":53.9390528,"Lon":10.3053652},{"Country":"Sweden","Town":"Härnösand","Address":"In front of townhall","Time":"Kl. 12.00-13.00","Date":"2019-09-20","Frequency":"Weekly","Lat":62.6322698,"Lon":17.9408714},{"Country":"Sweden","Town":"Gislaved","Address":"In front of townhall|In front of townhall","Time":"14-16|Torsdagar 14.30-15.30","Date":"2019-09-26","Frequency":"Weekly","Lat":57.2985,"Lon":13.54326},{"Country":"Italy","Town":"Milan, Metropolitan City of Milan","Address":"In front of townhall|In front of townhall","Time":"09.00-10.00|12:30-13:15","Date":"2019-09-20","Frequency":"Weekly","Lat":45.4642035,"Lon":9.189982},{"Country":"Sweden","Town":"Ånge","Address":"In front of townhall","Time":"Kl. 12.00-13.00","Date":"2019-09-20","Frequency":"Weekly","Lat":62.5228738,"Lon":15.6589419},{"Country":"Sweden","Town":"Ekerö Municipality","Address":"Ekerö Centrum & in front of town hall","Time":"16.00-17.30","Date":"2019-09-20","Frequency":"Weekly","Lat":59.359052,"Lon":17.6694942},{"Country":"Sweden","Town":"Kristianstad","Address":"In front of townhall","Time":"13.00-14.00","Date":"2019-09-20","Frequency":"Weekly","Lat":56.0293936,"Lon":14.1566779},{"Country":"Italy","Town":"Pisa, Province of Pisa","Address":"In front of townhall","Time":"9.00-11.00","Date":"2019-09-20","Frequency":"Weekly","Lat":43.7228386,"Lon":10.4016888},{"Country":"Canada","Town":"Vancouver, BC","Address":"Environment and Climate Change Canada Office, 401 Burrard Street, Vancouver, BC, V6C3S5","Time":"9am, Pacific Time","Date":"2019-09-20","Frequency":"Weekly","Lat":49.2827291,"Lon":-123.1207375},{"Country":"Sweden","Town":"Växjö","Address":"Växjö Kommunhus","Time":"15-16","Date":"2019-09-20","Frequency":"Weekly","Lat":56.8790044,"Lon":14.8058523},{"Country":"Sweden","Town":"Falkenberg","Address":"In front of townhall","Time":"16-17","Date":"2019-09-20","Frequency":"Weekly","Lat":56.9027333,"Lon":12.4888013},{"Country":"Finland","Town":"Jakobstad","Address":"invid rådhuset","Time":"15.00-16.00","Date":"2019-09-20","Frequency":"Weekly","Lat":63.6744036,"Lon":22.6966088},{"Country":"Finland","Town":"Salo","Address":"In front of townhall","Time":"10-12","Date":"2019-09-20","Frequency":"Weekly","Lat":60.3900183,"Lon":23.1171797},{"Country":"USA","Town":"New York","Address":"In front of the United Nations Headquarters at 1st Ave and 46th Street","Time":"varies - please contact directly","Date":"2019-09-20","Frequency":"Weekly","Lat":40.7127753,"Lon":-74.0059728},{"Country":"Sweden","Town":"Årsta, Enskede-Årsta-Vantör, Stockholm","Address":"In front of townhall","Time":"Kl. 12.00-13.00","Date":"2019-09-20","Frequency":"Weekly","Lat":59.2989205,"Lon":18.0508926},{"Country":"Sweden","Town":"Falun","Address":"In front of townhall","Time":"16.00-17.00","Date":"2019-09-20","Frequency":"Weekly","Lat":60.60646,"Lon":15.6355},{"Country":"USA","Town":"Pasadena","Address":"In front of townhall","Time":"8:15am local time","Date":"2019-09-20","Frequency":"Weekly","Lat":34.1477849,"Lon":-118.1445155},{"Country":"USA","Town":"Gettysburg","Address":"Gettysburg Square-York St. Crosswalk ","Time":"11AM-1PM","Date":"2019-09-20","Frequency":"Weekly","Lat":39.8309293,"Lon":-77.2310955},{"Country":"Italy","Town":"Turin, Metropolitan City of Turin","Address":"Turin, Piazza Castello","Time":"15:00-17:00","Date":"2019-09-20","Frequency":"Weekly","Lat":45.0703393,"Lon":7.686864},{"Country":"Sweden","Town":"Borås","Address":"In front of old townhall","Time":"Kl. 12.00-13.00","Date":"2019-09-20","Frequency":"Weekly","Lat":57.721035,"Lon":12.939819},{"Country":"Sweden","Town":"Mora","Address":"gågatan","Time":"16.00-17.00","Date":"2019-09-20","Frequency":"Weekly","Lat":61.004878,"Lon":14.537003},{"Country":"Finland","Town":"Tampere","Address":"In front of townhall","Time":"11-13","Date":"2019-09-20","Frequency":"Weekly","Lat":61.4977524,"Lon":23.7609535},{"Country":"Italy","Town":"Rome, Metropolitan City of Rome","Address":"In front of townhall|In front of townhall|In front of Italian Parliament|In front of townhall|In front of Italian Parliament","Time":"At 12.00-13.00 (noon to 1pm)|At 12.00-13.00 (noon to 1pm)|14,30-15,30|Kl. 12.00-13.00|14,00-15,00","Date":"2019-09-20","Frequency":"Weekly","Lat":41.9027835,"Lon":12.4963655},{"Country":"UK","Town":"Ullapool","Address":"At the Primary School","Time":"08:45 - 09:45 GMT","Date":"2019-09-20","Frequency":"Weekly","Lat":57.895418,"Lon":-5.161313},{"Country":"Italy","Town":"22100 Como, Province of Como","Address":"Broletto Piazza Duomo","Time":"13:00-15:00","Date":"2019-09-21","Frequency":"Weekly","Lat":45.8080597,"Lon":9.0851765},{"Country":"Australia","Town":"Ocean Grove VIC 3226","Address":"In front of all electorate offices of the Australian Parliament","Time":"Any time  you are able","Date":"2019-09-20","Frequency":"Weekly","Lat":-38.25,"Lon":144.516667},{"Country":"Sweden","Town":"Trosa","Address":"Playground close to townhall","Time":"12.30 - 13.30","Date":"2019-09-20","Frequency":"Weekly","Lat":58.902655,"Lon":17.5494637},{"Country":"Sweden","Town":"Karlskrona","Address":"Klaipeda|Klaipedaplatsen ","Time":"Kl. 12.00-13.00|Kl. 12.00-13.00","Date":"2019-09-20","Frequency":"Weekly","Lat":56.161224,"Lon":15.5869001},{"Country":"New Zealand","Town":"Palmerston North","Address":"In the square, outside the Council Building","Time":"9am - 12noon","Date":"2019-09-23","Frequency":"Weekly","Lat":-40.3523065,"Lon":175.6082145},{"Country":"Australia","Town":"Geelong VIC 3220","Address":"Infront of representative of parliament","Time":"10-3","Date":"2019-09-20","Frequency":"Weekly","Lat":-38.1499181,"Lon":144.3617186},{"Country":"Turkey","Town":"Istanbul","Address":"Bilnet, Bahcekoy Okullari|Karaköy/Lycee Saint Benoit","Time":"At 12.00-13.00 (noon to 1pm)|14.40-15.30","Date":"2019-09-20","Frequency":"Weekly","Lat":41.0082376,"Lon":28.9783589},{"Country":"France","Town":"Paris","Address":"National Assembly (France)","Time":"All the day","Date":"2019-09-20","Frequency":"Weekly","Lat":48.856614,"Lon":2.3522219},{"Country":"Sweden","Town":"Helsingborg","Address":"In front of townhall","Time":"16.00-16.30","Date":"2019-09-24","Frequency":"Weekly","Lat":56.0464674,"Lon":12.6945121},{"Country":"Sweden","Town":"Landskrona","Address":"Rådhustorget","Time":"12.00-12.30","Date":"2019-09-20","Frequency":"Weekly","Lat":55.8703477,"Lon":12.8300802},{"Country":"Finland","Town":"Vaasa","Address":"In front of townhall","Time":"10-12","Date":"2019-09-20","Frequency":"Weekly","Lat":63.095089,"Lon":21.6164564},{"Country":"Ireland","Town":"Cork","Address":"In front of townhall","Time":"9:00-15:50","Date":"2019-09-20","Frequency":"Weekly","Lat":51.8985143,"Lon":-8.4756035},{"Country":"UK","Town":"Edinburgh","Address":"Scottish Parliament Building|In front of Parliament","Time":"11.00-13.00|11-13","Date":"2019-09-20","Frequency":"Weekly","Lat":55.953252,"Lon":-3.188267},{"Country":"Sweden","Town":"Frescati Stockholm","Address":"Stockholm University (check exact location on facebook page)","Time":"Kl. 12.00-13.00","Date":"2019-09-20","Frequency":"Weekly","Lat":59.3657952,"Lon":18.0469621},{"Country":"France","Town":"38220 Vizille","Address":"Rally in the school and demonstration in front of the town hall","Time":"10am - 12am  13pm - 17pm","Date":"2019-09-20","Frequency":"Weekly","Lat":45.077318,"Lon":5.772412},{"Country":"Ireland","Town":"Dublin","Address":"In front of the Dàil (Irish parliament)","Time":"1pm - 2pm","Date":"2019-09-20","Frequency":"Weekly","Lat":53.3498053,"Lon":-6.2603097},{"Country":"USA","Town":"Orange","Address":"In front of townhall","Time":"07:30 - 10:30 AM","Date":"2019-09-20","Frequency":"Weekly","Lat":33.7879139,"Lon":-117.8531007},{"Country":"UK","Town":"London","Address":"46 Stafford Cripps House |In front of Westminster ","Time":"At 12.00-13.00 (noon to 1pm)|Kl. 12.00-13.00","Date":"2019-09-20","Frequency":"Weekly","Lat":51.5073509,"Lon":-0.1277583},{"Country":"Spain","Town":"Barcelona","Address":"In front of townhall","Time":"At 12.00-13.00 (noon to 1pm)","Date":"2019-09-24","Frequency":"Weekly","Lat":41.3850639,"Lon":2.1734035},{"Country":"Italy","Town":"Bari, Metropolitan City of Bari","Address":"Piazza Prefettura","Time":"At 12.00-13.00 (noon to 1pm)","Date":"2019-09-20","Frequency":"Every Friday","Lat":41.1171432,"Lon":16.8718715},{"Country":"Italy","Town":"Modena, Province of Modena","Address":"In front of townhall|In front of townhall","Time":"18|At 14:30-15:30","Date":"2019-09-20","Frequency":"Weekly","Lat":44.647128,"Lon":10.9252269},{"Country":"Italy","Town":"33100 Udine, Province of Udine","Address":"school Tiepolo|Piazza Libertà |Piazza Libertà ","Time":"at 8.00-10.00|12:15-14:00|11:30-14:00","Date":"2019-09-20","Frequency":"Every Friday","Lat":46.0710668,"Lon":13.2345794},{"Country":"Italy","Town":"70029 Santeramo in Colle, Metropolitan City of Bari","Address":"In front of townhall","Time":"at 09,30 - 13,00","Date":"2019-09-20","Frequency":"Weekly","Lat":40.7918083,"Lon":16.7528602},{"Country":"Montenegro","Town":"Podgorica","Address":"In front of townhall","Time":"At 12.00-13.00 (noon to 1pm)","Date":"2019-09-22","Frequency":"Weekly","Lat":42.4304196,"Lon":19.2593642},{"Country":"Sweden","Town":"Kristianstad","Address":"In front of townhall|In front of townhall|In front of townhall|In front of townhall|In front of townhall|In front of townhall","Time":"12.00-15.00|12-14|12-14 |12.00-14.00|12.00-14.00|13.00-14.00","Date":"2019-09-20","Frequency":"Every Friday","Lat":56.0293936,"Lon":14.1566779},{"Country":"Sweden","Town":"Umeå","Address":"Utanför Lindellhallen vid Umeå Universitet|In front of townhall","Time":"At 12.00-13.00 (noon to 1pm)|11-14","Date":"2019-09-20","Frequency":"Every Friday","Lat":63.8258471,"Lon":20.2630354},{"Country":"USA","Town":"Eugene","Address":"Wayne Morse US Courthouse, 405 E. 8th Ave.","Time":"8 am - 5 pm","Date":"2019-09-20","Frequency":"Every Friday","Lat":44.0520691,"Lon":-123.0867536},{"Country":"France","Town":"40100 Dax","Address":"In front of townhall","Time":"08.00-18.00","Date":"2019-09-20","Frequency":"Every Friday","Lat":43.708608,"Lon":-1.051945},{"Country":"Canada","Town":"Belleville, ON","Address":"In front of townhall","Time":"08.00-11.00","Date":"2019-09-20","Frequency":"Every Friday","Lat":44.1627589,"Lon":-77.3832315},{"Country":"Norway","Town":"Gjerstad Municipality","Address":"municipalitihouse","Time":"15.30 - 16.30","Date":"2019-09-20","Frequency":"Every Friday","Lat":58.8801349,"Lon":9.0178169},{"Country":"Italy","Town":"Florence, Metropolitan City of Florence","Address":"In front of townhall","Time":"14-15","Date":"2019-09-20","Frequency":"Every Friday","Lat":43.7695604,"Lon":11.2558136},{"Country":"USA","Town":"Harahan","Address":"In front of townhall","Time":"2:00-6:00","Date":"2019-09-20","Frequency":"Every Friday","Lat":29.9404826,"Lon":-90.2031313},{"Country":"Italy","Town":"Parma, Province of Parma","Address":"In front of townhall","Time":"18.00 -19.00","Date":"2019-09-20","Frequency":"Every Friday","Lat":44.801485,"Lon":10.3279036},{"Country":"Italy","Town":"Trento, Province of Trento","Address":"Chini","Time":"At 12.00-13.00 (noon to 1pm)","Date":"2019-09-25","Frequency":"Weekly","Lat":46.0747793,"Lon":11.1217486},{"Country":"Italy","Town":"15033 Casale Monferrato, Province of Alessandria","Address":"In front of townhall","Time":"At 12.00-13.00 (noon to 1pm)","Date":"2019-09-25","Frequency":"Weekly","Lat":45.1316088,"Lon":8.450503},{"Country":"Germany","Town":"Böblingen","Address":"In front of townhall","Time":"At 12.00-13.00 (noon to 1pm)","Date":"2019-09-20","Frequency":"Weekly","Lat":48.6813312,"Lon":9.0088299},{"Country":"Germany","Town":"Berlin","Address":"On the sailing boat|In front of townhall|In front of townhall|Invalidenplatz|In front of townhall|Invalidenplatz|In front of townhall|In front of townhall","Time":"At 12.00-13.00 (noon to 1pm)|At 12.00-13.00 (noon to 1pm)|At 12.00-13.00 (noon to 1pm)|10.00-2.00|At 12.00-13.00 (noon to 1pm)|10.00-2.00|from 10:00 to 12:00|At 12.00-13.00 (noon to 1pm)","Date":"2019-09-20","Frequency":"Every Friday","Lat":52.5200066,"Lon":13.404954},{"Country":"Germany","Town":"Hamburg","Address":"Rathaus|In front of townhall","Time":"8:00-11:00|8:00-11:00","Date":"2019-09-20","Frequency":"Every Friday","Lat":53.5510846,"Lon":9.9936819},{"Country":"Sweden","Town":"Borlänge","Address":"Turistbyrån, Sveagatan 1 Borlänge|In front of townhall|Utanför Turistbyrån i Borlänge centrum |Turistbyrån, Sveagatan 1, 784 33 Borlänge|Borälnge centrum","Time":"17.00-19:00|16:00-17:00|17.00-18.00|17:00-18:00|17.00--18.00","Date":"2019-09-20","Frequency":"Every Friday","Lat":60.484304,"Lon":15.433969},{"Country":"Canada","Town":"Langley, BC","Address":"In front of townhall","Time":"At 12.00-13.00 (noon to 1pm)","Date":"2019-09-20","Frequency":"Every Friday","Lat":49.1041779,"Lon":-122.6603519},{"Country":"Australia","Address":"in front of Politicians electoral office","Time":"10.00 - 15.00","Date":"2019-09-20","Frequency":"Every Friday","Lat":-25.274398,"Lon":133.775136},{"Country":"Ireland","Town":"Cork","Address":"In front of townhall","Time":"9:00-15:50","Date":"2019-09-20","Frequency":"Every Friday","Lat":51.8985143,"Lon":-8.4756035},