{
    "title":"FFF Github Global Map WFF",
    "generated":"2019-09-07 00:42",
    "encoding":"utf-8",
    "keys":["Country","Town","Address","Time","Date","Frequency","Lat","Lon"],
    "data":[{"Country":"Sweden","Town":"Alingsås","Address":"På rådhustrapporna vid Stora torget","Time":"17-18","Date":"2019-09-20","Frequency":"Weekly","Lat":57.9300205,"Lon":12.5362113},{"Country":"Sweden","Town":"Gothenburg","Address":"In front of townhall|Göteborg, Gustav Adolfs Torg. kl 15-17 kontakt Kerstin Hamberger","Time":"Kl. 12.00-13.00|15-17","Date":"2019-09-20","Frequency":"Weekly","Lat":57.70887,"Lon":11.97456},{"Country":"Sweden","Town":"Halmstad","Address":"Halmstad, Rädhuset. kl12-14, kontakt Suzanne Näckdal och Anne-Marie Bruno","Time":"12-14","Date":"2019-09-20","Frequency":"Weekly","Lat":56.6743748,"Lon":12.8577885},{"Country":"Sweden","Town":"Karlstad","Address":"Stora Torget Karlstad|Stora Torget |Stora Torget","Time":"12.00 - 15.00|12.00-15.00|12-15","Date":"2019-09-20","Frequency":"Weekly","Lat":59.4021806,"Lon":13.5114978},{"Country":"Sweden","Town":"Luleå","Address":"Luleå, stadshuset, kl12-13 kontakt Elsa Rensfeldt o Emma Westerberg","Time":"12-13","Date":"2019-09-20","Frequency":"Weekly","Lat":65.584819,"Lon":22.1567026},{"Country":"Sweden","Town":"Örebro","Address":"Örebro. kl 15.-17. Kontakt: @Klimatfredag Instagram","Time":"15-17","Date":"2019-09-20","Frequency":"Weekly","Lat":59.2752626,"Lon":15.2134105},{"Country":"Sweden","Town":"Östersund","Address":"In front of Rådhuset|ÖSTERSUND, Östersunds Rådhus, kl14-17 kontakt Joakim Karlsson o Lina Strömgren https://www.facebook.com/events/277411122918641/","Time":"14.00-17.00|14-17","Date":"2019-09-20","Frequency":"Weekly","Lat":63.1766832,"Lon":14.6360681},{"Country":"Sweden","Town":"Simrishamn","Address":"Simrishamn på fredag framför stadshuset 10.30-13.30","Time":"10.30-13.30","Date":"2019-09-20","Frequency":"Weekly","Lat":55.5573959,"Lon":14.3489651},{"Country":"Sweden","Town":"Skövde","Address":"Skövde, stadshuset, kl15-17, kontakt Maj-Lis Lindholm","Time":"15-17","Date":"2019-09-20","Frequency":"Weekly","Lat":58.3902782,"Lon":13.8461208},{"Country":"Sweden","Town":"Uppsala","Address":"Uppsala, Forumtorget. kl 15-17. Kontakt: Karin Holmstrand Jordensvänner, Klimatstudenterna - SLU","Time":"15-17","Date":"2019-09-20","Frequency":"Weekly","Lat":59.8585638,"Lon":17.6389267},{"Country":"Sweden","Town":"Västerås","Address":"Torggatan i centrum","Date":"2019-09-20","Frequency":"Weekly","Lat":59.6099005,"Lon":16.5448092},{"Country":"Sweden","Town":"Stockholm","Time":"kl8-13|kl8-13","Date":"2019-09-20","Frequency":"weekly","Lat":59.3293235,"Lon":18.0685808},{"Country":"Sweden","Town":"Växjö","Time":"kl15-16","Date":"2019-09-20","Frequency":"weekly","Lat":56.8790044,"Lon":14.8058523},{"Country":"Sweden","Town":"Vimmerby","Address":"VIMMERBY Contact: Ingvar Edlund o Laurent Mertz https://www.facebook.com/events/187531722140345/ https://www.facebook.com/groups/288419755103990/permalink/291860014759964/","Date":"2019-09-20","Frequency":"Weekly","Lat":57.6690339,"Lon":15.858857},{"Country":"Sweden","Town":"Visby","Address":"Östercentrum|Östercentrum|Visby Östercentrum|VISBY Ostercentrum kl11:30-14 kontakt Alfred Westh https://www.facebook.com/events/346676762763537/?ti=cl","Time":"16-17|17-18|17.00-18.00|11.30-14","Date":"2019-09-20","Frequency":"Weekly","Lat":57.6348,"Lon":18.29484},{"Country":"Germany","Town":"Aachen","Date":"2019-09-20","Frequency":"Once only","Lat":50.7753455,"Lon":6.0838868},{"Country":"Germany","Town":"Bamberg","Date":"2019-09-20","Frequency":"Once only","Lat":49.8988135,"Lon":10.9027636},{"Country":"Germany","Town":"22941 Bargteheide","Date":"2019-09-20","Frequency":"Once only","Lat":53.7287773,"Lon":10.2656004},{"Country":"Germany","Town":"64625 Bensheim","Address":"Rathaus|","Date":"2019-09-20","Frequency":"Once only","Lat":49.6861354,"Lon":8.6187296},{"Country":"Germany","Town":"Berlin","Date":"2019-09-20","Frequency":"Once only","Lat":52.5200066,"Lon":13.404954},{"Country":"Germany","Town":"54634 Bitburg","Date":"2019-09-20","Frequency":"Once only","Lat":49.9664145,"Lon":6.5298603},{"Country":"Germany","Town":"Bonn","Address":"Hofgarten|","Time":"11:00 Uhr|","Date":"2019-09-20","Frequency":"Once only","Lat":50.73743,"Lon":7.0982068},{"Country":"Germany","Town":"46325 Borken","Date":"2019-09-20","Frequency":"Once only","Lat":51.8482714,"Lon":6.8594477},{"Country":"Germany","Town":"Bremen","Address":"Bahnhofsvorplatz|","Time":"10:00 Uhr|","Date":"2019-09-20","Frequency":"Once only","Lat":53.0792962,"Lon":8.8016936},{"Country":"Germany","Town":"Bunde","Date":"2019-09-20","Frequency":"Once only","Lat":53.1850881,"Lon":7.2712674},{"Country":"Germany","Town":"75365 Calw","Address":"Marktplatz |","Time":"11:00 Uhr|","Date":"2019-09-20","Frequency":"Once only","Lat":48.7122107,"Lon":8.7472439},{"Country":"Germany","Town":"Chemnitz","Date":"2019-09-20","Frequency":"Once only","Lat":50.827845,"Lon":12.9213697},{"Country":"Germany","Town":"85221 Dachau","Date":"2019-09-20","Frequency":"Once only","Lat":48.2629984,"Lon":11.4339022},{"Country":"Germany","Town":"Darmstadt","Date":"2019-09-20","Frequency":"Once only","Lat":49.8728253,"Lon":8.6511929},{"Country":"Germany","Town":"Dortmund","Address":"Friedensplatz|","Time":"12:00 Uhr|","Date":"2019-09-20","Frequency":"Once only","Lat":51.5135872,"Lon":7.4652981},{"Country":"Germany","Town":"Dresden","Date":"2019-09-20","Frequency":"Once only","Lat":51.0504088,"Lon":13.7372621},{"Country":"Germany","Town":"Eberswalde","Date":"2019-09-20","Frequency":"Once only","Lat":52.837133,"Lon":13.7875871},{"Country":"Germany","Town":"Eckernförde","Address":"Hafenspitze|","Time":"9:00 Uhr|","Date":"2019-09-20","Frequency":"Once only","Lat":54.4689457,"Lon":9.8384466},{"Country":"Germany","Town":"85072 Eichstätt","Date":"2019-09-20","Frequency":"Once only","Lat":48.8912508,"Lon":11.1899861},{"Country":"Germany","Town":"Erfurt","Date":"2019-09-20","Frequency":"Once only","Lat":50.9847679,"Lon":11.02988},{"Country":"Germany","Town":"Erlangen","Address":"Schlossplatz|","Time":"11:00 Uhr|","Date":"2019-09-20","Frequency":"Once only","Lat":49.5896744,"Lon":11.0119611},{"Country":"Germany","Town":"Esslingen","Date":"2019-09-20","Frequency":"Once only","Lat":48.7433425,"Lon":9.3201122},{"Country":"Germany","Town":"23701 Eutin","Date":"2019-09-20","Frequency":"Once only","Lat":54.1330282,"Lon":10.6095048},{"Country":"Germany","Town":"Frankfurt","Address":"Alte Oper|","Time":"12:00 Uhr|","Date":"2019-09-20","Frequency":"Once only","Lat":50.1109221,"Lon":8.6821267},{"Country":"Germany","Town":"Freiburg im Breisgau","Date":"2019-09-20","Frequency":"Once only","Lat":47.9990077,"Lon":7.8421043},{"Country":"Germany","Town":"Freising","Date":"2019-09-20","Frequency":"Once only","Lat":48.4028796,"Lon":11.7411846},{"Country":"Germany","Town":"Giessen","Date":"2019-09-20","Frequency":"Once only","Lat":50.5840512,"Lon":8.6784031},{"Country":"Germany","Town":"Groß-Gerau","Date":"2019-09-20","Frequency":"Once only","Lat":49.9203655,"Lon":8.4847038},{"Country":"Germany","Town":"Gütersloh","Date":"2019-09-20","Frequency":"Once only","Lat":51.9032375,"Lon":8.3857535},{"Country":"Germany","Town":"Haan","Date":"2019-09-20","Frequency":"Once only","Lat":51.1923262,"Lon":7.0065575},{"Country":"Germany","Town":"Hamburg","Address":"Jungfernstieg|","Time":"12:00 Uhr|","Date":"2019-09-20","Frequency":"Once only","Lat":53.5510846,"Lon":9.9936819},{"Country":"Germany","Town":"Hamelin","Date":"2019-09-20","Frequency":"Once only","Lat":52.1082726,"Lon":9.362171},{"Country":"Germany","Town":"Hamm","Address":"Beibder Stadtbücherei |","Time":"10:00 Uhr|","Date":"2019-09-20","Frequency":"Once only","Lat":51.6738583,"Lon":7.8159817},{"Country":"Germany","Town":"34346 Hann. Münden","Date":"2019-09-20","Frequency":"Once only","Lat":51.419285,"Lon":9.6557588},{"Country":"Germany","Town":"Hanover","Address":"Unterschiedliche|","Time":"12:30 Uhr|","Date":"2019-09-20","Frequency":"Once only","Lat":52.3758916,"Lon":9.7320104},{"Country":"Germany","Town":"Itzehoe","Address":"Zob|","Time":"10:00 Uhr|","Date":"2019-09-20","Frequency":"Once only","Lat":53.9317752,"Lon":9.5051475},{"Country":"Germany","Town":"Karlsruhe","Address":"Friedrichsplatz |","Time":"11:00 Uhr|","Date":"2019-09-20","Frequency":"Once only","Lat":49.0068901,"Lon":8.4036527},{"Country":"Germany","Town":"47906 Kempen","Date":"2019-09-20","Frequency":"Once only","Lat":51.3649942,"Lon":6.4205309},{"Country":"Germany","Town":"Kiel","Date":"2019-09-20","Frequency":"Once only","Lat":54.3232927,"Lon":10.1227651},{"Country":"Germany","Town":"47533 Kleve","Address":"Parkplatz Ludwig-Jahn-Straße|","Time":"10:15 Uhr|","Date":"2019-09-20","Frequency":"Once only","Lat":51.786726,"Lon":6.12954},{"Country":"Germany","Town":"Koblenz","Date":"2019-09-20","Frequency":"Once only","Lat":50.3569429,"Lon":7.5889959},{"Country":"Germany","Town":"Cologne","Address":"Hans Böckler Platz/ Bf West / DGB Haus |","Time":"11:00 Uhr|","Date":"2019-09-20","Frequency":"Once only","Lat":50.937531,"Lon":6.9602786},{"Country":"Germany","Town":"Konstanz","Date":"2019-09-20","Frequency":"Once only","Lat":47.6779496,"Lon":9.1732384},{"Country":"Germany","Town":"Kulmbach","Address":"Marktplatz|","Time":"11:30 Uhr|","Date":"2019-09-20","Frequency":"Once only","Lat":50.1039282,"Lon":11.4448178},{"Country":"Germany","Town":"Landau","Date":"2019-09-20","Frequency":"Once only","Lat":49.198886,"Lon":8.1185622},{"Country":"Germany","Town":"86899 Landsberg am Lech","Date":"2019-09-20","Frequency":"Once only","Lat":48.050783,"Lon":10.8703515},{"Country":"Germany","Town":"Landshut","Date":"2019-09-20","Frequency":"Once only","Lat":48.5441917,"Lon":12.1468532},{"Country":"Germany","Town":"31275 Lehrte","Date":"2019-09-20","Frequency":"Once only","Lat":52.3746255,"Lon":9.9784211},{"Country":"Germany","Town":"Leipzig","Address":"Augustusplatz|","Time":"15:00 Uhr|","Date":"2019-09-20","Frequency":"Once only","Lat":51.3396955,"Lon":12.3730747},{"Country":"Germany","Town":"Lübeck","Date":"2019-09-20","Frequency":"Once only","Lat":53.8654673,"Lon":10.6865593},{"Country":"Germany","Town":"Ludwigsburg","Date":"2019-09-20","Frequency":"Once only","Lat":48.8940624,"Lon":9.195464},{"Country":"Germany","Town":"Lüneburg","Address":"Marktplatz|","Time":"12:00 Uhr|","Date":"2019-09-20","Frequency":"Once only","Lat":53.2464214,"Lon":10.4115179},{"Country":"Germany","Town":"Mannheim","Date":"2019-09-20","Frequency":"Once only","Lat":49.4874592,"Lon":8.4660395},{"Country":"Germany","Town":"Marburg","Date":"2019-09-20","Frequency":"Once only","Lat":50.8021728,"Lon":8.7667933},{"Country":"Germany","Town":"Mönchengladbach","Date":"2019-09-20","Frequency":"Once only","Lat":51.1804572,"Lon":6.4428041},{"Country":"Germany","Town":"Munich","Date":"2019-09-20","Frequency":"Once only","Lat":48.1351253,"Lon":11.5819805},{"Country":"Germany","Town":"Münster","Address":"Prinzipalmarkt|","Time":"10:00 Uhr|","Date":"2019-09-20","Frequency":"Once only","Lat":51.9606649,"Lon":7.6261347},{"Country":"Germany","Town":"86633 Neuburg an der Donau","Date":"2019-09-20","Frequency":"Once only","Lat":48.7302674,"Lon":11.1887693},{"Country":"Germany","Town":"Neustadt","Date":"2019-09-20","Frequency":"Once only","Lat":49.3501864,"Lon":8.1486886},{"Country":"Germany","Town":"Nuremberg","Date":"2019-09-20","Frequency":"Once only","Lat":49.4521018,"Lon":11.0766654},{"Country":"Germany","Town":"Oberhausen","Date":"2019-09-20","Frequency":"Once only","Lat":51.4963341,"Lon":6.8637765},{"Country":"Germany","Town":"Offenburg","Date":"2019-09-20","Frequency":"Once only","Lat":48.473451,"Lon":7.9498017},{"Country":"Germany","Town":"Osnabrück","Date":"2019-09-20","Frequency":"Once only","Lat":52.2799112,"Lon":8.0471788},{"Country":"Germany","Town":"Ostalbkreis","Date":"2019-09-20","Frequency":"Once only","Lat":48.8308896,"Lon":10.096835},{"Country":"Germany","Town":"Paderborn","Date":"2019-09-20","Frequency":"Once only","Lat":51.7189205,"Lon":8.7575093},{"Country":"Germany","Town":"Pforzheim","Date":"2019-09-20","Frequency":"Once only","Lat":48.8921862,"Lon":8.6946286},{"Country":"Germany","Town":"78315 Radolfzell","Date":"2019-09-20","Frequency":"Once only","Lat":47.745237,"Lon":8.9669098},{"Country":"Germany","Town":"26180 Rastede","Date":"2019-09-20","Frequency":"Once only","Lat":53.2445468,"Lon":8.2005361},{"Country":"Germany","Town":"Recklinghausen","Address":"Bahnhof|","Time":"12:00 Uhr|","Date":"2019-09-20","Frequency":"Once only","Lat":51.6140649,"Lon":7.1979453},{"Country":"Germany","Town":"Rendsburg","Date":"2019-09-20","Frequency":"Once only","Lat":54.3080869,"Lon":9.6606992},{"Country":"Germany","Town":"Reutlingen","Date":"2019-09-20","Frequency":"Once only","Lat":48.5069389,"Lon":9.2038043},{"Country":"Germany","Town":"Rostock","Date":"2019-09-20","Frequency":"Once only","Lat":54.0924406,"Lon":12.0991466},{"Country":"Germany","Town":"Saarbrücken","Date":"2019-09-20","Frequency":"Once only","Lat":49.2401572,"Lon":6.9969327},{"Country":"Germany","Town":"Salzwedel","Date":"2019-09-20","Frequency":"Once only","Lat":52.8503387,"Lon":11.1646679},{"Country":"Germany","Town":"Schweinfurt","Date":"2019-09-20","Frequency":"Once only","Lat":50.0492047,"Lon":10.2194227},{"Country":"Germany","Town":"Stuttgart","Address":"Schlossplatz|","Time":"11:00 Uhr|","Date":"2019-09-20","Frequency":"Once only","Lat":48.7758459,"Lon":9.1829321},{"Country":"Germany","Town":"Tübingen","Date":"2019-09-20","Frequency":"Once only","Lat":48.5216364,"Lon":9.0576448},{"Country":"Germany","Town":"Villingen-Schwenningen","Date":"2019-09-20","Frequency":"Once only","Lat":48.0594021,"Lon":8.4640869},{"Country":"Germany","Town":"82362 Weilheim in Oberbayern","Address":"Theaterplatz|","Time":"11:00 Uhr|","Date":"2019-09-20","Frequency":"Once only","Lat":47.8406859,"Lon":11.1421379},{"Country":"Germany","Town":"21423 Winsen","Address":"Bahnhof|","Time":"10:00 Uhr|","Date":"2019-09-20","Frequency":"Once only","Lat":53.3574436,"Lon":10.2127204},{"Country":"Germany","Town":"Wülfrath","Date":"2019-09-20","Frequency":"Once only","Lat":51.280284,"Lon":7.0349609},{"Country":"Faroe Islands","Town":"Tórshavn","Date":"2019-09-20","Frequency":"Weekly","Lat":62.0107248,"Lon":-6.7740852},{"Country":"Sweden","Town":"Mynttorget, Stockholm","Time":"strike","Date":"2019-09-20","Frequency":"every friday","Lat":59.3267464,"Lon":18.0692843},{"Country":"Germany","Town":"Aachen","Address":"Elisenbrunnen|Elisenbrunnen","Time":"10.00-13.00|10:00 Uhr","Date":"2019-09-20","Frequency":"Every Friday","Lat":50.7753455,"Lon":6.0838868},{"Country":"Germany","Town":"Krefeld","Address":"HBF|HBF|Neumarkt|Krefeld HBF|HBF","Time":"11.00-14.00|15|16.3|11|11:00 Uhr","Date":"2019-09-20","Frequency":"Weekly","Lat":51.3387609,"Lon":6.5853417},{"Country":"Germany","Town":"Osnabrück","Address":"Theatervorplatz|Theatervorplatz","Time":"10|10:00 Uhr","Date":"2019-09-20","Frequency":"Every Friday","Lat":52.2799112,"Lon":8.0471788},{"Country":"Australia","Town":"Bega NSW 2550","Date":"2019-09-20","Frequency":"Every Friday","Lat":-36.6889097,"Lon":149.8416404},{"Country":"Australia","Town":"Melbourne VIC","Date":"2019-09-20","Frequency":"Once only","Lat":-37.8136276,"Lon":144.9630576},{"Country":"UK","Town":"Fort William","Address":"Fort William on footpath outside Lochaber High School","Time":"8.45-9.45","Date":"2019-09-20","Frequency":"weekly","Lat":56.819817,"Lon":-5.1052179},{"Country":"Australia","Town":"Albury–Wodonga","Date":"2019-09-20","Frequency":"Once only","Lat":-36.1583417,"Lon":146.8985944},{"Country":"Australia","Town":"Bairnsdale VIC 3875","Date":"2019-09-20","Frequency":"Once only","Lat":-37.833333,"Lon":147.616667},{"Country":"Australia","Town":"Ballarat VIC","Date":"2019-09-20","Frequency":"Once only","Lat":-37.5621587,"Lon":143.8502556},{"Country":"Australia","Town":"Bendigo VIC 3550","Date":"2019-09-20","Frequency":"Once only","Lat":-36.7570157,"Lon":144.2793906},{"Country":"Australia","Town":"Bright VIC 3741","Date":"2019-09-20","Frequency":"Once only","Lat":-36.7321521,"Lon":146.9836221},{"Country":"Australia","Town":"Echuca VIC 3564","Date":"2019-09-20","Frequency":"Once only","Lat":-36.1459548,"Lon":144.7448007},{"Country":"Australia","Town":"Fish Creek VIC 3959","Date":"2019-09-20","Frequency":"Once only","Lat":-38.7043519,"Lon":146.087727},{"Country":"Australia","Town":"Geelong VIC 3220","Date":"2019-09-20","Frequency":"Once only","Lat":-38.1499181,"Lon":144.3617186},{"Country":"Australia","Town":"Mildura VIC 3500","Date":"2019-09-20","Frequency":"Once only","Lat":-34.2080167,"Lon":142.1245535},{"Country":"Australia","Town":"Olinda VIC 3788","Date":"2019-09-20","Frequency":"Once only","Lat":-37.85599,"Lon":145.364357},{"Country":"Australia","Town":"Sale VIC 3850","Date":"2019-09-20","Frequency":"Once only","Lat":-38.1026004,"Lon":147.073027},{"Country":"Australia","Town":"Traralgon VIC 3844","Date":"2019-09-20","Frequency":"Once only","Lat":-38.2033531,"Lon":146.519786},{"Country":"UK","Town":"London","Address":"Parliament Square","Time":"11.00-14.00","Date":"2019-09-20","Frequency":"weekly","Lat":51.5073509,"Lon":-0.1277583},{"Country":"Australia","Town":"Warrnambool VIC 3280","Date":"2019-09-20","Frequency":"Once only","Lat":-38.3686779,"Lon":142.4982086},{"Country":"Australia","Town":"Shepparton VIC 3630","Date":"2019-09-20","Frequency":"Once only","Lat":-36.383333,"Lon":145.4},{"Country":"Australia","Town":"Sydney NSW","Date":"2019-09-20","Frequency":"Once only","Lat":-33.8688197,"Lon":151.2092955},{"Country":"Australia","Town":"Armidale NSW 2350","Date":"2019-09-20","Frequency":"Once only","Lat":-30.5015616,"Lon":151.6661993},{"Country":"Australia","Town":"Bathurst NSW 2795","Date":"2019-09-20","Frequency":"Once only","Lat":-33.4192822,"Lon":149.5775008},{"Country":"Australia","Town":"Bega NSW 2550","Date":"2019-09-20","Frequency":"Once only","Lat":-36.6889097,"Lon":149.8416404},{"Country":"Australia","Town":"Blue Mountains, New South Wales","Date":"2019-09-20","Frequency":"Once only","Lat":-33.409983,"Lon":150.3037323},{"Country":"Australia","Town":"Bowral NSW 2576","Date":"2019-09-20","Frequency":"Once only","Lat":-34.479167,"Lon":150.418056},{"Country":"Australia","Town":"Bowraville NSW 2449","Date":"2019-09-20","Frequency":"Once only","Lat":-30.633333,"Lon":152.85},{"Country":"Australia","Town":"Byron Bay NSW 2481","Date":"2019-09-20","Frequency":"Once only","Lat":-28.6473671,"Lon":153.601977},{"Country":"Australia","Town":"Cessnock NSW 2325","Date":"2019-09-20","Frequency":"Once only","Lat":-32.8345098,"Lon":151.3624266},{"Country":"Australia","Town":"Coffs Harbour NSW 2450","Date":"2019-09-20","Frequency":"Once only","Lat":-30.298612,"Lon":153.1093922},{"Country":"Australia","Town":"Dubbo NSW 2830","Date":"2019-09-20","Frequency":"Once only","Lat":-32.2315018,"Lon":148.6329645},{"Country":"Australia","Town":"Eden NSW 2551","Date":"2019-09-20","Frequency":"Once only","Lat":-37.066667,"Lon":149.9},{"Country":"Australia","Town":"Forster NSW 2428","Date":"2019-09-20","Frequency":"Once only","Lat":-32.180556,"Lon":152.511667},{"Country":"Australia","Town":"Gosford NSW 2250","Date":"2019-09-20","Frequency":"Once only","Lat":-33.426667,"Lon":151.341667},{"Country":"Australia","Town":"Grafton NSW 2460","Date":"2019-09-20","Frequency":"Once only","Lat":-29.6816894,"Lon":152.9336547},{"Country":"Australia","Town":"Gulgong NSW 2852","Date":"2019-09-20","Frequency":"Once only","Lat":-32.35,"Lon":149.533333},{"Country":"Australia","Town":"Gunnedah NSW 2380","Date":"2019-09-20","Frequency":"Once only","Lat":-30.9922968,"Lon":150.2368919},{"Country":"Australia","Town":"Katoomba NSW 2780","Date":"2019-09-20","Frequency":"Once only","Lat":-33.7125,"Lon":150.311944},{"Country":"Australia","Town":"Kempsey NSW 2440","Date":"2019-09-20","Frequency":"Once only","Lat":-31.0604769,"Lon":152.8481977},{"Country":"Australia","Town":"Leeton NSW 2705","Date":"2019-09-20","Frequency":"Once only","Lat":-34.566667,"Lon":146.4},{"Country":"Australia","Town":"Lismore NSW 2480","Date":"2019-09-20","Frequency":"Once only","Lat":-28.8093154,"Lon":153.2882876},{"Country":"UK","Town":"Ullapool","Address":"Ullapool Primary School","Time":"11.00-14.00","Date":"2019-09-20","Frequency":"weekly","Lat":57.895418,"Lon":-5.161313},{"Country":"Australia","Town":"Mudgee NSW 2850","Date":"2019-09-20","Frequency":"Once only","Lat":-32.6144566,"Lon":149.5733291},{"Country":"Australia","Town":"Nambucca Heads NSW 2448","Date":"2019-09-20","Frequency":"Once only","Lat":-30.6419702,"Lon":152.9978834},{"Country":"Australia","Town":"Narooma NSW 2546","Date":"2019-09-20","Frequency":"Once only","Lat":-36.2419463,"Lon":150.1081935},{"Country":"Australia","Town":"Newcastle NSW","Date":"2019-09-20","Frequency":"Once only","Lat":-32.9282712,"Lon":151.7816802},{"Country":"Australia","Town":"Nowra NSW 2541","Date":"2019-09-20","Frequency":"Once only","Lat":-34.883333,"Lon":150.6},{"Country":"Australia","Town":"Orange NSW 2800","Date":"2019-09-20","Frequency":"Once only","Lat":-33.283333,"Lon":149.1},{"Country":"Australia","Town":"Pennant Hills NSW 2120","Date":"2019-09-20","Frequency":"Once only","Lat":-33.738881,"Lon":151.0723841},{"Country":"Australia","Town":"Port Macquarie NSW 2444","Date":"2019-09-20","Frequency":"Once only","Lat":-31.433333,"Lon":152.9},{"Country":"Australia","Town":"Moruya NSW 2537","Date":"2019-09-20","Frequency":"Once only","Lat":-35.9073095,"Lon":150.0928052},{"Country":"Australia","Town":"Pottsville NSW 2489","Date":"2019-09-20","Frequency":"Once only","Lat":-28.3877489,"Lon":153.5580894},{"Country":"Australia","Town":"Wollar NSW 2850","Date":"2019-09-20","Frequency":"Once only","Lat":-32.3425728,"Lon":149.9527765},{"Country":"Australia","Town":"Tamworth NSW 2340","Date":"2019-09-20","Frequency":"Once only","Lat":-31.092748,"Lon":150.9320334},{"Country":"Australia","Town":"Taree NSW 2430","Date":"2019-09-20","Frequency":"Once only","Lat":-31.8894897,"Lon":152.4444453},{"Country":"Australia","Town":"Tweed Heads NSW","Date":"2019-09-20","Frequency":"Once only","Lat":-28.1786656,"Lon":153.5370011},{"Country":"Australia","Town":"Ulladulla NSW 2539","Date":"2019-09-20","Frequency":"Once only","Lat":-35.3572426,"Lon":150.4613249},{"Country":"Australia","Town":"Wagga Wagga NSW 2650","Date":"2019-09-20","Frequency":"Once only","Lat":-35.1081689,"Lon":147.3598323},{"Country":"Australia","Town":"Wollongong NSW 2500","Date":"2019-09-20","Frequency":"Once only","Lat":-34.4278121,"Lon":150.8930607},{"Country":"Australia","Town":"Brisbane QLD","Date":"2019-09-20","Frequency":"Once only","Lat":-27.4697707,"Lon":153.0251235},{"Country":"Australia","Town":"Atherton QLD 4883","Date":"2019-09-20","Frequency":"Once only","Lat":-17.2660801,"Lon":145.4858599},{"Country":"Australia","Town":"Bundaberg Central QLD 4670","Date":"2019-09-20","Frequency":"Once only","Lat":-24.8669736,"Lon":152.3509714},{"Country":"Australia","Town":"Cairns QLD","Date":"2019-09-20","Frequency":"Once only","Lat":-16.9185514,"Lon":145.7780548},{"Country":"Australia","Town":"Gladstone Central QLD 4680","Date":"2019-09-20","Frequency":"Once only","Lat":-23.8415948,"Lon":151.2497708},{"Country":"Australia","Town":"Gold Coast QLD","Date":"2019-09-20","Frequency":"Once only","Lat":-28.016667,"Lon":153.4},{"Country":"Australia","Town":"Hervey Bay QLD 4655","Date":"2019-09-20","Frequency":"Once only","Lat":-25.2881539,"Lon":152.7676633},{"Country":"Australia","Town":"Mackay QLD 4740","Date":"2019-09-20","Frequency":"Once only","Lat":-21.1424956,"Lon":149.1821469},{"Country":"Australia","Town":"Mossman QLD 4873","Date":"2019-09-20","Frequency":"Once only","Lat":-16.45,"Lon":145.373333},{"Country":"Australia","Town":"Rockhampton QLD 4700","Date":"2019-09-20","Frequency":"Once only","Lat":-23.3790772,"Lon":150.510016},{"Country":"Australia","Town":"Sunshine Coast QLD","Date":"2019-09-20","Frequency":"Once only","Lat":-26.65,"Lon":153.066667},{"Country":"Australia","Town":"Toowoomba QLD","Date":"2019-09-20","Frequency":"Once only","Lat":-27.5598212,"Lon":151.9506696},{"Country":"Australia","Town":"Townsville QLD 4810","Date":"2019-09-20","Frequency":"Once only","Lat":-19.2589635,"Lon":146.8169483},{"Country":"Australia","Town":"Whitsunday Islands, Queensland","Date":"2019-09-20","Frequency":"Once only","Lat":-20.1862425,"Lon":148.7268546},{"Country":"Australia","Town":"Yeppoon QLD 4703","Date":"2019-09-20","Frequency":"Once only","Lat":-23.133333,"Lon":150.733333},{"Country":"Australia","Town":"Albany WA 6330","Date":"2019-09-20","Frequency":"Once only","Lat":-35.0269344,"Lon":117.8837206},{"Country":"Australia","Town":"Broome WA 6725","Date":"2019-09-20","Frequency":"Once only","Lat":-17.9644291,"Lon":122.2303657},{"Country":"Australia","Town":"Bunbury WA 6230","Date":"2019-09-20","Frequency":"Once only","Lat":-33.3209971,"Lon":115.6383482},{"Country":"Australia","Town":"Esperance WA 6450","Date":"2019-09-20","Frequency":"Once only","Lat":-33.8613103,"Lon":121.8914238},{"Country":"Australia","Town":"Geraldton WA 6530","Date":"2019-09-20","Frequency":"Once only","Lat":-28.7796535,"Lon":114.6144452},{"Country":"Australia","Town":"Margaret River WA 6285","Date":"2019-09-20","Frequency":"Once only","Lat":-33.9610465,"Lon":115.0767388},{"Country":"Australia","Town":"Nannup WA 6275","Date":"2019-09-20","Frequency":"Once only","Lat":-33.9821434,"Lon":115.7680471},{"Country":"Australia","Town":"Perth WA","Date":"2019-09-20","Frequency":"Once only","Lat":-31.9505269,"Lon":115.8604572},{"Country":"Australia","Town":"Vasse WA 6280","Date":"2019-09-20","Frequency":"Once only","Lat":-33.6741502,"Lon":115.2529009},{"Country":"Australia","Town":"Devonport TAS 7310","Date":"2019-09-20","Frequency":"Once only","Lat":-41.1770585,"Lon":146.3451775},{"Country":"Australia","Town":"Hobart TAS 7000","Date":"2019-09-20","Frequency":"Once only","Lat":-42.8821377,"Lon":147.3271949},{"Country":"Australia","Town":"Launceston TAS 7250","Date":"2019-09-20","Frequency":"Once only","Lat":-41.4332215,"Lon":147.1440875},{"Country":"Australia","Town":"Alice Springs NT 0870","Date":"2019-09-20","Frequency":"Once only","Lat":-23.698042,"Lon":133.8807471},{"Country":"Australia","Town":"Darwin NT","Date":"2019-09-20","Frequency":"Once only","Lat":-12.4634403,"Lon":130.8456418},{"Country":"Australia","Town":"Jabiru NT 0886","Date":"2019-09-20","Frequency":"Once only","Lat":-12.666667,"Lon":132.833333},{"Country":"Australia","Town":"Katherine NT 0850","Date":"2019-09-20","Frequency":"Once only","Lat":-14.4521139,"Lon":132.2715145},{"Country":"Australia","Town":"Naracoorte SA 5271","Date":"2019-09-20","Frequency":"Once only","Lat":-36.9602102,"Lon":140.7413243},{"Country":"Australia","Town":"Adelaide SA","Date":"2019-09-20","Frequency":"Once only","Lat":-34.9284989,"Lon":138.6007456},{"Country":"Australia","Town":"Canberra ACT 2601","Date":"2019-09-20","Frequency":"Once only","Lat":-35.2809368,"Lon":149.1300092},{"Country":"Australia","Town":"Clare SA 5453","Date":"2019-09-20","Frequency":"Once only","Lat":-33.8397986,"Lon":138.6127513},{"Country":"Australia","Town":"Port Lincoln SA 5606","Date":"2019-09-20","Frequency":"Once only","Lat":-34.7239963,"Lon":135.8611498},{"Country":"Australia","Address":"House-bound","Date":"2019-09-20","Frequency":"Once only","Lat":-25.274398,"Lon":133.775136},{"Country":"Australia","Town":"Springwood NSW 2777","Date":"2019-09-20","Frequency":"Once only","Lat":-33.7,"Lon":150.55},{"Country":"UK","Town":"London","Address":"In front of townhall|Parliament Square|Parliament Square|Parliament Square|In front of townhall|In front of townhall|In front of townhall|In front of townhall|Parliament Square","Time":"At 12.00-13.00 (noon to 1pm)|At 12.00-13.00 (noon to 1pm)|At 12.00-13.00 (noon to 1pm)|At 12.00-13.00 (noon to 1pm)|At 12.00-13.00 (noon to 1pm)|11-12|At 12.00-13.00 (noon to 1pm)|At 12.00-13.00 (noon to 1pm)|12:00-13:00","Date":"2019-09-20","Frequency":"Every Friday","Lat":51.5073509,"Lon":-0.1277583},{"Country":"Canada","Address":"Plaza de la Aduana|Esthercita Forero","Time":"10:00 Uhr","Date":"2019-09-27","Frequency":"Once only","Lat":56.130366,"Lon":-106.346771},{"Country":"Norway","Town":"Oslo","Address":"In front of townhall|Rådhuset|Eidsvolls plass","Time":"At 12.00-13.00 (noon to 1pm)|11:00-14:00|12:00-14:00","Date":"2019-09-20","Frequency":"Weekly","Lat":59.9138688,"Lon":10.7522454},{"Country":"Colombia","Town":"Santa Marta, Magdalena","Address":"Parque Santander","Date":"2019-09-20","Frequency":"Global","Lat":11.2403547,"Lon":-74.2110227},{"Country":"Colombia","Town":"Minca, Santa Marta, Magdalena","Address":"Plaza Central","Date":"2019-09-20","Frequency":"Global","Lat":11.142812,"Lon":-74.116677},{"Country":"Colombia","Town":"Palomino, Dibulla, La Guajira","Address":"Playas","Date":"2019-09-20","Frequency":"Global","Lat":11.2451212,"Lon":-73.5593968},{"Country":"Colombia","Town":"San Andrés, San Andrés and Providencia","Address":"Gobernación","Date":"2019-09-20","Frequency":"Weekly","Lat":12.5450153,"Lon":-81.7075787},{"Country":"Colombia","Town":"Medellin, Antioquia","Address":"Alcaldía.","Date":"2019-09-20","Frequency":"Weekly","Lat":6.244203,"Lon":-75.5812119},{"Country":"Colombia","Town":"Copacabana, Antioquia","Address":"Plaza.","Date":"2019-09-20","Frequency":"Weekly","Lat":6.357621,"Lon":-75.505078},{"Country":"Colombia","Town":"Bello, Antioquia","Address":"Plaza.","Date":"2019-09-20","Frequency":"Weekly","Lat":6.3367288,"Lon":-75.5595887},{"Country":"Colombia","Town":"Cali, Valle del Cauca","Address":"Bulevar del Río","Date":"2019-09-20","Frequency":"Weekly","Lat":3.4516467,"Lon":-76.5319854},{"Country":"Colombia","Town":"Yumbo, Valle del Cauca","Address":"Parque Belalcazar","Date":"2019-09-20","Frequency":"Weekly","Lat":3.545337,"Lon":-76.495026},{"Country":"Colombia","Town":"Cra. 6 ## 26B-85, Bogotá, Cundinamarca","Address":"Plaza de Bolivar","Date":"2019-09-20","Frequency":"Weekly","Lat":4.6133379,"Lon":-74.0689959},{"Country":"Colombia","Town":"Cachipay, Caparrapí, Cundinamarca","Address":"Parque Principal.","Date":"2019-09-20","Frequency":"Global","Lat":5.26674,"Lon":-74.56672},{"Country":"Colombia","Town":"Mosquera, Cundinamarca","Address":"Parque Principal.","Date":"2019-09-20","Frequency":"Global","Lat":4.706035,"Lon":-74.230101},{"Country":"Colombia","Town":"Chía, Cundinamarca","Address":"Parque Principal.","Date":"2019-09-20","Frequency":"Global","Lat":4.8615787,"Lon":-74.0325368},{"Country":"Colombia","Town":"Chiquinquirá, Boyaca","Address":"Plaza de Bolívar.","Date":"2019-09-20","Frequency":"Global","Lat":5.614775,"Lon":-73.819571},{"Country":"Colombia","Town":"Yopal, Casanare","Address":"Parque Santander","Date":"2019-09-20","Frequency":"Global","Lat":5.348903,"Lon":-72.400523},{"Country":"Colombia","Town":"Calamar, Guaviare","Address":"Parque Principal.","Date":"2019-09-20","Frequency":"Global","Lat":1.920614,"Lon":-72.554237},{"Country":"Colombia","Town":"Florencia, Caquetá","Address":"Plaza Principal","Date":"2019-09-20","Frequency":"Global","Lat":1.6153858,"Lon":-75.6042364},{"Country":"Colombia","Town":"Bucaramanga, Santander","Address":"Plaza Luis Carlos Galan","Date":"2019-09-20","Frequency":"Global","Lat":7.119349,"Lon":-73.1227416},{"Country":"Colombia","Town":"Cúcuta, Cucuta, North Santander","Address":"Parque Santander","Date":"2019-09-20","Frequency":"Weekly","Lat":7.8890971,"Lon":-72.4966896},{"Country":"Colombia","Town":"Meta","Address":"Parque Central","Date":"2019-09-20","Frequency":"Weekly","Lat":3.2719904,"Lon":-73.087749},{"Country":"Colombia","Town":"Leticia, Amazonas Department","Address":"Parque Santander","Date":"2019-09-20","Frequency":"Weekly","Lat":-4.203165,"Lon":-69.935907},{"Country":"Colombia","Town":"Neiva, Huila","Address":"Parque Central Santander","Date":"2019-09-20","Frequency":"Global","Lat":2.9344837,"Lon":-75.2809001},{"Country":"Colombia","Town":"Ibagué, Ibague, Tolima","Address":"Alcadia Municipal.","Date":"2019-09-20","Frequency":"Weekly","Lat":4.444676,"Lon":-75.242438},{"Country":"Colombia","Town":"Valledupar, Cesar","Address":"Plaza Alfondo Lopez","Date":"2019-09-20","Frequency":"Global","Lat":10.4742449,"Lon":-73.2436335},{"Country":"Colombia","Town":"Cl. 14 #numero, 23-156, Pereira, Risaralda","Address":"Plaza de Bolivar","Date":"2019-09-20","Frequency":"Global","Lat":4.7995471,"Lon":-75.6917841},{"Country":"Colombia","Town":"Armenia, Quindio","Address":"Plaza de Bolivar","Date":"2019-09-20","Frequency":"Global","Lat":4.5350004,"Lon":-75.6756888},{"Country":"Denmark","Town":"Aalborg","Date":"2019-09-20","Frequency":"Once only","Lat":57.0488195,"Lon":9.921747},{"Country":"Denmark","Town":"Aarhus","Date":"2019-09-20","Frequency":"Once only","Lat":56.162939,"Lon":10.203921},{"Country":"Denmark","Town":"Esbjerg","Date":"2019-09-20","Frequency":"Once only","Lat":55.476466,"Lon":8.459405},{"Country":"Denmark","Town":"6100 Haderslev","Date":"2019-09-20","Frequency":"Once only","Lat":55.250072,"Lon":9.48911},{"Country":"Denmark","Town":"3400 Hillerød","Date":"2019-09-20","Frequency":"Once only","Lat":55.927909,"Lon":12.300806},{"Country":"Denmark","Town":"Copenhagen","Date":"2019-09-20","Frequency":"Once only","Lat":55.6760968,"Lon":12.5683372},{"Country":"Denmark","Town":"9240 Nibe","Date":"2019-09-20","Frequency":"Once only","Lat":56.982526,"Lon":9.63994},{"Country":"Denmark","Town":"Odense","Date":"2019-09-20","Frequency":"Once only","Lat":55.403756,"Lon":10.40237},{"Country":"Denmark","Town":"6760 Ribe","Date":"2019-09-20","Frequency":"Once only","Lat":55.326936,"Lon":8.774665},{"Country":"Denmark","Town":"4000 Roskilde","Date":"2019-09-20","Frequency":"Once only","Lat":55.64191,"Lon":12.087845},{"Country":"Denmark","Town":"3700 Ronne","Date":"2019-09-20","Frequency":"Once only","Lat":55.101017,"Lon":14.708329},{"Country":"Denmark","Town":"Denmark, Copenhagen University, Rolighedsvej 30, 1958 Frederiksberg","Date":"2019-09-20","Frequency":"Once only","Lat":55.683622,"Lon":12.544744},{"Country":"Denmark","Town":"8600 Silkeborg","Date":"2019-09-20","Frequency":"Once only","Lat":56.176362,"Lon":9.5549217},{"Country":"Denmark","Town":"8660 Skanderborg","Date":"2019-09-20","Frequency":"Once only","Lat":56.037247,"Lon":9.9297989},{"Country":"Denmark","Town":"5700 Svendborg","Date":"2019-09-20","Frequency":"Once only","Lat":55.067434,"Lon":10.607282},{"Country":"Denmark","Town":"Vejle","Date":"2019-09-20","Frequency":"Once only","Lat":55.7113112,"Lon":9.536354},{"Country":"Denmark","Town":"8800 Viborg","Date":"2019-09-20","Frequency":"Once only","Lat":56.452027,"Lon":9.3963471},{"Country":"Denmark","Town":"5500 Middelfart","Date":"2019-09-20","Frequency":"Once only","Lat":55.497204,"Lon":9.747172},{"Country":"Denmark","Town":"Aarhus","Date":"2019-09-27","Frequency":"Once only","Lat":56.162939,"Lon":10.203921},{"Country":"Denmark","Town":"Copenhagen","Date":"2019-09-27","Frequency":"Once only","Lat":55.6760968,"Lon":12.5683372},{"Country":"Denmark","Town":"Aalborg","Date":"2019-09-27","Frequency":"Once only","Lat":57.0488195,"Lon":9.921747},{"Country":"Denmark","Town":"4000 Roskilde","Date":"2019-09-27","Frequency":"Once only","Lat":55.64191,"Lon":12.087845},{"Country":"Denmark","Town":"5500 Middelfart","Date":"2019-09-27","Frequency":"Once only","Lat":55.497204,"Lon":9.747172},{"Country":"Denmark","Town":"Odense","Date":"2019-09-27","Frequency":"Once only","Lat":55.403756,"Lon":10.40237},{"Country":"Sweden","Town":"Stockholm","Address":"In front of townhall|In front of townhall|Mynttorget |In front of townhall","Time":"At 12.00-13.00 (noon to 1pm)|16-17|8-15 (PFF 12-13)|Kl. 12.00-13.00","Date":"2019-09-20","Frequency":"Weekly","Lat":59.3293235,"Lon":18.0685808},{"Country":"Sweden","Town":"Linköping","Address":"In front of townhall","Time":"15-17","Date":"2019-09-20","Frequency":"Weekly","Lat":58.410807,"Lon":15.6213728},{"Country":"Germany","Town":"Düsseldorf","Address":"Landtag","Time":"Kl. 12.00-13.00","Date":"2019-09-20","Frequency":"Weekly","Lat":51.2277411,"Lon":6.7734556},{"Country":"USA","Town":"Arcata","Address":"Humboldt Arcata plaza","Time":"1-3:30pm","Date":"2019-09-20","Frequency":"Weekly","Lat":40.8665166,"Lon":-124.0828396},{"Country":"Turkey","Town":"Adıyaman, Adıyaman Merkez/Adıyaman Province","Address":"In front of townhall","Time":"Kl. 12.00-13.00","Date":"2019-09-20","Frequency":"Weekly","Lat":37.76365,"Lon":38.2772592},{"Country":"Uganda","Town":"Kampala","Address":"Bugolobi","Time":"Kl. 12.00-13.00","Date":"2019-09-22","Frequency":"Weekly","Lat":0.3475964,"Lon":32.5825197},{"Country":"Czechia","Town":"Prague","Address":"march thru city centre|Society here is not ready to strike, we need to build a community.","Time":"10-16|By collecting and sharing global know-how/tools.","Date":"2019-09-20","Frequency":"Weekly","Lat":50.0755381,"Lon":14.4378005},{"Country":"Germany","Town":"Stuttgart","Address":"In front of townhall","Time":"11.00-13.00","Date":"2019-09-20","Frequency":"Weekly","Lat":48.7758459,"Lon":9.1829321},{"Country":"Germany","Town":"Osnabrück","Address":"In front of townhall","Time":"08.00 - 14.00","Date":"2019-09-20","Frequency":"Weekly","Lat":52.2799112,"Lon":8.0471788},{"Country":"Sweden","Town":"Bollebygd","Address":"In front of townhall","Time":"Kl. 11:00-17:00","Date":"2019-09-20","Frequency":"Weekly","Lat":57.6689691,"Lon":12.5701433},{"Country":"UK","Town":"Fort William","Address":"On the footpath outside Lochaber High School","Time":"0845 - 0945","Date":"2019-09-20","Frequency":"Weekly","Lat":56.819817,"Lon":-5.1052179},{"Country":"Tanzania","Town":"Arusha","Address":"In front of townhall","Time":"Kl. 12.00-13.00","Date":"2019-09-26","Frequency":"Weekly","Lat":-3.3869254,"Lon":36.6829927},{"Country":"Germany","Town":"23795 Bad Segeberg","Address":"Marketplace , Bad Segeberg","Time":"8:30 - 12:00","Date":"2019-09-20","Frequency":"Weekly","Lat":53.9390528,"Lon":10.3053652},{"Country":"Sweden","Town":"Härnösand","Address":"In front of townhall","Time":"Kl. 12.00-13.00","Date":"2019-09-20","Frequency":"Weekly","Lat":62.6322698,"Lon":17.9408714},{"Country":"Sweden","Town":"Gislaved","Address":"In front of townhall|In front of townhall","Time":"14-16|Torsdagar 14.30-15.30","Date":"2019-09-26","Frequency":"Weekly","Lat":57.2985,"Lon":13.54326},{"Country":"Italy","Town":"Milan, Metropolitan City of Milan","Address":"In front of townhall|In front of townhall","Time":"09.00-10.00|12:30-13:15","Date":"2019-09-20","Frequency":"Weekly","Lat":45.4642035,"Lon":9.189982},{"Country":"Sweden","Town":"Ånge","Address":"In front of townhall","Time":"Kl. 12.00-13.00","Date":"2019-09-20","Frequency":"Weekly","Lat":62.5228738,"Lon":15.6589419},{"Country":"Sweden","Town":"Ekerö Municipality","Address":"Ekerö Centrum & in front of town hall","Time":"16.00-17.30","Date":"2019-09-20","Frequency":"Weekly","Lat":59.359052,"Lon":17.6694942},{"Country":"Sweden","Town":"Kristianstad","Address":"In front of townhall","Time":"13.00-14.00","Date":"2019-09-20","Frequency":"Weekly","Lat":56.0293936,"Lon":14.1566779},{"Country":"Italy","Town":"Pisa, Province of Pisa","Address":"In front of townhall","Time":"9.00-11.00","Date":"2019-09-20","Frequency":"Weekly","Lat":43.7228386,"Lon":10.4016888},{"Country":"Canada","Town":"Vancouver, BC","Address":"Environment and Climate Change Canada Office, 401 Burrard Street, Vancouver, BC, V6C3S5","Time":"9am, Pacific Time","Date":"2019-09-20","Frequency":"Weekly","Lat":49.2827291,"Lon":-123.1207375},{"Country":"Sweden","Town":"Växjö","Address":"Växjö Kommunhus","Time":"15-16","Date":"2019-09-20","Frequency":"Weekly","Lat":56.8790044,"Lon":14.8058523},{"Country":"Sweden","Town":"Falkenberg","Address":"In front of townhall","Time":"16-17","Date":"2019-09-20","Frequency":"Weekly","Lat":56.9027333,"Lon":12.4888013},{"Country":"Finland","Town":"Jakobstad","Address":"invid rådhuset","Time":"15.00-16.00","Date":"2019-09-20","Frequency":"Weekly","Lat":63.6744036,"Lon":22.6966088},{"Country":"Finland","Town":"Salo","Address":"In front of townhall","Time":"10-12","Date":"2019-09-20","Frequency":"Weekly","Lat":60.3900183,"Lon":23.1171797},{"Country":"USA","Town":"New York","Address":"In front of the United Nations Headquarters at 1st Ave and 46th Street","Time":"varies - please contact directly","Date":"2019-09-20","Frequency":"Weekly","Lat":40.7127753,"Lon":-74.0059728},{"Country":"Sweden","Town":"Årsta, Enskede-Årsta-Vantör, Stockholm","Address":"In front of townhall","Time":"Kl. 12.00-13.00","Date":"2019-09-20","Frequency":"Weekly","Lat":59.2989205,"Lon":18.0508926},{"Country":"Sweden","Town":"Falun","Address":"In front of townhall","Time":"16.00-17.00","Date":"2019-09-20","Frequency":"Weekly","Lat":60.60646,"Lon":15.6355},{"Country":"USA","Town":"Pasadena","Address":"In front of townhall","Time":"8:15am local time","Date":"2019-09-20","Frequency":"Weekly","Lat":34.1477849,"Lon":-118.1445155},{"Country":"USA","Town":"Gettysburg","Address":"Gettysburg Square-York St. Crosswalk ","Time":"11AM-1PM","Date":"2019-09-20","Frequency":"Weekly","Lat":39.8309293,"Lon":-77.2310955},{"Country":"Italy","Town":"Turin, Metropolitan City of Turin","Address":"Turin, Piazza Castello","Time":"15:00-17:00","Date":"2019-09-20","Frequency":"Weekly","Lat":45.0703393,"Lon":7.686864},{"Country":"Sweden","Town":"Borås","Address":"In front of old townhall","Time":"Kl. 12.00-13.00","Date":"2019-09-20","Frequency":"Weekly","Lat":57.721035,"Lon":12.939819},{"Country":"Sweden","Town":"Mora","Address":"gågatan","Time":"16.00-17.00","Date":"2019-09-20","Frequency":"Weekly","Lat":61.004878,"Lon":14.537003},{"Country":"Finland","Town":"Tampere","Address":"In front of townhall","Time":"11-13","Date":"2019-09-20","Frequency":"Weekly","Lat":61.4977524,"Lon":23.7609535},{"Country":"Italy","Town":"Rome, Metropolitan City of Rome","Address":"In front of townhall|In front of townhall|In front of Italian Parliament|In front of townhall|In front of Italian Parliament","Time":"At 12.00-13.00 (noon to 1pm)|At 12.00-13.00 (noon to 1pm)|14,30-15,30|Kl. 12.00-13.00|14,00-15,00","Date":"2019-09-20","Frequency":"Weekly","Lat":41.9027835,"Lon":12.4963655},{"Country":"UK","Town":"Ullapool","Address":"At the Primary School","Time":"08:45 - 09:45 GMT","Date":"2019-09-20","Frequency":"Weekly","Lat":57.895418,"Lon":-5.161313},{"Country":"Italy","Town":"22100 Como, Province of Como","Address":"Broletto Piazza Duomo","Time":"13:00-15:00","Date":"2019-09-21","Frequency":"Weekly","Lat":45.8080597,"Lon":9.0851765},{"Country":"Australia","Town":"Ocean Grove VIC 3226","Address":"In front of all electorate offices of the Australian Parliament","Time":"Any time  you are able","Date":"2019-09-20","Frequency":"Weekly","Lat":-38.25,"Lon":144.516667},{"Country":"Sweden","Town":"Trosa","Address":"Playground close to townhall","Time":"12.30 - 13.30","Date":"2019-09-20","Frequency":"Weekly","Lat":58.902655,"Lon":17.5494637},{"Country":"Sweden","Town":"Karlskrona","Address":"Klaipeda|Klaipedaplatsen ","Time":"Kl. 12.00-13.00|Kl. 12.00-13.00","Date":"2019-09-20","Frequency":"Weekly","Lat":56.161224,"Lon":15.5869001},{"Country":"New Zealand","Town":"Palmerston North","Address":"In the square, outside the Council Building","Time":"9am - 12noon","Date":"2019-09-23","Frequency":"Weekly","Lat":-40.3523065,"Lon":175.6082145},{"Country":"Australia","Town":"Geelong VIC 3220","Address":"Infront of representative of parliament","Time":"10-3","Date":"2019-09-20","Frequency":"Weekly","Lat":-38.1499181,"Lon":144.3617186},{"Country":"Turkey","Town":"Istanbul","Address":"Bilnet, Bahcekoy Okullari|Karaköy/Lycee Saint Benoit","Time":"At 12.00-13.00 (noon to 1pm)|14.40-15.30","Date":"2019-09-20","Frequency":"Weekly","Lat":41.0082376,"Lon":28.9783589},{"Country":"France","Town":"Paris","Address":"National Assembly (France)","Time":"All the day","Date":"2019-09-20","Frequency":"Weekly","Lat":48.856614,"Lon":2.3522219},{"Country":"Sweden","Town":"Helsingborg","Address":"In front of townhall","Time":"16.00-16.30","Date":"2019-09-24","Frequency":"Weekly","Lat":56.0464674,"Lon":12.6945121},{"Country":"Sweden","Town":"Landskrona","Address":"Rådhustorget","Time":"12.00-12.30","Date":"2019-09-20","Frequency":"Weekly","Lat":55.8703477,"Lon":12.8300802},{"Country":"Finland","Town":"Vaasa","Address":"In front of townhall","Time":"10-12","Date":"2019-09-20","Frequency":"Weekly","Lat":63.095089,"Lon":21.6164564},{"Country":"Ireland","Town":"Cork","Address":"In front of townhall","Time":"9:00-15:50","Date":"2019-09-20","Frequency":"Weekly","Lat":51.8985143,"Lon":-8.4756035},{"Country":"UK","Town":"Edinburgh","Address":"Scottish Parliament Building|In front of Parliament","Time":"11.00-13.00|11-13","Date":"2019-09-20","Frequency":"Weekly","Lat":55.953252,"Lon":-3.188267},{"Country":"Sweden","Town":"Frescati Stockholm","Address":"Stockholm University (check exact location on facebook page)","Time":"Kl. 12.00-13.00","Date":"2019-09-20","Frequency":"Weekly","Lat":59.3657952,"Lon":18.0469621},{"Country":"France","Town":"38220 Vizille","Address":"Rally in the school and demonstration in front of the town hall","Time":"10am - 12am  13pm - 17pm","Date":"2019-09-20","Frequency":"Weekly","Lat":45.077318,"Lon":5.772412},{"Country":"Ireland","Town":"Dublin","Address":"In front of the Dàil (Irish parliament)","Time":"1pm - 2pm","Date":"2019-09-20","Frequency":"Weekly","Lat":53.3498053,"Lon":-6.2603097},{"Country":"USA","Town":"Orange","Address":"In front of townhall","Time":"07:30 - 10:30 AM","Date":"2019-09-20","Frequency":"Weekly","Lat":33.7879139,"Lon":-117.8531007},{"Country":"UK","Town":"London","Address":"46 Stafford Cripps House |In front of Westminster ","Time":"At 12.00-13.00 (noon to 1pm)|Kl. 12.00-13.00","Date":"2019-09-20","Frequency":"Weekly","Lat":51.5073509,"Lon":-0.1277583},{"Country":"Spain","Town":"Barcelona","Address":"In front of townhall","Time":"At 12.00-13.00 (noon to 1pm)","Date":"2019-09-24","Frequency":"Weekly","Lat":41.3850639,"Lon":2.1734035},{"Country":"Italy","Town":"Bari, Metropolitan City of Bari","Address":"Piazza Prefettura","Time":"At 12.00-13.00 (noon to 1pm)","Date":"2019-09-20","Frequency":"Every Friday","Lat":41.1171432,"Lon":16.8718715},{"Country":"Italy","Town":"Modena, Province of Modena","Address":"In front of townhall|In front of townhall","Time":"18|At 14:30-15:30","Date":"2019-09-20","Frequency":"Weekly","Lat":44.647128,"Lon":10.9252269},{"Country":"Italy","Town":"33100 Udine, Province of Udine","Address":"school Tiepolo|Piazza Libertà |Piazza Libertà ","Time":"at 8.00-10.00|12:15-14:00|11:30-14:00","Date":"2019-09-20","Frequency":"Every Friday","Lat":46.0710668,"Lon":13.2345794},{"Country":"Italy","Town":"70029 Santeramo in Colle, Metropolitan City of Bari","Address":"In front of townhall","Time":"at 09,30 - 13,00","Date":"2019-09-20","Frequency":"Weekly","Lat":40.7918083,"Lon":16.7528602},{"Country":"Montenegro","Town":"Podgorica","Address":"In front of townhall","Time":"At 12.00-13.00 (noon to 1pm)","Date":"2019-09-22","Frequency":"Weekly","Lat":42.4304196,"Lon":19.2593642},{"Country":"Sweden","Town":"Kristianstad","Address":"In front of townhall|In front of townhall|In front of townhall|In front of townhall|In front of townhall","Time":"12-14|12-14 |12.00-14.00|12.00-14.00|13.00-14.00","Date":"2019-09-20","Frequency":"Every Friday","Lat":56.0293936,"Lon":14.1566779},{"Country":"Sweden","Town":"Umeå","Address":"In front of townhall","Time":"11-14","Date":"2019-09-20","Frequency":"Every Friday","Lat":63.8258471,"Lon":20.2630354},{"Country":"USA","Town":"Eugene","Address":"Wayne Morse US Courthouse, 405 E. 8th Ave.","Time":"8 am - 5 pm","Date":"2019-09-20","Frequency":"Every Friday","Lat":44.0520691,"Lon":-123.0867536},{"Country":"France","Town":"40100 Dax","Address":"In front of townhall","Time":"08.00-18.00","Date":"2019-09-20","Frequency":"Every Friday","Lat":43.708608,"Lon":-1.051945},{"Country":"Canada","Town":"Belleville, ON","Address":"In front of townhall","Time":"08.00-11.00","Date":"2019-09-20","Frequency":"Every Friday","Lat":44.1627589,"Lon":-77.3832315},{"Country":"Norway","Town":"Gjerstad Municipality","Address":"municipalitihouse","Time":"15.30 - 16.30","Date":"2019-09-20","Frequency":"Every Friday","Lat":58.8801349,"Lon":9.0178169},{"Country":"Italy","Town":"Florence, Metropolitan City of Florence","Address":"In front of townhall","Time":"14-15","Date":"2019-09-20","Frequency":"Every Friday","Lat":43.7695604,"Lon":11.2558136},{"Country":"USA","Town":"Harahan","Address":"In front of townhall","Time":"2:00-6:00","Date":"2019-09-20","Frequency":"Every Friday","Lat":29.9404826,"Lon":-90.2031313},{"Country":"Italy","Town":"Parma, Province of Parma","Address":"In front of townhall","Time":"18.00 -19.00","Date":"2019-09-20","Frequency":"Every Friday","Lat":44.801485,"Lon":10.3279036},{"Country":"Italy","Town":"Trento, Province of Trento","Address":"Chini","Time":"At 12.00-13.00 (noon to 1pm)","Date":"2019-09-25","Frequency":"Weekly","Lat":46.0747793,"Lon":11.1217486},{"Country":"Italy","Town":"15033 Casale Monferrato, Province of Alessandria","Address":"In front of townhall","Time":"At 12.00-13.00 (noon to 1pm)","Date":"2019-09-25","Frequency":"Weekly","Lat":45.1316088,"Lon":8.450503},{"Country":"Germany","Town":"Böblingen","Address":"In front of townhall","Time":"At 12.00-13.00 (noon to 1pm)","Date":"2019-09-20","Frequency":"Weekly","Lat":48.6813312,"Lon":9.0088299},{"Country":"Germany","Town":"Berlin","Address":"On the sailing boat|In front of townhall|In front of townhall|Invalidenplatz|In front of townhall|Invalidenplatz|In front of townhall|In front of townhall","Time":"At 12.00-13.00 (noon to 1pm)|At 12.00-13.00 (noon to 1pm)|At 12.00-13.00 (noon to 1pm)|10.00-2.00|At 12.00-13.00 (noon to 1pm)|10.00-2.00|from 10:00 to 12:00|At 12.00-13.00 (noon to 1pm)","Date":"2019-09-20","Frequency":"Every Friday","Lat":52.5200066,"Lon":13.404954},{"Country":"Germany","Town":"Hamburg","Address":"Rathaus|In front of townhall","Time":"8:00-11:00|8:00-11:00","Date":"2019-09-20","Frequency":"Every Friday","Lat":53.5510846,"Lon":9.9936819},{"Country":"Sweden","Town":"Borlänge","Address":"Turistbyrån, Sveagatan 1 Borlänge|In front of townhall|Utanför Turistbyrån i Borlänge centrum |Turistbyrån, Sveagatan 1, 784 33 Borlänge|Borälnge centrum","Time":"17.00-19:00|16:00-17:00|17.00-18.00|17:00-18:00|17.00--18.00","Date":"2019-09-20","Frequency":"Every Friday","Lat":60.484304,"Lon":15.433969},{"Country":"Canada","Town":"Langley, BC","Address":"In front of townhall","Time":"At 12.00-13.00 (noon to 1pm)","Date":"2019-09-20","Frequency":"Every Friday","Lat":49.1041779,"Lon":-122.6603519},{"Country":"Australia","Address":"in front of Politicians electoral office","Time":"10.00 - 15.00","Date":"2019-09-20","Frequency":"Every Friday","Lat":-25.274398,"Lon":133.775136},{"Country":"Ireland","Town":"Cork","Address":"In front of townhall","Time":"9:00-15:50","Date":"2019-09-20","Frequency":"Every Friday","Lat":51.8985143,"Lon":-8.4756035},{"Country":"Sweden","Town":"Trosa","Address":"Playground close to townhall","Time":"12.30-13.30","Date":"2019-09-20","Frequency":"Every Friday","Lat":58.902655,"Lon":17.5494637},{"Country":"USA","Town":"Boulder","Address":"Boulder Courthouse","Time":"12-3p MST ","Date":"2019-09-26","Frequency":"Weekly","Lat":40.0149856,"Lon":-105.2705456},{"Country":"Germany","Town":"Kassel","Address":"In front of townhall","Time":"In the one first and third Friday of the mounth at 11-13 am, the other Fridays at 3-5pm ","Date":"2019-09-20","Frequency":"Every Friday","Lat":51.3127114,"Lon":9.4797461},{"Country":"Italy","Town":"Turin, Metropolitan City of Turin","Address":"Piazza Castello","Time":"At 12.00-13.00 (noon to 1pm)","Date":"2019-09-20","Frequency":"Every Friday","Lat":45.0703393,"Lon":7.686864},{"Country":"Austria","Town":"Vienna","Address":"In front of Parliament","Time":"11:55-14:00","Date":"2019-09-20","Frequency":"Every Friday","Lat":48.2081743,"Lon":16.3738189},{"Country":"Sweden","Town":"Hudiksvall","Address":"In front of townhall","Time":"At 12.00-13.00 (noon to 1pm)","Date":"2019-09-20","Frequency":"Every Friday","Lat":61.7273909,"Lon":17.107401},{"Country":"Italy","Town":"22100 Como, Province of Como","Address":"In front of townhall|In front of townhall","Time":"8:00-13:00|08:00 - 13:00","Date":"2019-09-20","Frequency":"Every Friday","Lat":45.8080597,"Lon":9.0851765},{"Country":"USA","Address":"In front of townhall|In front of townhall|Virtual ","Time":"At 12.00-13.00 (noon to 1pm)|At 12.00-13.00 (noon to 1pm)|At 12.00-13.00 (noon to 1pm)","Date":"2019-09-20","Frequency":"Every Friday","Lat":39.5500507,"Lon":-105.7820674},{"Country":"Italy","Town":"Perugia, Province of Perugia","Address":"Centro Storico Perugia","Time":"afternoon - evening (on 15/03 in the morning)","Date":"2019-09-20","Frequency":"Every Friday","Lat":43.1107168,"Lon":12.3908279},{"Country":"Finland","Town":"Oulu","Address":"In front of townhall","Time":"11.00-12.00","Date":"2019-09-20","Frequency":"Every Friday","Lat":65.0120888,"Lon":25.4650772},{"Country":"Italy","Town":"31033 Castelfranco Veneto, Province of Treviso","Address":"In front of townhall|From C6 to Piazza Giorgione ","Time":"At 12.00-13.00 (noon to 1pm)|At 8:00 ","Date":"2019-09-20","Frequency":"Every Friday","Lat":45.6716942,"Lon":11.9282388},{"Country":"Norway","Town":"Oslo","Address":"In front of townhall|In front of the Parliament|In front of townhall","Time":"At 12.00-13.00 (noon to 1pm)|11.00-12.00|At 12.00-13.00 (noon to 1pm)","Date":"2019-09-20","Frequency":"Every Friday","Lat":59.9138688,"Lon":10.7522454},{"Country":"Sweden","Town":"Eskilstuna","Address":"In front of townhall|In front of townhall","Time":"17-18|15-16","Date":"2019-09-20","Frequency":"Every Friday","Lat":59.3712486,"Lon":16.5098046},{"Country":"UK","Town":"Nottingham","Address":"In front of townhall","Time":"At 12.00-13.00 (noon to 1pm)","Date":"2019-09-24","Frequency":"Weekly","Lat":52.9547832,"Lon":-1.1581086},{"Country":"UK","Town":"Manchester","Address":"In front of townhall|Rear of Town Hall by the Peace Gardens","Time":"At 12.00-13.00 (noon to 1pm)|12-2pm","Date":"2019-09-20","Frequency":"Every Friday","Lat":53.4807593,"Lon":-2.2426305},{"Country":"Germany","Town":"Münster","Address":"In front of townhall","Time":"First Friday of the month: 10:00 big demonstration, other fridays: 14:00","Date":"2019-09-20","Frequency":"Every Friday","Lat":51.9606649,"Lon":7.6261347},{"Country":"Italy","Town":"33028 Tolmezzo, Province of Udine","Address":"In front of townhall","Time":"13.15-14.15","Date":"2019-09-20","Frequency":"Every Friday","Lat":46.403496,"Lon":13.0182123},{"Country":"Norway","Town":"Mandal Municipality","Address":"In front of townhall|In front of townhall|In front of townhall","Time":"At 12.00-13.00 (noon to 1pm)|14.30-15-30|14.00-15.00","Date":"2019-09-20","Frequency":"Every Friday","Lat":57.8806834,"Lon":7.4363914},{"Country":"Netherlands","Town":"Deventer","Address":"In front of townhall","Time":"At 09:00-10:00 AM","Date":"2019-09-20","Frequency":"Every Friday","Lat":52.2660751,"Lon":6.1552165},{"Country":"Sweden","Town":"Hörby","Address":"In front of townhall","Time":"12-12.30","Date":"2019-09-20","Frequency":"Every Friday","Lat":55.851716,"Lon":13.6619256},{"Country":"UK","Town":"Westcliff-on-Sea, Southend-on-Sea","Address":"In front of townhall","Time":"11:00 to 2:00","Date":"2019-09-20","Frequency":"Every Friday","Lat":51.535879,"Lon":0.696966},{"Country":"Norway","Town":"Bergen","Address":"Den blå steinen","Time":"12.00-14.00","Date":"2019-09-20","Frequency":"Every Friday","Lat":60.3912628,"Lon":5.3220544},{"Country":"Italy","Town":"72100 Brindisi, BR","Address":"Piazza Vittoria|Piazza Vittoria ","Time":"17.00 - 18.00|12:30-13,30","Date":"2019-09-20","Frequency":"Every Friday","Lat":40.6327278,"Lon":17.9417616},{"Country":"Sweden","Town":"Lund","Address":"In front of townhall","Time":"10-13","Date":"2019-09-20","Frequency":"Every Friday","Lat":55.7046601,"Lon":13.1910073},{"Country":"Italy","Town":"Brescia, Province of Brescia","Address":"In front of townhall","Time":"14:00-15:00","Date":"2019-09-21","Frequency":"Weekly","Lat":45.5415526,"Lon":10.2118019},{"Country":"Germany","Town":"Frankfurt","Address":"Bockenheimer Warte (may change, please check for current info)|Jürgen Ponto Platz 1","Time":"12:00-14:00 (noon to 2pm)|11:00 - 12:00","Date":"2019-09-20","Frequency":"Every Friday","Lat":50.1109221,"Lon":8.6821267},{"Country":"Sweden","Town":"Täby","Address":"In front of townhall","Time":"12:10 - 13:00","Date":"2019-09-20","Frequency":"Every Friday","Lat":59.4419,"Lon":18.0703298},{"Country":"UK","Town":"Derby","Address":"In front of townhall","Time":"At 12.00-13.00 (noon to 1pm)","Date":"2019-09-20","Frequency":"Every Friday","Lat":52.9225301,"Lon":-1.4746186},{"Country":"Italy","Town":"33077 Sacile, Province of Pordenone","Address":"Viale Zancanaro 10","Time":19,"Date":"2019-09-20","Frequency":"Every Friday","Lat":45.9540534,"Lon":12.5089608},{"Country":"Sweden","Town":"Värnamo","Address":"In front of townhall","Time":"At 12.00-13.00 (noon to 1pm)","Date":"2019-09-20","Frequency":"Every Friday","Lat":57.1831605,"Lon":14.0478214},{"Country":"UK","Town":"Torfaen","Address":"In front of townhall","Time":"all day","Date":"2019-09-20","Frequency":"Weekly","Lat":51.7002253,"Lon":-3.0446015},{"Country":"Spain","Town":"Seville","Address":"In front of townhall|Plaza Nueva|In front of townhall","Time":"At 12.00-13.00 (noon to 1pm)|17:00h|All work time","Date":"2019-09-20","Frequency":"Every Friday","Lat":37.3890924,"Lon":-5.9844589},{"Country":"France","Town":"Paris","Address":"In front of townhall|Jardin du Luxembourg|In front of townhall|On a square|In front of townhall|In front of townhall|In front of townhall|20 rue de la nonette, 60500, Chantilly |Ministère de la transition écologique |Collège Lycée Montaigne Paris","Time":"At 12.00-13.00 (noon to 1pm)|At 12.00-13.00 (noon to 1pm)|At 12.00-13.00 (noon to 1pm)|At 12.00-13.00 (noon to 1pm)|At 12.00-13.00 (noon to 1pm)|At 12.00-13.00 (noon to 1pm)|At 12.00-13.00 (noon to 1pm)|8|At 12.00-13.00 (noon to 1pm)|At 12.00-13.00 (noon to 1pm)","Date":"2019-09-20","Frequency":"Every Friday","Lat":48.856614,"Lon":2.3522219},{"Country":"Spain","Town":"Girona","Address":"Generalitat Girona, Plaça Pompeu Fabra, 1.","Time":"At 12.30-14:00","Date":"2019-09-20","Frequency":"Every Friday","Lat":41.9794005,"Lon":2.8214264},{"Country":"Italy","Town":"Via Mario Giuntini, 13, 56023 Navacchio PI","Address":"via Mario Giuntini,57 - 56021  Cascina - Pisa","Time":"07:00 - 00,00","Date":"2019-09-20","Frequency":"Every Friday","Lat":43.685243,"Lon":10.486226},{"Country":"Sweden","Town":"Uppsala","Address":"Forumtorget","Time":"15.00-17.00","Date":"2019-09-20","Frequency":"Every Friday","Lat":59.8585638,"Lon":17.6389267},{"Country":"Finland","Town":"Helsinki","Address":"Eduskuntatalo|Mannerheimintie 30 , in front of parliament","Time":"09.00 - 12.00|9.00-12.00 (nine am to noon)","Date":"2019-09-20","Frequency":"Every Friday","Lat":60.1698557,"Lon":24.9383791},{"Country":"Spain","Town":"Barcelona","Address":"C/rosello 330|In front of townhall|In front of townhall|Baró d'Esponella, 15, Barcelona - Nou Barris quarter -INS Barcelona-Congrés|In front of townhall|In front of townhall","Time":"At 12.00-13.00 (noon to 1pm)|At 12.00-13.00 (noon to 1pm)|At 12.00-13.00 (noon to 1pm)|12:20 to 12:40|16:30|16.30-18.00","Date":"2019-09-20","Frequency":"Every Friday","Lat":41.3850639,"Lon":2.1734035},{"Country":"Austria","Town":"Innsbruck","Address":"Annasäule |Anna Säule","Time":"11-14|10:00-15:00","Date":"2019-09-20","Frequency":"Every Friday","Lat":47.2692124,"Lon":11.4041024},{"Country":"Sweden","Town":"Jönköping","Address":"In front of townhall","Time":"At 12.00-13.00 (noon to 1pm)","Date":"2019-09-20","Frequency":"Every Friday","Lat":57.7826137,"Lon":14.1617876},{"Country":"Italy","Town":"Genoa, Metropolitan City of Genoa","Address":"In front of townhall|In front of townhall|Piazza De Ferrari","Time":"At 5.00-6.00pm|At 12.00-13.00 (noon to 1pm)|17:00-18:00","Date":"2019-09-20","Frequency":"Every Friday","Lat":44.4056499,"Lon":8.946256},{"Country":"USA","Town":"St Paul","Address":"75 Rev. Martin Luther King, Jr. Blvd St.Paul, MN |In front of townhall","Time":"12.00-3.00pm|At 12.00-13.00 (noon to 1pm)","Date":"2019-09-20","Frequency":"Every Friday","Lat":44.9537029,"Lon":-93.0899578},{"Country":"Norway","Town":"Oscars gate 57, 0258 Oslo","Address":"In front of townhall","Time":"At 12.00-13.00 (noon to 1pm)","Date":"2019-09-20","Frequency":"Every Friday","Lat":59.9194092,"Lon":10.7217383},{"Country":"Netherlands","Town":"Zeist","Address":"In front of townhall","Time":"0900-1000","Date":"2019-09-20","Frequency":"Every Friday","Lat":52.0906015,"Lon":5.2332526},{"Country":"Sweden","Town":"Malmö","Address":"Typografgatan 4 b|In front of townhall","Time":"Nu|10.00-13.00","Date":"2019-09-20","Frequency":"Every Friday","Lat":55.604981,"Lon":13.003822},{"Country":"Spain","Town":"Girona","Address":"Generalitat de Catalunya at Girona","Time":"12.30 - 14.00","Date":"2019-09-20","Frequency":"Weekly","Lat":41.9794005,"Lon":2.8214264},{"Country":"Sweden","Town":"Örebro","Address":"In front of townhall|In front of townhall|In front of townhall","Time":"15.00 - 17.00|15 :30-17:30|15.00 - 17.00","Date":"2019-09-20","Frequency":"Every Friday","Lat":59.2752626,"Lon":15.2134105},{"Country":"Spain","Town":"Madrid","Address":"In front of the Congress|In front of townhall|Algete|In front of townhall|Frente al Congreso de los Diputados","Time":"12:00 - 14:00 or 18:00 - 20:00|At 12.00-13.00 (noon to 1pm)|At 12.00-13.00 (noon to 1pm)|At 12.00-13.00 (noon to 1pm)|At 12.00-13.00 (noon to 1pm)","Date":"2019-09-20","Frequency":"Every Friday","Lat":40.4167754,"Lon":-3.7037902},{"Country":"Lebanon","Town":"Beirut","Address":"In front of townhall","Time":"At 12.00-13.00 (noon to 1pm)","Date":"2019-09-20","Frequency":"Every Friday","Lat":33.8937913,"Lon":35.5017767},{"Country":"Sweden","Town":"Falköping","Address":"Utanför Resecentrum Falköping","Time":"16.00-17.00","Date":"2019-09-20","Frequency":"Every Friday","Lat":58.175029,"Lon":13.553217},{"Country":"Sweden","Town":"Luleå","Address":"In front of townhall","Time":"At 12.00-13.00 (noon to 1pm)","Date":"2019-09-20","Frequency":"Every Friday","Lat":65.584819,"Lon":22.1567026},{"Country":"Spain","Town":"Tarragona","Address":"In front of townhall","Time":"At 14.00-15.00","Date":"2019-09-20","Frequency":"Every Friday","Lat":41.1188827,"Lon":1.2444909},{"Country":"Germany","Town":"Dortmund","Address":"In front of townhall","Time":"10 - 12","Date":"2019-09-20","Frequency":"Weekly","Lat":51.5135872,"Lon":7.4652981},{"Country":"Ireland","Town":"Maynooth, Co. Kildare","Address":"Town Square","Time":"13:00 - 14:00","Date":"2019-09-20","Frequency":"Every Friday","Lat":53.3812896,"Lon":-6.5918499},{"Country":"Iceland","Town":"Reykjavík","Address":"In front of parliament (Austurvöllur)","Time":"At 12.00-13.00 (noon to 1pm)","Date":"2019-09-20","Frequency":"Every Friday","Lat":64.146582,"Lon":-21.9426354},{"Country":"Sweden","Town":"Järfälla Municipality","Address":"Vid fontänen på Riddarplatsen, Jakobsberg ","Time":"15.00-17.00","Date":"2019-09-20","Frequency":"Every Friday","Lat":59.4252654,"Lon":17.8238965},{"Country":"Sweden","Town":"Västerås","Address":"Torggatan, vid fontänen","Time":"At 15.00-17.00","Date":"2019-09-20","Frequency":"Every Friday","Lat":59.6099005,"Lon":16.5448092},{"Country":"Spain","Town":"O Porriño, Pontevedra","Address":"  Torneiros | OUTSIDE SCHOOL","Time":"At 12.00-13.00 (noon to 1pm)|At 12.00-13.00 (noon to 1pm)","Date":"2019-09-20","Frequency":"Every Friday","Lat":42.1608459,"Lon":-8.6177291},{"Country":"Germany","Town":"Stuttgart","Address":"In front of townhall","Time":"At 12.00-13.00 (noon to 1pm)","Date":"2019-09-20","Frequency":"Every Friday","Lat":48.7758459,"Lon":9.1829321},{"Country":"Italy","Town":"Verona, VR","Address":"In front of townhall|In front of townhall|In front of townhall","Time":"At 12.00-13.00 (noon to 1pm)|At 12.00-13.00 (noon to 1pm)|14","Date":"2019-09-20","Frequency":"Every Friday","Lat":45.4383842,"Lon":10.9916215},{"Country":"Sweden","Town":"Västervik","Address":"Spötorget","Time":"At 12.00-13.00 (noon to 1pm)","Date":"2019-09-20","Frequency":"Every Friday","Lat":57.7577156,"Lon":16.6369759},{"Country":"Bulgaria","Town":"Sofia","Address":"In front of townhall","Time":"At 12.00-13.00 (noon to 1pm)","Date":"2019-09-20","Frequency":"Every Friday","Lat":42.6977082,"Lon":23.3218675},{"Country":"USA","Town":"Pittsburgh","Address":"In front of townhall","Time":"At 12.00-13.00 (noon to 1pm)","Date":"2019-09-20","Frequency":"Every Friday","Lat":40.4406248,"Lon":-79.9958864},{"Country":"France","Town":"60000 Beauvais","Address":"In front of townhall","Time":"Toute la journée","Date":"2019-09-20","Frequency":"Every Friday","Lat":49.4295387,"Lon":2.0807123},{"Country":"Sweden","Town":"Mora","Address":"Gågatan (Kyrkogatan)","Time":"16.00-17.00","Date":"2019-09-20","Frequency":"Every Friday","Lat":61.004878,"Lon":14.537003},{"Country":"South Korea","Town":"Gimhae-si, Gyeongsangnam-do","Address":"In front of townhall","Time":"At 12.00-13.00 (noon to 1pm)","Date":"2019-09-20","Frequency":"Every Friday","Lat":35.2285451,"Lon":128.8893517},{"Country":"Sweden","Town":"Söderhamn","Address":"Gågatan/Tribunen|Gågatan/tribunen","Time":"11,00-13,00|11.00-13.00","Date":"2019-09-20","Frequency":"Every Friday","Lat":61.3055762,"Lon":17.0628102},{"Country":"USA","Town":"St Paul","Address":"State Capitol ","Time":"11:30am-1:30pm","Date":"2019-09-20","Frequency":"Weekly","Lat":44.9537029,"Lon":-93.0899578},{"Country":"Sweden","Town":"Karlsborg Municipality","Address":"In front of townhall","Time":"15-18","Date":"2019-09-20","Frequency":"Every Friday","Lat":58.5947122,"Lon":14.4080276},{"Country":"Peru","Town":"Lima","Address":"In front of townhall|In front of townhall","Time":"10:00 a.m.-2:00 p.m.|11.00-15.00","Date":"2019-09-20","Frequency":"Weekly","Lat":-12.0463731,"Lon":-77.042754},{"Country":"Germany","Town":"Kiel","Address":"Landtag Kiel, Düsternbrookerweg 70","Time":"8:30 - 11:30","Date":"2019-09-20","Frequency":"Every Friday","Lat":54.3232927,"Lon":10.1227651},{"Country":"Germany","Town":"Munich","Address":"Marienplatz|Marienplatz","Time":"11:00|11:00 - 14:00","Date":"2019-09-20","Frequency":"Every Friday","Lat":48.1351253,"Lon":11.5819805},{"Country":"France","Town":"69700 Givors","Address":"In front of townhall","Time":"Toute la journée :) ","Date":"2019-09-20","Frequency":"Weekly","Lat":45.58329,"Lon":4.772829},{"Country":"Chile","Town":"Valparaíso, Valparaiso Region","Address":"Congress|In front of townhall","Time":"At 12.00-13.00 (noon to 1pm)|At 12.00-13.00 (noon to 1pm)","Date":"2019-09-20","Frequency":"Every Friday","Lat":-33.047238,"Lon":-71.6126885},{"Country":"Italy","Town":"10024 Moncalieri, Metropolitan City of Turin","Address":"In front of townhall","Time":"At 12.00-13.00 (noon to 1pm)","Date":"2019-09-20","Frequency":"Every Friday","Lat":44.9983525,"Lon":7.6802878},{"Country":"Sweden","Town":"Lysekil","Address":"In front of townhall|In front of townhall","Time":"11.00-13.00|11:50-12:30","Date":"2019-09-20","Frequency":"Every Friday","Lat":58.275573,"Lon":11.435558},{"Country":"Sweden","Town":"Helsingborg","Address":"In front of townhall","Time":"16.00-16.30","Date":"2019-09-20","Frequency":"Every Friday","Lat":56.0464674,"Lon":12.6945121},{"Country":"Australia","Town":"Waurn Ponds VIC 3216","Address":"Sarah Henderson Member for Parliment’s office ","Time":"09:00-15:00","Date":"2019-09-20","Frequency":"Every Friday","Lat":-38.208813,"Lon":144.2709146},{"Country":"Spain","Town":"Bilbao, Biscay","Address":"In front of townhall|In front of townhall","Time":"18:00|13:30","Date":"2019-09-20","Frequency":"Every Friday","Lat":43.2630126,"Lon":-2.9349852},{"Country":"Portugal","Town":"Lisbon","Address":"In front of townhall","Time":"At 12.00-13.00 (noon to 1pm)","Date":"2019-09-20","Frequency":"Every Friday","Lat":38.7222524,"Lon":-9.1393366},{"Country":"Italy","Town":"Naples, Metropolitan City of Naples","Address":"In front of townhall|In front of townhall|Piazza Municipio, in front of townhall","Time":"At 12.00-13.00 (noon to 1pm)|At 12.00-13.00 (noon to 1pm)|16:00 - 19:00","Date":"2019-09-20","Frequency":"Every Friday","Lat":40.8517983,"Lon":14.26812},{"Country":"Canada","Town":"Nanaimo, BC","Address":"In front of townhall","Time":"At 12.00-13.00 (noon to 1pm)","Date":"2019-09-20","Frequency":"Every Friday","Lat":49.1658836,"Lon":-123.9400648},{"Country":"Italy","Town":"27100 Pavia, Province of Pavia","Address":"In front of townhall","Time":"13.00-16.00","Date":"2019-09-20","Frequency":"Every Friday","Lat":45.1847248,"Lon":9.1582069},{"Country":"Chile","Town":"Calama, Antofagasta Region","Address":"In front of townhall","Time":"At 12.00-13.00 (noon to 1pm)","Date":"2019-09-20","Frequency":"Weekly","Lat":-22.4543923,"Lon":-68.9293819},{"Country":"Chile","Town":"Arica, Arica y Parinacota Region","Address":"In front of townhall","Time":"At 12.00-13.00 (noon to 1pm)","Date":"2019-09-20","Frequency":"Every Friday","Lat":-18.4782534,"Lon":-70.3125988},{"Country":"Chile","Town":"Valdivia, Los Ríos Region","Address":"In front of townhall|In front of townhall","Time":"Desde las 13.00 a las 19.00|At 17.00-18.30","Date":"2019-09-20","Frequency":"Every Friday","Lat":-39.8195857,"Lon":-73.2452103},{"Country":"Chile","Town":"San Felipe de Aconcagua, Valparaiso Region","Address":"In front of townhall","Time":"At 18.00-19.00 ","Date":"2019-09-20","Frequency":"Every Friday","Lat":-32.7503912,"Lon":-70.9071236},{"Country":"Italy","Town":"Rimini, Province of Rimini","Address":"In front of townhall","Time":"At 12.00-13.00 (noon to 1pm)","Date":"2019-09-20","Frequency":"Weekly","Lat":44.0678288,"Lon":12.5695158},{"Country":"Sweden","Town":"Oskarshamn","Address":"Often more centrally in the town, sometimes at the townhall","Time":"At 12.00-13.00 (noon to 1pm)","Date":"2019-09-20","Frequency":"Every Friday","Lat":57.2656993,"Lon":16.4473984},{"Country":"Chile","Town":"Victoria, Araucania","Address":"In front of townhall","Time":"At 12.00-13.00 (noon to 1pm)","Date":"2019-09-20","Frequency":"Weekly","Lat":-38.2326538,"Lon":-72.3515084},{"Country":"USA","Town":"Jackson Heights, Queens","Address":"In front of City Hall at 10 AM ","Time":"10 AM- 1 PM","Date":"2019-09-20","Frequency":"Weekly","Lat":40.7556818,"Lon":-73.8830701},{"Country":"Italy","Town":"18100 Imperia, Province of Imperia","Address":"In front of townhall","Time":8.15,"Date":"2019-09-24","Frequency":"Weekly","Lat":43.8896857,"Lon":8.039517},{"Country":"Sweden","Town":"Lund","Address":"In front of townhall","Time":"16.00-17.00","Date":"2019-09-26","Frequency":"Weekly","Lat":55.7046601,"Lon":13.1910073},{"Country":"Paraguay","Town":"Asuncion","Address":"In front of townhall","Time":"15:30","Date":"2019-09-20","Frequency":"Every Friday","Lat":-25.2637399,"Lon":-57.575926},{"Country":"Italy","Town":"60019 Senigallia, Province of Ancona","Address":"In front of townhall","Time":"At 12.00-13.00 (noon to 1pm)","Date":"2019-09-20","Frequency":"Every Friday","Lat":43.7197926,"Lon":13.2152224},{"Country":"Sweden","Town":"Rättvik","Address":"In front of townhall","Time":"16.00-17.00","Date":"2019-09-20","Frequency":"Every Friday","Lat":60.889025,"Lon":15.1233731},{"Country":"Czechia","Town":"747 23 Bolatice","Address":"In front of townhall","Time":"At 12.00-13.00 (noon to 1pm)","Date":"2019-09-22","Frequency":"Weekly","Lat":49.9517194,"Lon":18.0835904},{"Country":"Spain","Town":"Castellón de la Plana, Castellón","Address":"In front of townhall","Time":"At 12.00-13.00 (noon to 1pm)","Date":"2019-09-20","Frequency":"Every Friday","Lat":39.9863563,"Lon":-0.0513246},{"Country":"Sweden","Town":"Höganäs","Address":"In front of townhall","Time":"15.00-1600","Date":"2019-09-20","Frequency":"Every Friday","Lat":56.2006388,"Lon":12.5553287},{"Country":"Germany","Town":"Magdeburg","Address":"Domplatz","Time":"15:30","Date":"2019-09-20","Frequency":"Every Friday","Lat":52.1205333,"Lon":11.6276237},{"Country":"Spain","Town":"48960 Galdakao, Bizkaia","Address":"In front of townhall","Time":"At 12.00-13.00 (noon to 1pm)","Date":"2019-09-20","Frequency":"Every Friday","Lat":43.2313783,"Lon":-2.8447524},{"Country":"Canada","Town":"Whitehorse, YT","Address":"In front of townhall","Time":"At 12.00-13.00 (noon to 1pm)","Date":"2019-09-20","Frequency":"Every Friday","Lat":60.7211871,"Lon":-135.0568448},{"Country":"Spain","Town":"19119 Escopete, Guadalajara","Address":"In front of townhall","Time":"At 12.00-13.00 (noon to 1pm)","Date":"2019-09-20","Frequency":"Every Friday","Lat":40.4155196,"Lon":-3.0072515},{"Country":"Malaysia","Town":"Kuala Lumpur, Federal Territory of Kuala Lumpur","Address":"In front of UTMKL","Time":"At 12.00-13.00 (noon to 1pm)","Date":"2019-09-20","Frequency":"Every Friday","Lat":3.139003,"Lon":101.686855},{"Country":"Chile","Town":"Santiago, Santiago Metropolitan Region","Address":"In front of townhall|Palacio de La Moneda | Ministerio del Medio Ambiente|In front of townhall|In front of townhall|In front of townhall|In front of townhall","Time":"At 12.00-13.00 (noon to 1pm)|16:30|16.3| 5 pm|6 pm|18","Date":"2019-09-20","Frequency":"Every Friday","Lat":-33.4488897,"Lon":-70.6692655},{"Country":"Germany","Town":"Altdöbern","Address":"In front of townhall","Time":"At 12.00-13.00 (noon to 1pm)","Date":"2019-09-20","Frequency":"Every Friday","Lat":51.6499651,"Lon":14.0239559},{"Country":"Spain","Town":"Alicante","Address":"In front of townhall","Time":"At 12.00-13.00 (noon to 1pm)","Date":"2019-09-20","Frequency":"Weekly","Lat":38.3459963,"Lon":-0.4906855},{"Country":"USA","Town":"Salt Lake City","Address":"In front of townhall|University of Utah President’s Circle |In front of townhall|Utah State Capitol Building - East Entrance","Time":"8am-2pm|1-2pm|At 12.00-13.00 (noon to 1pm)|At 12.00-13.00 (noon to 1pm)","Date":"2019-09-20","Frequency":"Every Friday","Lat":40.7607793,"Lon":-111.8910474},{"Country":"Italy","Town":"82100 Benevento, Province of Benevento","Address":"Piazza Risorgimento","Time":"09.00-13.00","Date":"2019-09-20","Frequency":"Every Friday","Lat":41.1297613,"Lon":14.7826208},{"Country":"Sweden","Town":"Karlstad","Address":"Stora Torget Karlstad|STORA TORGET KARLSTAD SWEDEN|Stora Torget|Stora Torget|Stora Torget","Time":"12-15|12-15|12.00-15.00|12 - 15|11:55-15:00","Date":"2019-09-20","Frequency":"Every Friday","Lat":59.4021806,"Lon":13.5114978},{"Country":"Sweden","Town":"Tanumshede","Address":"In front of largest grocery store, ICA Hedemyrs, Tanumshede","Time":"At 15.00-17.00","Date":"2019-09-20","Frequency":"Every Friday","Lat":58.7239941,"Lon":11.3252391},{"Country":"India","Town":"Ambikapur","Address":"In front of townhall","Time":"At 12.00-13.00 (noon to 1pm)","Date":"2019-09-21","Frequency":"Weekly","Lat":23.1354921,"Lon":83.1817856},{"Country":"France","Town":"39100 Dole","Address":"In town","Time":"At 12.00-13.00 (noon to 1pm)","Date":"2019-09-20","Frequency":"Every Friday","Lat":47.09534,"Lon":5.49081},{"Country":"Norway","Town":"Haugesund","Address":"In front of townhall","Time":"11.00-13.00","Date":"2019-09-20","Frequency":"Weekly","Lat":59.413581,"Lon":5.2679869},{"Country":"Belgium","Town":"Brussels","Address":"In front of townhall|Central station |Start strike & demonstration at Brussels North railway station","Time":"At 12.00-13.00 (noon to 1pm)|8 :00 -18:00|10:30 AM","Date":"2019-09-20","Frequency":"Weekly","Lat":50.8503463,"Lon":4.3517211},{"Country":"Nigeria","Town":"Lagos","Address":"Inside a Hall|In front of townhall","Time":"At 12.00-13.00 (noon to 1pm)|At 12.00-13.00 (noon to 1pm)","Date":"2019-09-20","Frequency":"Every Friday","Lat":6.5243793,"Lon":3.3792057},{"Country":"Italy","Town":"46100 Mantua, Province of Mantua","Address":"Piazza Sordello","Time":"10am to 12pm","Date":"2019-09-20","Frequency":"Weekly","Lat":45.1564168,"Lon":10.7913751},{"Country":"Sweden","Town":"Kramfors","Address":"In front of townhall","Time":"At 14.00-16.00","Date":"2019-09-20","Frequency":"Every Friday","Lat":62.9284332,"Lon":17.7862946},{"Country":"Sweden","Town":"Norrköping","Address":"In front of townhall| Fleminggatan 9, 602 24 Norrköping","Time":"At 12.00-13.00 (noon to 1pm)|12.00 - 14.00 ","Date":"2019-09-20","Frequency":"Every Friday","Lat":58.587745,"Lon":16.192421},{"Country":"Chile","Town":"Osorno, Los Lagos Region","Address":"In front of townhall","Time":"At 12.00-13.00 (noon to 1pm)","Date":"2019-09-20","Frequency":"Every Friday","Lat":-40.5761897,"Lon":-73.1149469},{"Country":"Denmark","Town":"6400 Sønderborg","Address":"In front of townhall","Time":"09-14","Date":"2019-09-20","Frequency":"Every Friday","Lat":54.913811,"Lon":9.792178},{"Country":"Spain","Town":"Huesca","Address":"In front of townhall","Time":"At 12.00-13.00 (noon to 1pm)","Date":"2019-09-20","Frequency":"Every Friday","Lat":42.131845,"Lon":-0.4078058},{"Country":"Mexico","Town":"Guadalajara, Jalisco","Address":"Congreso del estado|In front of townhall|In front of townhall|In front of townhall|In front of townhall","Time":"10:00 - 12:00|10 am - 12 pm|10- 12|10.00 am |At 12.00-13.00 (noon to 1pm)","Date":"2019-09-20","Frequency":"Every Friday","Lat":20.6596988,"Lon":-103.3496092},{"Country":"Turkey","Town":"Istanbul","Address":"Bebek Park","Time":"At 12.00-13.00 (noon to 1pm)","Date":"2019-09-20","Frequency":"Every Friday","Lat":41.0082376,"Lon":28.9783589},{"Country":"France","Town":"Bordeaux","Address":"path through the city","Time":"10.30-17.00","Date":"2019-09-20","Frequency":"Every Friday","Lat":44.837789,"Lon":-0.57918},{"Country":"Sweden","Town":"Gävle","Address":"Varje fredag 15-17 vid Gudinnan Drottninggatan/Rådhustorget |In front of townhall|Rådhustorget vid gudinnan ","Time":"15.00-17.00|At 12.00-13.00 (noon to 1pm)|15-17","Date":"2019-09-20","Frequency":"Every Friday","Lat":60.6748796,"Lon":17.1412726},{"Country":"Sweden","Town":"Strängnäs","Address":"In front of townhall|In front of townhall|In front of townhall","Time":"14-16|At 12.00-13.00 (noon to 1pm)|14-16","Date":"2019-09-20","Frequency":"Every Friday","Lat":59.3774523,"Lon":17.0321193},{"Country":"USA","Town":"Oklahoma City","Address":"6400 NW EXPRESSWAY ","Time":"At 12.00-13.00 (noon to 1pm)","Date":"2019-09-20","Frequency":"Every Friday","Lat":35.4675602,"Lon":-97.5164276},{"Country":"UK","Town":"Croydon","Address":"In front of townhall","Time":"8-9am","Date":"2019-09-20","Frequency":"Every Friday","Lat":51.376165,"Lon":-0.098234},{"Country":"Canada","Town":"London, ON","Address":"In front of townhall|In front of townhall|MPP Office Peter Fragiskatos 885 Adelaide St N, London, On","Time":"17:00-19:00|1pm - 5pm|3:00 -5:00 pm","Date":"2019-09-20","Frequency":"Every Friday","Lat":42.9849233,"Lon":-81.2452768},{"Country":"Peru","Town":"Puno","Address":"In front of townhall","Time":"10:00 - 12:00","Date":"2019-09-20","Frequency":"Weekly","Lat":-15.8402218,"Lon":-70.0218805},{"Country":"Colombia","Town":"Pandi, Cundinamarca","Address":"In front of townhall","Time":"At 12.00-13.00 (noon to 1pm)","Date":"2019-09-20","Frequency":"Every Friday","Lat":4.19065,"Lon":-74.486751},{"Country":"Denmark","Town":"6950 Ringkobing","Address":"At Mys Hjemmeskole next to the Town Square","Time":"All friday, every friday as long as it takes","Date":"2019-09-20","Frequency":"Every Friday","Lat":56.088054,"Lon":8.2576329},{"Country":"India","Town":"Bengaluru","Address":"St. Anthony's Church, Munnekolala","Time":"17:50 - 18:30","Date":"2019-09-21","Frequency":"Weekly","Lat":12.9715987,"Lon":77.5945627},{"Country":"Spain","Town":"Las Palmas de Gran Canaria, Las Palmas","Address":"Las Palmas de Gran Canaria, calle Aguadulce número 2 ","Time":"14:00-16:00","Date":"2019-09-20","Frequency":"Every Friday","Lat":28.1235459,"Lon":-15.4362574},{"Country":"France","Town":"Lille","Address":"Grand Place de Lille","Time":14,"Date":"2019-09-20","Frequency":"Weekly","Lat":50.62925,"Lon":3.057256},{"Country":"France","Town":"St-Malo","Address":"In front of townhall","Time":10,"Date":"2019-09-20","Frequency":"Every Friday","Lat":48.649337,"Lon":-2.025674},{"Country":"Czechia","Town":"Ostrava","Address":"march thru the city","Time":"9AM","Date":"2019-09-20","Frequency":"Weekly","Lat":49.8209226,"Lon":18.2625243},{"Country":"Czechia","Town":"Liberec","Address":"march thru the city","Time":"8AM","Date":"2019-09-20","Frequency":"Weekly","Lat":50.76628,"Lon":15.0543387},{"Country":"Czechia","Town":"Ceske Budejovice","Address":"march thru the city","Time":"8AM","Date":"2019-09-20","Frequency":"Weekly","Lat":48.9756578,"Lon":14.480255},{"Country":"Czechia","Town":"Pilsen","Address":"march thru the city","Time":"8AM","Date":"2019-09-20","Frequency":"Weekly","Lat":49.7384314,"Lon":13.3736371},{"Country":"Czechia","Town":"Brno","Address":"march thru the city","Time":"9AM","Date":"2019-09-20","Frequency":"Weekly","Lat":49.1950602,"Lon":16.6068371},{"Country":"Czechia","Town":"Olomouc","Address":"march thru the city","Time":"8AM","Date":"2019-09-20","Frequency":"Weekly","Lat":49.593778,"Lon":17.2508787},{"Country":"Czechia","Town":"293 01 Mlada Boleslav","Address":"march thru the city","Time":"3PM","Date":"2019-09-20","Frequency":"Weekly","Lat":50.4134249,"Lon":14.908438},{"Country":"Czechia","Town":"Rakovnik","Address":"march thru the city","Time":"10AM","Date":"2019-09-20","Frequency":"Weekly","Lat":50.106123,"Lon":13.7396623},{"Country":"Belgium","Town":"Antwerp","Address":"Theaterplein","Time":"13-15","Date":"2019-09-26","Frequency":"Weekly","Lat":51.2194475,"Lon":4.4024643},{"Country":"France","Town":"33390 Blaye","Address":"In front of townhall","Time":"14h00","Date":"2019-09-20","Frequency":"Every Friday","Lat":45.126841,"Lon":-0.662941},{"Country":"France","Town":"Nantes","Address":"Place royale|In front of townhall","Time":"At 12.00-13.00 (noon to 1pm)|At 12.00-13.00 (noon to 1pm)","Date":"2019-09-20","Frequency":"Every Friday","Lat":47.218371,"Lon":-1.553621},{"Country":"Peru","Town":"Lima","Address":"In front of townhall|In front of townhall|In front of townhall|In front of townhall","Time":"At 12.00-13.00 (noon to 1pm)|At 12.00-13.00 (noon to 1pm)|At 12.00-13.00 (noon to 1pm)|5pm","Date":"2019-09-20","Frequency":"Every Friday","Lat":-12.0463731,"Lon":-77.042754},{"Country":"Mauritania","Address":"In front of townhall","Time":"At 12.00-13.00 (noon to 1pm)","Date":"2019-09-20","Frequency":"Weekly","Lat":21.00789,"Lon":-10.940835},{"Country":"India","Town":"Mumbai","Address":"In front of townhall|In front of townhall|Juhu Beach, Juhu, Mumbai, Maharashtra 400049|In front of townhall|Juhu |Marine Drive|Andheri west, mumbai-400 058, Maharashtra.|In front of townhall","Time":"At 12.00-13.00 (noon to 1pm)|At 12.00-13.00 (noon to 1pm)|4pm|At 12.00-13.00 (noon to 1pm)|4.30pm |16:30pm|At 12.00-13.00 (noon to 1pm)|At 12.00-13.00 (noon to 1pm)","Date":"2019-09-20","Frequency":"Every Friday","Lat":19.0759837,"Lon":72.8776559},{"Country":"Italy","Town":"Trento, Province of Trento","Address":"In front of townhall","Time":"At 12.00-13.00 (noon to 1pm)","Date":"2019-09-20","Frequency":"Every Friday","Lat":46.0747793,"Lon":11.1217486},{"Country":"South Korea","Town":"Seoul","Address":"In front of townhall","Time":"4pm - 6pm","Date":"2019-09-20","Frequency":"Every Friday","Lat":37.566535,"Lon":126.9779692},{"Country":"USA","Town":"Yachats","Address":"side of road near The Green Salmon ","Time":"12:00 - 3:15","Date":"2019-09-20","Frequency":"Every Friday","Lat":44.3112312,"Lon":-124.1048418},{"Country":"Italy","Town":"75025 Policoro, Province of Matera","Address":"Piazza Eraclea - Policoro MT|In front of townhall","Time":"9.00-13.00|At 12.00-13.00 (noon to 1pm)","Date":"2019-09-20","Frequency":"Every Friday","Lat":40.2141054,"Lon":16.6796558},{"Country":"France","Town":"Brest","Address":"Place de Strasbourg ","Time":"At 12.00-13.00 (noon to 1pm)","Date":"2019-09-20","Frequency":"Every Friday","Lat":48.390394,"Lon":-4.486076},{"Country":"Italy","Town":"43039 Salsomaggiore Terme, Province of Parma","Address":"different places in the city (depends on the weeks)","Time":"varie","Date":"2019-09-20","Frequency":"Every Friday","Lat":44.8183121,"Lon":9.9825123},{"Country":"Argentina","Town":"Buenos Aires","Address":"In front of townhall|In front of townhall","Time":"17|17pm ","Date":"2019-09-20","Frequency":"Every Friday","Lat":-34.6036844,"Lon":-58.3815591},{"Country":"Italy","Town":"Trento, Province of Trento","Address":"Via Verdi, tra giurisprudenza e sociologia|Via Verdi ","Time":"Afternoon usually, from 14 to 17, the hlonal strike will be during the morning as said in the event (9.00-13.00)|9.00-13.30","Date":"2019-09-20","Frequency":"Weekly","Lat":46.0747793,"Lon":11.1217486},{"Country":"USA","Town":"South Pasadena","Address":"South Pasadena High School","Time":"11:00 am PST","Date":"2019-09-20","Frequency":"Every Friday","Lat":34.1161196,"Lon":-118.1503488},{"Country":"Germany","Town":"Nordhausen","Address":"In front of townhall","Time":"13.00 - 14.00","Date":"2019-09-20","Frequency":"Every Friday","Lat":51.4990791,"Lon":10.791581},{"Country":"Brazil","Town":"Belo Horizonte, State of Minas Gerais","Address":"UNIBH - CENTRO UNIVERSITÁRIO DE BELO HORIZONTE - BURITIS","Time":"20.00-21.00 pm","Date":"2019-09-20","Frequency":"Every Friday","Lat":-19.9166813,"Lon":-43.9344931},{"Country":"Turkey","Town":"Antalya","Address":"In front of townhall","Time":"09:00","Date":"2019-09-20","Frequency":"Every Friday","Lat":36.8968908,"Lon":30.7133233},{"Country":"Sweden","Town":"Växjö","Address":"In front of townhall|In front of townhall","Time":"15-17|15.00-17.00 även Speecers Corner","Date":"2019-09-20","Frequency":"Every Friday","Lat":56.8790044,"Lon":14.8058523},{"Country":"UK","Town":"Edinburgh","Address":"Scottish Parliament Building, EH99 1SP|Scottish Parliament Building|The Scottish Parliament","Time":"10.00 - 13.00|10.00-14.00|9am-1pm","Date":"2019-09-20","Frequency":"Every Friday","Lat":55.953252,"Lon":-3.188267},{"Country":"Sweden","Town":"Kalmar","Address":"Stortorget|In front of townhall","Time":"15-17|15.00-17.00","Date":"2019-09-20","Frequency":"Every Friday","Lat":56.6634447,"Lon":16.3567791},{"Country":"Sweden","Town":"Ekerö Municipality","Address":"In front of townhall","Time":"16-17.30","Date":"2019-09-20","Frequency":"Every Friday","Lat":59.359052,"Lon":17.6694942},{"Country":"Spain","Town":"Pamplona, Navarre","Address":"In front of townhall","Time":"At 12.00-13.00 (noon to 1pm)","Date":"2019-09-20","Frequency":"Every Friday","Lat":42.812526,"Lon":-1.6457745},{"Country":"Peru","Town":"Huancayo","Address":"Frente al Gobierno Regional","Time":"At 12.00-13.00 (noon to 1pm)","Date":"2019-09-20","Frequency":"Every Friday","Lat":-12.0686357,"Lon":-75.2102976},{"Country":"El Salvador","Town":"Santa Tecla","Address":"Social Media","Time":"At 12.00-13.00 (noon to 1pm)","Date":"2019-09-20","Frequency":"Every Friday","Lat":13.6757837,"Lon":-89.2894733},{"Country":"Turkey","Town":"Çıralı, Ulupınar Mahallesi, 07980 Kemer/Antalya","Address":"Village Cafe","Time":"09:00","Date":"2019-09-20","Frequency":"Every Friday","Lat":36.4175,"Lon":30.4775},{"Country":"Sweden","Town":"Visby","Address":"In front of townhall","Time":"10:30-12:00","Date":"2019-09-20","Frequency":"Every Friday","Lat":57.6348,"Lon":18.29484},{"Country":"UK","Town":"Telford","Address":"In front of townhall","Time":"At 12.00-13.00 (noon to 1pm)","Date":"2019-09-20","Frequency":"Every Friday","Lat":52.678419,"Lon":-2.445258},{"Country":"Austria","Town":"Linz","Address":"Hauptplatz","Time":"starts at 11am","Date":"2019-09-20","Frequency":"Every Friday","Lat":48.30694,"Lon":14.28583},{"Country":"Sweden","Town":"Gnesta","Address":"In front of townhall","Time":"At 12.00-13.00 (noon to 1pm)","Date":"2019-09-20","Frequency":"Every Friday","Lat":59.0483483,"Lon":17.3072277},{"Country":"Ecuador","Town":"Tena","Address":"In front of townhall","Time":"13:00 - 15:00","Date":"2019-09-20","Frequency":"Weekly","Lat":-0.9962972,"Lon":-77.8136035},{"Country":"USA","Town":"Lewiston","Address":"Dufresne Park","Time":"10am-11am","Date":"2019-09-20","Frequency":"Every Friday","Lat":44.100351,"Lon":-70.2147764},{"Country":"Germany","Town":"Mönchengladbach","Address":"auf dem Marktplatz vor dem Rathaus Rheydt","Time":"At 12.00-13.00 (noon to 1pm)","Date":"2019-09-20","Frequency":"Every Friday","Lat":51.1804572,"Lon":6.4428041},{"Country":"Italy","Town":"55100 Lucca, Province of Lucca","Address":"Piazzale Verdi ","Time":"At 9.00-12.00","Date":"2019-09-20","Frequency":"Every Friday","Lat":43.8429197,"Lon":10.5026977},{"Country":"Italy","Town":"10095 Grugliasco, Metropolitan City of Turin","Address":"In front of townhall","Time":16.3,"Date":"2019-09-20","Frequency":"Weekly","Lat":45.0563863,"Lon":7.5943754},{"Country":"Nigeria","Town":"Abuja","Address":"School|School|Area council, Gwagwalada.","Time":"At 12.00-13.00 (noon to 1pm)|At 12.00-13.00 (noon to 1pm)|9:00am","Date":"2019-09-20","Frequency":"Every Friday","Lat":9.0764785,"Lon":7.398574},{"Country":"Romania","Town":"Bucharest","Address":"In front of townhall|University Square","Time":"16.00-18.00|16-18","Date":"2019-09-20","Frequency":"Every Friday","Lat":44.4267674,"Lon":26.1025384},{"Country":"Colombia","Town":"Barranquilla, Atlantico","Address":"Plaza de la Paz","Time":"At 12.00-13.00 (noon to 1pm)","Date":"2019-09-20","Frequency":"Every Friday","Lat":11.0041072,"Lon":-74.8069813},{"Country":"France","Town":"68000 Colmar","Address":"Lycée Blaise Pascal","Time":"At 08:00-16:00","Date":"2019-09-20","Frequency":"Weekly","Lat":48.0793589,"Lon":7.358512},{"Country":"Mexico","Town":"Leon, Guanajuato","Address":"Arco de la Calzada","Time":"11.00 - 16.00","Date":"2019-09-20","Frequency":"Weekly","Lat":21.1250077,"Lon":-101.6859605},{"Country":"Mexico","Town":"Mexico City, CDMX","Address":"In front of townhall","Time":"10.00-12.00","Date":"2019-09-22","Frequency":"Weekly","Lat":19.4326077,"Lon":-99.133208},{"Country":"Sweden","Town":"Halmstad","Address":"In front of townhall","Time":"At 12.00-13.00 (noon to 1pm)","Date":"2019-09-20","Frequency":"Every Friday","Lat":56.6743748,"Lon":12.8577885},{"Country":"India","Town":"Gurugram","Address":"Arravali Biodiversity Park","Time":"At 12.00-13.00 (noon to 1pm)","Date":"2019-09-20","Frequency":"Every Friday","Lat":28.4594965,"Lon":77.0266383},{"Country":"Finland","Town":"Lahti","Address":"In front of townhall","Time":"10:00-12:00","Date":"2019-09-20","Frequency":"Every Friday","Lat":60.9826749,"Lon":25.6612096},{"Country":"Ireland","Town":"Celbridge, Co. Kildare","Address":"In front of NKETNS","Time":"08.15-09.15","Date":"2019-09-20","Frequency":"Every Friday","Lat":53.339897,"Lon":-6.5384589},{"Country":"Bangladesh","Town":"Dhaka","Address":"In front of townhall|In front of townhall|Kuril ","Time":"At 16.00-18.00 |At 14.00-16.00|4-6pm ","Date":"2019-09-20","Frequency":"Every Friday","Lat":23.810332,"Lon":90.4125181},{"Country":"Sweden","Town":"824 60 Sörforsa","Address":"Sörforsa bibliotek","Time":"At 11.00–16.00","Date":"2019-09-20","Frequency":"Every Friday","Lat":61.7204047,"Lon":16.9762016},{"Country":"Hungary","Town":"Budapest","Address":"1055 Budapest, Kossuth Lajos tér","Time":"10.00-15.00 CET","Date":"2019-09-21","Frequency":"Weekly","Lat":47.497912,"Lon":19.040235},{"Country":"Nigeria","Town":"Abuja","Address":"In front of the National Assembly of the Federal Republic of Nigeria|Area Council, Gwagwalada","Time":"At 12.00-13.00 (noon to 1pm)|At 12.00-13.00 (noon to 1pm)","Date":"2019-09-20","Frequency":"Weekly","Lat":9.0764785,"Lon":7.398574},{"Country":"Taiwan","Town":"Taichung City","Address":"In front of townhall|School gate","Time":"12.00-12.20|10:00AM-11:00AM","Date":"2019-09-20","Frequency":"Every Friday","Lat":24.1477358,"Lon":120.6736482},{"Country":"Sweden","Town":"Sundbyberg","Address":"Sms","Time":"At 12.00-13.00 (noon to 1pm)","Date":"2019-09-20","Frequency":"Every Friday","Lat":59.3829282,"Lon":17.9644707},{"Country":"Norway","Town":"Trondheim","Address":"In front of townhall|In front of townhall","Time":"10-16|15:00-16:00","Date":"2019-09-20","Frequency":"Every Friday","Lat":63.4305149,"Lon":10.3950528},{"Country":"Belgium","Town":"Ghent","Address":"In front of townhall","Time":"10:00 till 12:00","Date":"2019-09-20","Frequency":"Weekly","Lat":51.0543422,"Lon":3.7174243},{"Country":"Canada","Town":"Prince George, BC","Address":"In front of townhall|In front of townhall","Time":"At 12.00-13.00 (noon to 1pm)|9:00am-10:00am","Date":"2019-09-20","Frequency":"Every Friday","Lat":53.9170641,"Lon":-122.7496693},{"Country":"Italy","Town":"46029 Suzzara, Province of Mantua","Address":"In front of townhall","Time":"At 12.00-13.00 (noon to 1pm)","Date":"2019-09-20","Frequency":"Every Friday","Lat":45.0084923,"Lon":10.7508454},{"Country":"Spain","Town":"Soria","Address":"In front of townhall","Time":"12.00-13.00 y 19.00-20.00","Date":"2019-09-20","Frequency":"Every Friday","Lat":41.7665972,"Lon":-2.4790306},{"Country":"Brazil","Town":"Santos - State of São Paulo","Address":"In front of townhall","Time":"At 12.00-13.00 (noon to 1pm)","Date":"2019-09-20","Frequency":"Every Friday","Lat":-23.9288143,"Lon":-46.3635085},{"Country":"Bolivia","Town":"Cochabamba","Address":"In front of townhall","Time":"16:00-18:00","Date":"2019-09-20","Frequency":"Every Friday","Lat":-17.4139766,"Lon":-66.1653224},{"Country":"Philippines","Town":"Metro Manila","Address":"Gil Puyat,  Makati City","Time":"At 12.00-13.00 (noon to 1pm)","Date":"2019-09-20","Frequency":"Every Friday","Lat":14.6090537,"Lon":121.0222565},{"Country":"USA","Town":"Olympia","Address":"In front of townhall","Time":"7:40- 2:10","Date":"2019-09-20","Frequency":"Every Friday","Lat":47.0378741,"Lon":-122.9006951},{"Country":"Italy","Town":"40055 Castenaso, Metropolitan City of Bologna","Address":"In front of townhall","Time":11,"Date":"2019-09-20","Frequency":"Every Friday","Lat":44.509969,"Lon":11.4653861},{"Country":"Italy","Town":"12100 Cuneo, Province of Cuneo","Address":"In front of townhall","Time":"9.00-13.00","Date":"2019-09-20","Frequency":"Weekly","Lat":44.3844766,"Lon":7.5426711},{"Country":"Italy","Town":"Forli, Province of Forlì-Cesena","Address":"Piazzale della Vittoria","Time":"9.00-13.00","Date":"2019-09-20","Frequency":"Every Friday","Lat":44.2227398,"Lon":12.0407312},{"Country":"Italy","Town":"31100 Treviso, Province of Treviso","Address":"Piazza Indipendenza, Treviso, Italy","Time":"08.00-11.00 (8am to 11am)","Date":"2019-09-20","Frequency":"Every Friday","Lat":45.6668893,"Lon":12.2430437},{"Country":"Belgium","Town":"Antwerp","Address":"Groenplaats|We will walk from the theater square (Theaterplein) to the Astrid square (Astridplein, In front of the Central station) and then take the train to Brussels together and also participate in the Strike there","Time":"9.00-12.00|10h-12h","Date":"2019-09-20","Frequency":"Weekly","Lat":51.2194475,"Lon":4.4024643},{"Country":"Belgium","Town":"Bruges","Address":"t Zand","Time":"9:00 - 11:58","Date":"2019-09-20","Frequency":"Weekly","Lat":51.209348,"Lon":3.2246995},{"Country":"Belgium","Town":"Leuven","Address":"Blauwputplein","Time":"11:00 - 13:00","Date":"2019-09-20","Frequency":"Weekly","Lat":50.8798438,"Lon":4.7005176},{"Country":"Peru","Town":"Villa el Salvador","Address":"Villa el salvador, Municipalidad","Time":"10:00","Date":"2019-09-20","Frequency":"Weekly","Lat":-12.2162218,"Lon":-76.9415442},{"Country":"France","Town":"30700 Uzès","Address":"In front of townhall","Time":"At 12.00-13.00 (noon to 1pm)","Date":"2019-09-20","Frequency":"Every Friday","Lat":44.01211,"Lon":4.419946},{"Country":"Sweden","Town":"Stockholm","Address":"In front of townhall|In front of townhall|Humlegården|In front of townhall|In front of townhall|In front of townhall|In front of townhall","Time":"At 12.00-13.00 (noon to 1pm)|At 12.00-13.00 (noon to 1pm)|At 12.00-13.00 (noon to 1pm)|At 12.00-13.00 (noon to 1pm)|At 12.00-13.00 (noon to 1pm)|At 12.00-13.00 (noon to 1pm)|8-15","Date":"2019-09-20","Frequency":"Every Friday","Lat":59.3293235,"Lon":18.0685808},{"Country":"Italy","Town":"Aosta, Aosta Valley","Address":"In front of townhall","Time":"At 12.00-13.00 (noon to 1pm)","Date":"2019-09-20","Frequency":"Every Friday","Lat":45.7388878,"Lon":7.4261866},{"Country":"Argentina","Town":"Adrogué, Buenos Aires Province","Address":"In front of townhall","Time":"2.30- 3.30pm","Date":"2019-09-20","Frequency":"Every Friday","Lat":-34.8012352,"Lon":-58.3889046},{"Country":"Italy","Town":"12045 Fossano, Province of Cuneo","Address":"Via Coronata 75 - Parco","Time":"9.00-13.00","Date":"2019-09-20","Frequency":"Every Friday","Lat":44.552479,"Lon":7.7217934},{"Country":"Italy","Town":"Modena, Province of Modena","Address":"In front of townhall|Piazza Della Pomposa","Time":"18|18","Date":"2019-09-20","Frequency":"Every Friday","Lat":44.647128,"Lon":10.9252269},{"Country":"Germany","Town":"Eberbach","Address":"Leopoldsplatz","Time":"11.00-12.30","Date":"2019-09-20","Frequency":"Every Friday","Lat":49.4694813,"Lon":8.9898436},{"Country":"Spain","Town":"Alcobendas, Madrid","Address":"In front of townhall","Time":"At 12.00-13.00 (noon to 1pm)","Date":"2019-09-20","Frequency":"Every Friday","Lat":40.5372512,"Lon":-3.6372245},{"Country":"Germany","Town":"Düsseldorf","Address":"In front of townhall|In front of townhall|In front of townhall|In front of townhall","Time":"At 12.00-13.00 (noon to 1pm)|At 12.00-13.00 (noon to 1pm)|At 12.00-13.00 (noon to 1pm)|11:00-15:00","Date":"2019-09-20","Frequency":"Every Friday","Lat":51.2277411,"Lon":6.7734556},{"Country":"Finland","Town":"Tampere","Address":"In front of townhall","Time":"At 11.00-13.00","Date":"2019-09-20","Frequency":"Every Friday","Lat":61.4977524,"Lon":23.7609535},{"Country":"Namibia","Town":"Swakopmund","Address":"In front of townhall","Time":"At 12.00-13.00 (noon to 1pm)","Date":"2019-09-20","Frequency":"Every Friday","Lat":-22.6467427,"Lon":14.6004911},{"Country":"Netherlands","Town":"Amsterdam","Address":"In front of townhall|Dam square Amsterdam","Time":"At 12.00-13.00 (noon to 1pm)|At 12.00-13.00 (noon to 1pm)","Date":"2019-09-20","Frequency":"Every Friday","Lat":52.3679843,"Lon":4.9035614},{"Country":"Iran","Town":"Tabriz, East Azerbaijan Province","Address":"In front of townhall","Time":"11.00-13.00","Date":"2019-09-20","Frequency":"Weekly","Lat":38.096239,"Lon":46.2738013},{"Country":"USA","Town":"Eureka","Address":"In front of the Humboldt County Courthouse","Time":"12pm to 1pm","Date":"2019-09-20","Frequency":"Every Friday","Lat":40.8020712,"Lon":-124.1636729},{"Country":"Brazil","Town":"Peruíbe - SP","Address":"In front of townhall","Time":"At 12.00-13.00 (noon to 1pm)","Date":"2019-09-20","Frequency":"Every Friday","Lat":-24.3124437,"Lon":-47.0015206},{"Country":"Vanuatu","Town":"Port Vila","Address":"In front of townhall","Time":"At 12.00-13.00 (noon to 1pm)","Date":"2019-09-20","Frequency":"Weekly","Lat":-17.7332512,"Lon":168.3273245},{"Country":"Sweden","Town":"Vallentuna","Address":"Tuna torg, Vallentuna","Time":"17.00-18.00","Date":"2019-09-20","Frequency":"Every Friday","Lat":59.5357,"Lon":18.078017},{"Country":"Finland","Town":"Jyväskylä","Address":"Kompassinaukio","Time":"At 10.00-12.00","Date":"2019-09-20","Frequency":"Every Friday","Lat":62.2426034,"Lon":25.7472567},{"Country":"India","Town":"Bengaluru","Address":"In front of townhall|In front of townhall|In front of townhall|101 Lake Mont Regency|In front of townhall","Time":"At 12.00-13.00 (noon to 1pm)|At 12.00-13.00 (noon to 1pm)|17:00- 19:00|At 12.00-13.00 (noon to 1pm)|At 12.00-13.00 (noon to 1pm)","Date":"2019-09-20","Frequency":"Every Friday","Lat":12.9715987,"Lon":77.5945627},{"Country":"Canada","Town":"Whistler, BC V0N","Address":"In front of townhall","Time":"All day","Date":"2019-09-20","Frequency":"Every Friday","Lat":50.1163196,"Lon":-122.9573563},{"Country":"Spain","Town":"Telde, Las Palmas","Address":"Calle Fernando Estevez ,47. CP 35200 Las Palmas","Time":"At 12.00-13.00 (noon to 1pm)","Date":"2019-09-21","Frequency":"Weekly","Lat":27.9955313,"Lon":-15.4173726},